timeTick, roll, pitch, yaw, gyroX, gyroY, gyroZ, accX, accY, accZ, stateX, stateY, stateZ, target_x, target_y, target_z, otX, otY, otZ, otRoll, otPitch, otYaw, kalX, kalY, kalZ
10726, -0.023587802425026894, 0.05836381018161774, -0.0639367625117302, 0, 0, 0, 0, 0, 0, 0, 0, 0, 0, 0, 0, 0, 0, 0, 0, 0, 0, 0, 0, 0
10736, -0.023073835298419, 0.05596976354718208, -0.0635501816868782, 0.03851922228932381, 0.30362948775291443, 0.1426931768655777, -0.0017337335739284754, -0.0028552254661917686, 0.9986845850944519, -0.6524932384490967, -0.7634329199790955, 0.024944474920630455, 0.0, 0.0, 0.0, 0, 0, 0, 0, 0, 0, -0.6543679237365723, -0.7653905749320984, 0.025043325498700142
10746, -0.02259037271142006, 0.05538042634725571, -0.06380733847618103, 0.16883084177970886, 0.07209929078817368, 0.044257938861846924, -0.0018932744860649109, -0.0016943453811109066, 0.9992576241493225, -0.6543679237365723, -0.7653905749320984, 0.025043325498700142, 0.0, 0.0, 0.0, 0, 0, 0, 0, 0, 0, -0.6562454700469971, -0.7673503756523132, 0.025141272693872452
10756, -0.021661290898919106, 0.05653480812907219, -0.06370797753334045, 0.07607004791498184, 0.08002109825611115, 0.04544126242399216, -0.0018841649871319532, -0.004234462510794401, 0.9993115663528442, -0.6562454700469971, -0.7673503756523132, 0.025141272693872452, 0.0, 0.0, 0.0, 0, 0, 0, 0, 0, 0, -0.6581256985664368, -0.7693123817443848, 0.02523835562169552
10766, -0.02187710627913475, 0.05710982903838158, -0.062061604112386703, 0.023706158623099327, -0.020716369152069092, 0.24420124292373657, -0.002123040147125721, -0.00340070528909564, 0.9989209771156311, -0.6581256985664368, -0.7693123817443848, 0.02523835562169552, 0.0, 0.0, 0.0, 0, 0, 0, 0, 0, 0, -0.6600087881088257, -0.7712776064872742, 0.025334786623716354
10776, -0.021916091442108154, 0.05610320344567299, -0.06237906590104103, -0.015557951293885708, 0.02380060963332653, -0.021805450320243835, -0.0020436516497284174, -0.003263104008510709, 0.9973957538604736, -0.6600087881088257, -0.7712776064872742, 0.025334786623716354, 0.0, 0.0, 0.0, 0, 0, 0, 0, 0, 0, -0.6618947982788086, -0.7732459902763367, 0.02542969025671482
10786, -0.021133026108145714, 0.056218329817056656, -0.06198756396770477, 0.055516667664051056, -0.02906007692217827, -0.0665944516658783, -0.0012841077987104654, -0.0033291643485426903, 0.9980231523513794, -0.6618947982788086, -0.7732459902763367, 0.02542969025671482, 0.0, 0.0, 0.0, 0, 0, 0, 0, 0, 0, -0.6637834906578064, -0.7752169966697693, 0.0255226232111454
10796, -0.021353449672460556, 0.054976802319288254, -0.06226909160614014, -0.1001819521188736, 0.1494368463754654, -0.19555705785751343, -0.0028218748047947884, -0.003310917876660824, 1.000938057899475, -0.6637834906578064, -0.7752169966697693, 0.0255226232111454, 0.0, 0.0, 0.0, 0, 0, 0, 0, 0, 0, -0.665675163269043, -0.7771907448768616, 0.025614701211452484
10806, -0.020263783633708954, 0.0530799925327301, -0.06192436069250107, 0.0950021967291832, 0.16226127743721008, -0.24293668568134308, -0.0032140957191586494, -0.0036102323792874813, 0.9995431900024414, -0.665675163269043, -0.7771907448768616, 0.025614701211452484, 0.0, 0.0, 0.0, 0, 0, 0, 0, 0, 0, -0.6677603721618652, -0.7793655395507812, 0.025716468691825867
10816, -0.020089974626898766, 0.05481656268239021, -0.06176063418388367, 0.10419651865959167, -0.3003990948200226, -0.015214527025818825, -0.0041447109542787075, -0.0018733948236331344, 0.9990256428718567, -0.6677603721618652, -0.7793655395507812, 0.025716468691825867, 0.0, 0.0, 0.0, 0, 0, 0, 0, 0, 0, -0.6696608066558838, -0.7813454270362854, 0.025808749720454216
10826, -0.01988007128238678, 0.05473827198147774, -0.06062843278050423, 0.007161132525652647, 0.13669267296791077, 0.11001003533601761, -0.0030008351895958185, -0.0018937942804768682, 1.0013314485549927, -0.6696608066558838, -0.7813454270362854, 0.025808749720454216, 0.0, 0.0, 0.0, 0, 0, 0, 0, 0, 0, -0.6715657711029053, -0.7833269238471985, 0.02590095065534115
10836, -0.020599467679858208, 0.05564696714282036, -0.06073657423257828, -0.14483611285686493, -0.17390485107898712, -0.010437984019517899, -0.001232576323673129, -0.002661076607182622, 1.000223994255066, -0.6715657711029053, -0.7833269238471985, 0.02590095065534115, 0.0, 0.0, 0.0, 0, 0, 0, 0, 0, 0, -0.6734740138053894, -0.7853102087974548, 0.02599380724132061
10846, -0.019774114713072777, 0.05658666789531708, -0.06123136729001999, 0.19964879751205444, -0.3684796988964081, -0.09773021936416626, -0.0005167296039871871, -0.003211022587493062, 1.0010203123092651, -0.6734740138053894, -0.7853102087974548, 0.02599380724132061, 0.0, 0.0, 0.0, 0, 0, 0, 0, 0, 0, -0.6753842830657959, -0.7872958779335022, 0.026087243109941483
10856, -0.020487533882260323, 0.05498548597097397, -0.06177005171775818, -0.04380111023783684, -0.011623460799455643, -0.12931987643241882, -0.002515960019081831, -0.002995637711137533, 0.9993042349815369, -0.6753842830657959, -0.7872958779335022, 0.026087243109941483, 0.0, 0.0, 0.0, 0, 0, 0, 0, 0, 0, -0.6753842830657959, -0.7872958779335022, 0.026087243109941483
10866, -0.020040759816765785, 0.05443112924695015, -0.06099080294370651, 0.032773446291685104, -0.010286536999046803, -0.04565441980957985, -0.0036792487371712923, -0.0020061444956809282, 0.9991136789321899, -0.6772969961166382, -0.7892842888832092, 0.026180854067206383, 0.0, 0.0, 0.0, 0, 0, 0, 0, 0, 0, -0.6772969961166382, -0.7892842888832092, 0.026180854067206383
10876, -0.019385922700166702, 0.054245878010988235, -0.06214676797389984, 0.1918412744998932, -0.12447220087051392, -0.21184249222278595, -0.003306902013719082, -0.002659993479028344, 1.0000971555709839, -0.6792135834693909, -0.7912748456001282, 0.02627379819750786, 0.0, 0.0, 0.0, 0, 0, 0, 0, 0, 0, -0.6792135834693909, -0.7912748456001282, 0.02627379819750786
10886, -0.018988925963640213, 0.05523107200860977, -0.06292150169610977, 0.06509914994239807, -0.19076991081237793, -0.08334852010011673, -0.0011477709049358964, -0.0033116417471319437, 1.0004528760910034, -0.6811344027519226, -0.7932674884796143, 0.026366187259554863, 0.0, 0.0, 0.0, 0, 0, 0, 0, 0, 0, -0.6811344027519226, -0.7932674884796143, 0.026366187259554863
10896, -0.01816989853978157, 0.055644601583480835, -0.06326572597026825, -0.0312570221722126, -0.0493028424680233, -0.10812639445066452, -0.005131744779646397, -0.004227756522595882, 1.0001055002212524, -0.6830583214759827, -0.7952628135681152, 0.02645881660282612, 0.0, 0.0, 0.0, 0, 0, 0, 0, 0, 0, -0.6830583214759827, -0.7952628135681152, 0.02645881660282612
10906, -0.017714455723762512, 0.05375861003994942, -0.0638747438788414, 0.09054754674434662, 0.18735283613204956, 0.0068835788406431675, -0.0032657792326062918, -0.003090151585638523, 0.9972851872444153, -0.6849862337112427, -0.7972614169120789, 0.026551641523838043, 0.0, 0.0, 0.0, 0, 0, 0, 0, 0, 0, -0.6849862337112427, -0.7972614169120789, 0.026551641523838043
10916, -0.017243655398488045, 0.05493209883570671, -0.06401079893112183, 0.05454721301794052, -0.19883914291858673, -0.029896585270762444, -0.002817869884893298, -0.0026790823321789503, 1.0011999607086182, -0.6869192719459534, -0.7992632985115051, 0.026643145829439163, 0.0, 0.0, 0.0, 0, 0, 0, 0, 0, 0, -0.6869192719459534, -0.7992632985115051, 0.026643145829439163
10926, -0.016873793676495552, 0.0519583597779274, -0.0643167495727539, -0.05136276036500931, 0.5924072265625, 0.05294943228363991, -0.002030289499089122, -0.0016783332685008645, 1.0015897750854492, -0.6888564229011536, -0.8012678027153015, 0.026733767241239548, 0.0, 0.0, 0.0, 0, 0, 0, 0, 0, 0, -0.6888564229011536, -0.8012678027153015, 0.026733767241239548
10936, -0.016842419281601906, 0.05003194883465767, -0.06409601867198944, -0.09497817605733871, 0.34425660967826843, 0.10137331485748291, -0.004526100121438503, -0.002677011303603649, 1.0026310682296753, -0.6907970309257507, -0.8032743334770203, 0.026825714856386185, 0.0, 0.0, 0.0, 0, 0, 0, 0, 0, 0, -0.6907970309257507, -0.8032743334770203, 0.026825714856386185
10946, -0.016678212210536003, 0.04933496564626694, -0.06470493227243423, -0.0785854384303093, 0.05841055139899254, -0.10440999269485474, -0.004006572533398867, -0.0021440964192152023, 0.9989328980445862, -0.6927416920661926, -0.8052827715873718, 0.026919899508357048, 0.0, 0.0, 0.0, 0, 0, 0, 0, 0, 0, -0.6927416920661926, -0.8052827715873718, 0.026919899508357048
10956, -0.01679416559636593, 0.04816306754946709, -0.06399618834257126, -0.046612448990345, 0.0578252337872982, 0.03139768913388252, -0.002296537160873413, -0.002269189106300473, 0.9983155131340027, -0.6946911811828613, -0.8072930574417114, 0.027015026658773422, 0.0, 0.0, 0.0, 0, 0, 0, 0, 0, 0, -0.6946911811828613, -0.8072930574417114, 0.027015026658773422
10966, -0.016199415549635887, 0.04714056849479675, -0.06270043551921844, 0.10225684195756912, 0.11791443824768066, 0.12243499606847763, -0.0018847137689590454, -0.0004221205017529428, 0.9994540214538574, -0.6966446042060852, -0.8093051910400391, 0.027109000831842422, 0.0, 0.0, 0.0, 0, 0, 0, 0, 0, 0, -0.6966446042060852, -0.8093051910400391, 0.027109000831842422
10976, -0.015747126191854477, 0.04640521854162216, -0.06208663806319237, 0.06982596963644028, 0.0586424358189106, 0.2608790397644043, -0.003507497487589717, -0.0011241865577176213, 1.0011447668075562, -0.6986010670661926, -0.811318576335907, 0.027201831340789795, 0.0, 0.0, 0.0, 0, 0, 0, 0, 0, 0, -0.6986010670661926, -0.811318576335907, 0.027201831340789795
10986, -0.015126177109777927, 0.047374509274959564, -0.06192097067832947, 0.1621110588312149, -0.17554481327533722, 0.054759688675403595, -0.002660053549334407, -0.002101222751662135, 1.001619577407837, -0.700560986995697, -0.8133325576782227, 0.027294810861349106, 0.0, 0.0, 0.0, 0, 0, 0, 0, 0, 0, -0.700560986995697, -0.8133325576782227, 0.027294810861349106
10996, -0.014879574999213219, 0.04689699038863182, -0.06099884957075119, 0.07817665487527847, 0.013810536824166775, 0.09456226974725723, -0.004026949871331453, -0.003906800411641598, 0.9994801878929138, -0.7025246024131775, -0.8153476715087891, 0.027389075607061386, 0.0, 0.0, 0.0, 0, 0, 0, 0, 0, 0, -0.7025246024131775, -0.8153476715087891, 0.027389075607061386
11006, -0.015917062759399414, 0.04731165990233421, -0.06082186475396156, 0.004469241946935654, 0.019432561472058296, -0.03184753283858299, 7.084426761139184e-05, -0.004117520060390234, 0.9996755719184875, -0.7044920921325684, -0.817365288734436, 0.027483953163027763, 0.0, 0.0, 0.0, 0, 0, 0, 0, 0, 0, -0.7044920921325684, -0.817365288734436, 0.027483953163027763
11016, -0.015708619728684425, 0.0479298010468483, -0.05988133326172829, 0.0509144626557827, 0.11452934145927429, 0.057643190026283264, -0.000889424467459321, -0.0046841539442539215, 1.0002814531326294, -0.7064623832702637, -0.8193865418434143, 0.02757837623357773, 0.0, 0.0, 0.0, 0, 0, 0, 0, 0, 0, -0.7064623832702637, -0.8193865418434143, 0.02757837623357773
11026, -0.016375914216041565, 0.04747723415493965, -0.05942152813076973, -0.10841717571020126, 0.007379832211881876, 0.2401597499847412, -0.002976124407723546, -0.0019394105765968561, 0.9993253946304321, -0.7084342837333679, -0.8214117884635925, 0.027672559022903442, 0.0, 0.0, 0.0, 0, 0, 0, 0, 0, 0, -0.7084342837333679, -0.8214117884635925, 0.027672559022903442
11036, -0.016270004212856293, 0.045123785734176636, -0.0595775842666626, 0.06620703637599945, 0.3016328513622284, 0.012708100490272045, -0.0020471964962780476, -0.00397663377225399, 0.9992455840110779, -0.7104088664054871, -0.8234402537345886, 0.027766434475779533, 0.0, 0.0, 0.0, 0, 0, 0, 0, 0, 0, -0.7104088664054871, -0.8234402537345886, 0.027766434475779533
11046, -0.015710270032286644, 0.04524253308773041, -0.05922690033912659, 0.03398137912154198, -0.017812537029385567, 0.0688616931438446, 0.0005382095696404576, -0.0024983780458569527, 0.9998857975006104, -0.7123864889144897, -0.8254716396331787, 0.027859706431627274, 0.0, 0.0, 0.0, 0, 0, 0, 0, 0, 0, -0.7123864889144897, -0.8254716396331787, 0.027859706431627274
11056, -0.016609961166977882, 0.04541020840406418, -0.061164021492004395, -0.2529734969139099, -0.011320164427161217, -0.2537738084793091, 0.0001265360479010269, -0.0027341460809111595, 1.0000499486923218, -0.7143656015396118, -0.8275060653686523, 0.027952536940574646, 0.0, 0.0, 0.0, 0, 0, 0, 0, 0, 0, -0.7143656015396118, -0.8275060653686523, 0.027952536940574646
11066, -0.016358260065317154, 0.04656645655632019, -0.06097806617617607, 0.12252108752727509, -0.11075501888990402, -0.03491978347301483, -0.003974482882767916, -0.002222249982878566, 1.0028127431869507, -0.7163453102111816, -0.829542875289917, 0.02804531715810299, 0.0, 0.0, 0.0, 0, 0, 0, 0, 0, 0, -0.7163453102111816, -0.829542875289917, 0.02804531715810299
11076, -0.016251593828201294, 0.04725708067417145, -0.06122181564569473, 0.03999277204275131, -0.04105543717741966, -0.06404900550842285, -0.0034500155597925186, -4.2966374167008325e-05, 1.0005793571472168, -0.7183274030685425, -0.8315819501876831, 0.028139416128396988, 0.0, 0.0, 0.0, 0, 0, 0, 0, 0, 0, -0.7183274030685425, -0.8315819501876831, 0.028139416128396988
11086, -0.015451384708285332, 0.047292668372392654, -0.06094096601009369, 0.13595633208751678, -0.14905986189842224, 0.13341744244098663, -0.001891969470307231, -0.0020929821766912937, 0.9991632699966431, -0.720313549041748, -0.8336222171783447, 0.02823505736887455, 0.0, 0.0, 0.0, 0, 0, 0, 0, 0, 0, -0.720313549041748, -0.8336222171783447, 0.02823505736887455
11096, -0.01493154838681221, 0.048115842044353485, -0.06141887232661247, 0.0024399631656706333, -0.36551639437675476, -0.08041739463806152, -0.00017830000433605164, -0.0033875862136483192, 1.0019326210021973, -0.7223032712936401, -0.8356633186340332, 0.02833079732954502, 0.0, 0.0, 0.0, 0, 0, 0, 0, 0, 0, -0.7223032712936401, -0.8356633186340332, 0.02833079732954502
11106, -0.01528511755168438, 0.047264304012060165, -0.061092764139175415, -0.02788034826517105, -0.011894656345248222, 0.0849652886390686, -0.0005866507417522371, -0.0030501894652843475, 1.0014482736587524, -0.7242950797080994, -0.8377066254615784, 0.02842715010046959, 0.0, 0.0, 0.0, 0, 0, 0, 0, 0, 0, -0.7242950797080994, -0.8377066254615784, 0.02842715010046959
11116, -0.01546874362975359, 0.04923323169350624, -0.061261557042598724, 0.03313007950782776, -0.29127076268196106, 0.0012630269629880786, -0.0014807707630097866, -0.0006048354553058743, 1.0011096000671387, -0.7262881994247437, -0.8397527933120728, 0.02852514013648033, 0.0, 0.0, 0.0, 0, 0, 0, 0, 0, 0, -0.7262881994247437, -0.8397527933120728, 0.02852514013648033
11126, -0.015633845701813698, 0.04985468462109566, -0.062073156237602234, -0.0574348047375679, -0.07250034809112549, -0.10185335576534271, -0.0009065623744390905, -0.0019167287973687053, 1.0004849433898926, -0.7282832264900208, -0.8418007493019104, 0.028624599799513817, 0.0, 0.0, 0.0, 0, 0, 0, 0, 0, 0, -0.7282832264900208, -0.8418007493019104, 0.028624599799513817
11136, -0.014931843616068363, 0.049902208149433136, -0.06329395622015, 0.052681438624858856, -0.21426922082901, -0.42197030782699585, -0.0007762516615912318, -0.001069313264451921, 1.002307415008545, -0.7302802801132202, -0.8438498973846436, 0.0287249144166708, 0.0, 0.0, 0.0, 0, 0, 0, 0, 0, 0, -0.7302802801132202, -0.8438498973846436, 0.0287249144166708
11146, -0.01647610403597355, 0.050932738929986954, -0.063115194439888, -0.21163153648376465, -0.1778162121772766, -0.16626590490341187, -0.00428364472463727, -0.0010538066271692514, 1.0039002895355225, -0.7322791814804077, -0.8459000587463379, 0.02882649563252926, 0.0, 0.0, 0.0, 0, 0, 0, 0, 0, 0, -0.7322791814804077, -0.8459000587463379, 0.02882649563252926
11156, -0.016288038343191147, 0.051116615533828735, -0.0636809766292572, 0.08759990334510803, -0.03130314126610756, -0.020157136023044586, -0.0026030607987195253, -0.0038761026225984097, 0.9996009469032288, -0.7342814207077026, -0.8479509949684143, 0.028930796310305595, 0.0, 0.0, 0.0, 0, 0, 0, 0, 0, 0, -0.7342814207077026, -0.8479509949684143, 0.028930796310305595
11166, -0.015939420089125633, 0.05106937140226364, -0.06383117288351059, -0.025692641735076904, 0.11128648370504379, -0.0915529653429985, -0.0018126890063285828, -0.004339197650551796, 1.0008593797683716, -0.7362878918647766, -0.8500040769577026, 0.02903677336871624, 0.0, 0.0, 0.0, 0, 0, 0, 0, 0, 0, -0.7362878918647766, -0.8500040769577026, 0.02903677336871624
11176, -0.014704891480505466, 0.051712919026613235, -0.06448312103748322, 0.11847828328609467, -0.009814199060201645, -0.24815620481967926, -0.002950814086943865, -0.003462058724835515, 1.000569462776184, -0.7382975816726685, -0.852060854434967, 0.029143134132027626, 0.0, 0.0, 0.0, 0, 0, 0, 0, 0, 0, -0.7382975816726685, -0.852060854434967, 0.029143134132027626
11186, -0.013750874437391758, 0.05098111554980278, -0.06358050554990768, 0.08737484365701675, 0.07593941688537598, 0.13433359563350677, -0.003194156801328063, -0.0038846321403980255, 0.9987357258796692, -0.7403103709220886, -0.8541213274002075, 0.029250143095850945, 0.0, 0.0, 0.0, 0, 0, 0, 0, 0, 0, -0.7403103709220886, -0.8541213274002075, 0.029250143095850945
11196, -0.013321627862751484, 0.04957249015569687, -0.06288577616214752, -0.0022834273986518383, 0.18697413802146912, 0.16210949420928955, -0.0024593935813754797, -0.003286847611889243, 1.0013747215270996, -0.7423268556594849, -0.8561851978302002, 0.029356982558965683, 0.0, 0.0, 0.0, 0, 0, 0, 0, 0, 0, -0.7423268556594849, -0.8561851978302002, 0.029356982558965683
11206, -0.012947949580848217, 0.05074213072657585, -0.06309034675359726, -0.0022911587730050087, -0.19261585175991058, -0.1022101640701294, -0.004094994626939297, -0.001823302125558257, 1.0007883310317993, -0.7443470358848572, -0.8582523465156555, 0.0294639952480793, 0.0, 0.0, 0.0, 0, 0, 0, 0, 0, 0, -0.7443470358848572, -0.8582523465156555, 0.0294639952480793
11216, -0.013951762579381466, 0.04930533841252327, -0.06397058814764023, -0.2551685869693756, 0.0858311578631401, -0.2581474184989929, -0.0029555202927440405, -0.0017426430713385344, 1.0011260509490967, -0.7463710904121399, -0.8603218197822571, 0.02957218326628208, 0.0, 0.0, 0.0, 0, 0, 0, 0, 0, 0, -0.7463710904121399, -0.8603218197822571, 0.02957218326628208
11226, -0.013502479530870914, 0.05022694543004036, -0.06394308805465698, 0.056566640734672546, -0.23499295115470886, -0.1943942755460739, -0.0008882435504347086, -0.00010647114686435089, 1.0006077289581299, -0.7483991384506226, -0.8623927235603333, 0.029681507498025894, 0.0, 0.0, 0.0, 0, 0, 0, 0, 0, 0, -0.7483991384506226, -0.8623927235603333, 0.029681507498025894
11236, -0.014305348508059978, 0.049188870936632156, -0.06332416087388992, -0.24974067509174347, -0.03593628108501434, -0.06273888796567917, -0.002214054809883237, -0.0005464352434501052, 0.9997317790985107, -0.7504298686981201, -0.8644644021987915, 0.029791735112667084, 0.0, 0.0, 0.0, 0, 0, 0, 0, 0, 0, -0.7504298686981201, -0.8644644021987915, 0.029791735112667084
11246, -0.0134787792339921, 0.047897785902023315, -0.0626324862241745, 0.046852290630340576, 0.2183832824230194, 0.25716081261634827, -0.005052322056144476, -0.0032696372363716364, 0.9990977644920349, -0.7524632215499878, -0.8665363788604736, 0.02990221418440342, 0.0, 0.0, 0.0, 0, 0, 0, 0, 0, 0, -0.7524632215499878, -0.8665363788604736, 0.02990221418440342
11256, -0.013495095074176788, 0.047009844332933426, -0.06292393058538437, -0.00753646669909358, 0.20269668102264404, 0.025520682334899902, -0.002398543292656541, -0.004626710899174213, 0.9980494379997253, -0.7545011043548584, -0.8686097860336304, 0.030012132599949837, 0.0, 0.0, 0.0, 0, 0, 0, 0, 0, 0, -0.7545011043548584, -0.8686097860336304, 0.030012132599949837
11266, -0.01287025585770607, 0.048474039882421494, -0.061752770096063614, 0.05927871912717819, -0.21256068348884583, 0.041007865220308304, -0.0020786330569535494, -0.0031728101894259453, 1.0013576745986938, -0.7565435767173767, -0.8706865906715393, 0.030120737850666046, 0.0, 0.0, 0.0, 0, 0, 0, 0, 0, 0, -0.7565435767173767, -0.8706865906715393, 0.030120737850666046
11276, -0.013232785277068615, 0.04995950311422348, -0.06174967437982559, -0.05501125007867813, -0.1571008861064911, -0.043303001672029495, -0.0035912469029426575, -0.0019422791665419936, 0.9999330639839172, -0.7585891485214233, -0.8727670311927795, 0.030228938907384872, 0.0, 0.0, 0.0, 0, 0, 0, 0, 0, 0, -0.7585891485214233, -0.8727670311927795, 0.030228938907384872
11286, -0.013270856812596321, 0.04926323518157005, -0.06115429475903511, -0.1032831147313118, 0.08014325797557831, 0.008237683214247227, -0.0013554171891883016, -0.001866075093857944, 0.9987248778343201, -0.7606379389762878, -0.8748499751091003, 0.03033767268061638, 0.0, 0.0, 0.0, 0, 0, 0, 0, 0, 0, -0.7606379389762878, -0.8748499751091003, 0.03033767268061638
11296, -0.013501394540071487, 0.04996304586529732, -0.06197379156947136, -0.12350139021873474, -0.11216988414525986, -0.29681721329689026, -0.0022576868068426847, -0.001185247441753745, 1.0010632276535034, -0.7626899480819702, -0.8769347667694092, 0.0304461307823658, 0.0, 0.0, 0.0, 0, 0, 0, 0, 0, 0, -0.7626899480819702, -0.8769347667694092, 0.0304461307823658
11306, -0.01281705778092146, 0.049861639738082886, -0.06205778196454048, 0.11018537729978561, 0.1582692563533783, -0.11568449437618256, -0.002498207613825798, -0.001835977891460061, 1.000441312789917, -0.764744758605957, -0.8790209293365479, 0.03055466152727604, 0.0, 0.0, 0.0, 0, 0, 0, 0, 0, 0, -0.764744758605957, -0.8790209293365479, 0.03055466152727604
11316, -0.013286180794239044, 0.05085594952106476, -0.06264178454875946, -0.1201457530260086, -0.11356284469366074, -0.028927184641361237, -0.0016829839441925287, -0.003725458402186632, 0.9998356699943542, -0.7668026685714722, -0.8811085224151611, 0.030663978308439255, 0.0, 0.0, 0.0, 0, 0, 0, 0, 0, 0, -0.7668026685714722, -0.8811085224151611, 0.030663978308439255
11326, -0.014048077166080475, 0.05089922621846199, -0.06368356198072433, -0.06173957884311676, -0.05292532593011856, -0.18399710953235626, 0.0008834954351186752, -0.0012423505540937185, 1.0006083250045776, -0.7688634395599365, -0.883198618888855, 0.030773619189858437, 0.0, 0.0, 0.0, 0, 0, 0, 0, 0, 0, -0.7688634395599365, -0.883198618888855, 0.030773619189858437
11336, -0.014606185257434845, 0.04926767945289612, -0.06332217156887054, 0.026376698166131973, 0.18861158192157745, -0.08358180522918701, -0.00017237175779882818, -0.003815755248069763, 1.00187349319458, -0.7709255218505859, -0.8852910995483398, 0.030883576720952988, 0.0, 0.0, 0.0, 0, 0, 0, 0, 0, 0, -0.7709255218505859, -0.8852910995483398, 0.030883576720952988
11346, -0.015072040259838104, 0.05032883957028389, -0.06182297319173813, 0.09012037515640259, -0.0656152069568634, 0.14617325365543365, -0.0013244894798845053, -0.0028396269772201777, 1.0000473260879517, -0.7729882597923279, -0.8873858451843262, 0.030994664877653122, 0.0, 0.0, 0.0, 0, 0, 0, 0, 0, 0, -0.7729882597923279, -0.8873858451843262, 0.030994664877653122
11356, -0.014956322498619556, 0.051048170775175095, -0.062072914093732834, 0.13525649905204773, -0.02600967511534691, -0.08651400357484818, -0.0012004837626591325, -0.0027055039536207914, 1.0015068054199219, -0.7750524282455444, -0.889483630657196, 0.031106775626540184, 0.0, 0.0, 0.0, 0, 0, 0, 0, 0, 0, -0.7750524282455444, -0.889483630657196, 0.031106775626540184
11366, -0.01526749785989523, 0.04823078215122223, -0.06136121600866318, 0.09949128329753876, 0.4272601306438446, 0.06732477992773056, -0.0029870737344026566, -0.0024828892201185226, 1.0009980201721191, -0.7771185636520386, -0.8915839791297913, 0.031219836324453354, 0.0, 0.0, 0.0, 0, 0, 0, 0, 0, 0, -0.7771185636520386, -0.8915839791297913, 0.031219836324453354
11376, -0.015231369063258171, 0.04726444557309151, -0.06130479276180267, -0.007401520851999521, 0.10360632836818695, -0.08424758911132812, -0.0027087845373898745, -0.0024445101153105497, 0.999702513217926, -0.7791875004768372, -0.8936866521835327, 0.03133399412035942, 0.0, 0.0, 0.0, 0, 0, 0, 0, 0, 0, -0.7791875004768372, -0.8936866521835327, 0.03133399412035942
11386, -0.014417306520044804, 0.044240355491638184, -0.061506375670433044, 0.0741855725646019, 0.2714216411113739, -0.005525965243577957, -0.0032473576720803976, -0.0010782908648252487, 0.9999988675117493, -0.781260073184967, -0.8957915902137756, 0.03144828602671623, 0.0, 0.0, 0.0, 0, 0, 0, 0, 0, 0, -0.781260073184967, -0.8957915902137756, 0.03144828602671623
11396, -0.013833052478730679, 0.043953243643045425, -0.061361461877822876, 0.10131467878818512, -0.09272240102291107, 0.03830932453274727, -0.00370083749294281, -0.0017586093163117766, 1.0015649795532227, -0.7833364009857178, -0.8978981971740723, 0.03156253322958946, 0.0, 0.0, 0.0, 0, 0, 0, 0, 0, 0, -0.7833364009857178, -0.8978981971740723, 0.03156253322958946
11406, -0.014201990328729153, 0.04361332580447197, -0.06200062483549118, -0.04969879984855652, -0.04501859471201897, -0.08157502114772797, -0.0021904045715928078, -0.0033535442780703306, 0.998357892036438, -0.785416841506958, -0.9000060558319092, 0.03167753294110298, 0.0, 0.0, 0.0, 0, 0, 0, 0, 0, 0, -0.785416841506958, -0.9000060558319092, 0.03167753294110298
11416, -0.013771690428256989, 0.04103150963783264, -0.06206659972667694, 0.007715961430221796, 0.4265497624874115, -0.1007736474275589, -0.005284056067466736, -0.00120839336887002, 0.9988048076629639, -0.7875010371208191, -0.902116060256958, 0.03179243206977844, 0.0, 0.0, 0.0, 0, 0, 0, 0, 0, 0, -0.7875010371208191, -0.902116060256958, 0.03179243206977844
11426, -0.013459885492920876, 0.04520149156451225, -0.061227358877658844, -0.020030992105603218, -0.666766345500946, 0.02465222217142582, -0.003129513468593359, -0.0007549363654106855, 0.9979478120803833, -0.7895896434783936, -0.9042280912399292, 0.03190607577562332, 0.0, 0.0, 0.0, 0, 0, 0, 0, 0, 0, -0.7895896434783936, -0.9042280912399292, 0.03190607577562332
11436, -0.012615024112164974, 0.04470020532608032, -0.06094490736722946, 0.1984986513853073, -0.044540900737047195, -0.012302668765187263, -0.001801328849978745, -0.0021760202944278717, 0.9992326498031616, -0.7916830778121948, -0.9063410758972168, 0.032018162310123444, 0.0, 0.0, 0.0, 0, 0, 0, 0, 0, 0, -0.7916830778121948, -0.9063410758972168, 0.032018162310123444
11446, -0.012791736982762814, 0.04584106430411339, -0.06036743149161339, -0.04489291459321976, -0.26234108209609985, 0.09076282382011414, -0.0028098556213080883, -0.003337171161547303, 1.0000407695770264, -0.7937797904014587, -0.9084553122520447, 0.03212888166308403, 0.0, 0.0, 0.0, 0, 0, 0, 0, 0, 0, -0.7937797904014587, -0.9084553122520447, 0.03212888166308403
11456, -0.012649067677557468, 0.04499034583568573, -0.05945054441690445, 0.036575816571712494, 0.08699428290128708, 0.0353824608027935, -0.004662191029638052, -0.002566916635259986, 0.9985498785972595, -0.7958795428276062, -0.9105719327926636, 0.03223908320069313, 0.0, 0.0, 0.0, 0, 0, 0, 0, 0, 0, -0.7958795428276062, -0.9105719327926636, 0.03223908320069313
11466, -0.011966818012297153, 0.046112701296806335, -0.058633703738451004, 0.0829336941242218, -0.16864748299121857, 0.15825945138931274, -0.0028816587291657925, -0.001421283814124763, 0.9978281855583191, -0.7979835271835327, -0.9126912355422974, 0.032348595559597015, 0.0, 0.0, 0.0, 0, 0, 0, 0, 0, 0, -0.7979835271835327, -0.9126912355422974, 0.032348595559597015
11476, -0.011509649455547333, 0.04640650376677513, -0.05917869135737419, -0.012584538199007511, 0.03717316314578056, -0.0953567773103714, -0.0014382097870111465, -0.0007468356052413583, 1.002527117729187, -0.8000919222831726, -0.9148123264312744, 0.032456714659929276, 0.0, 0.0, 0.0, 0, 0, 0, 0, 0, 0, -0.8000919222831726, -0.9148123264312744, 0.032456714659929276
11486, -0.010820765979588032, 0.04753350466489792, -0.05839953571557999, 0.08196885883808136, -0.18459650874137878, 0.20010121166706085, -0.0012718394864350557, -0.0008740940247662365, 1.0015242099761963, -0.8022032976150513, -0.9169342517852783, 0.0325649119913578, 0.0, 0.0, 0.0, 0, 0, 0, 0, 0, 0, -0.8022032976150513, -0.9169342517852783, 0.0325649119913578
11496, -0.011181170120835304, 0.048273518681526184, -0.0591442734003067, 0.0013807795476168394, -0.20126977562904358, -0.05919097736477852, -0.002195612993091345, -0.0026686524506658316, 1.0014324188232422, -0.8043169975280762, -0.9190566539764404, 0.032674774527549744, 0.0, 0.0, 0.0, 0, 0, 0, 0, 0, 0, -0.8043169975280762, -0.9190566539764404, 0.032674774527549744
11506, -0.009600597433745861, 0.04731902852654457, -0.059056755155324936, 0.2339327186346054, 0.1293598711490631, -0.14325200021266937, -0.0016051589045673609, -0.0033868588507175446, 1.001213550567627, -0.8064331412315369, -0.9211805462837219, 0.03278590738773346, 0.0, 0.0, 0.0, 0, 0, 0, 0, 0, 0, -0.8064331412315369, -0.9211805462837219, 0.03278590738773346
11516, -0.00951362494379282, 0.04757921025156975, -0.05825386568903923, -0.0999685525894165, 0.03627127408981323, -0.08269926905632019, -0.0014452923787757754, -0.0018842341378331184, 1.001651406288147, -0.8085519075393677, -0.9233070015907288, 0.03289822116494179, 0.0, 0.0, 0.0, 0, 0, 0, 0, 0, 0, -0.8085519075393677, -0.9233070015907288, 0.03289822116494179
11526, -0.010202300734817982, 0.047902289777994156, -0.05762593075633049, -0.10236679017543793, -0.2152307629585266, 0.040495991706848145, -0.0014336766907945275, -0.0007771310047246516, 0.9991713762283325, -0.8106731176376343, -0.9254357218742371, 0.033012039959430695, 0.0, 0.0, 0.0, 0, 0, 0, 0, 0, 0, -0.8106731176376343, -0.9254357218742371, 0.033012039959430695
11536, -0.009742970578372478, 0.048068705946207047, -0.05720708519220352, 0.07598373293876648, 0.0852665901184082, 0.15998326241970062, -0.0014143130974844098, -0.003118897555395961, 1.0016201734542847, -0.8127967715263367, -0.9275657534599304, 0.0331263430416584, 0.0, 0.0, 0.0, 0, 0, 0, 0, 0, 0, -0.8127967715263367, -0.9275657534599304, 0.0331263430416584
11546, -0.01040827576071024, 0.047064900398254395, -0.059177931398153305, -0.08991549164056778, 0.22860777378082275, -0.3074393570423126, -0.004916150122880936, -0.0016974636819213629, 1.0001658201217651, -0.8149228692054749, -0.9296976327896118, 0.033240921795368195, 0.0, 0.0, 0.0, 0, 0, 0, 0, 0, 0, -0.8149228692054749, -0.9296976327896118, 0.033240921795368195
11556, -0.009467069990932941, 0.045773088932037354, -0.05876621603965759, 0.1930261105298996, 0.14405080676078796, 0.017185937613248825, -0.0006518149166367948, 0.0007181408000178635, 1.0009828805923462, -0.8170527815818787, -0.9318317174911499, 0.03335626423358917, 0.0, 0.0, 0.0, 0, 0, 0, 0, 0, 0, -0.8170527815818787, -0.9318317174911499, 0.03335626423358917
11566, -0.010041703470051289, 0.0481860525906086, -0.05907117575407028, -0.07708077877759933, -0.46998730301856995, -0.25529932975769043, -0.0008421065285801888, -0.001049122423864901, 0.9998185634613037, -0.8191861510276794, -0.9339663982391357, 0.03347216919064522, 0.0, 0.0, 0.0, 0, 0, 0, 0, 0, 0, -0.8213211297988892, -0.9361011981964111, 0.03358875587582588
11576, -0.009896069765090942, 0.05002303421497345, -0.059150662273168564, -0.002991253510117531, -0.3013109266757965, 0.03709213435649872, -0.0027134690899401903, -0.002299071289598942, 0.9997294545173645, -0.8213211297988892, -0.9361011981964111, 0.03358875587582588, 0.0, 0.0, 0.0, 0, 0, 0, 0, 0, 0, -0.8234583735466003, -0.9382374286651611, 0.03370548039674759
11586, -0.008020809851586819, 0.04935844615101814, -0.058218229562044144, 0.20917730033397675, 0.021912956610322, 0.09050845354795456, -0.0030106124468147755, -0.004902730695903301, 1.0000931024551392, -0.8234583735466003, -0.9382374286651611, 0.03370548039674759, 0.0, 0.0, 0.0, 0, 0, 0, 0, 0, 0, -0.8255993723869324, -0.9403766393661499, 0.03382207080721855
11596, -0.007813787087798119, 0.050722572952508926, -0.058736421167850494, 0.004628149792551994, -0.155029296875, -0.20636415481567383, -0.004065189976245165, -0.0019984995014965534, 1.0013525485992432, -0.8255993723869324, -0.9403766393661499, 0.03382207080721855, 0.0, 0.0, 0.0, 0, 0, 0, 0, 0, 0, -0.8277449011802673, -0.9425191283226013, 0.033939097076654434
11606, -0.008180671371519566, 0.049842339009046555, -0.0580131821334362, 0.009963786229491234, 0.11247480660676956, 0.10914083570241928, -0.0034251867327839136, -0.0012373290956020355, 1.0012239217758179, -0.8277449011802673, -0.9425191283226013, 0.033939097076654434, 0.0, 0.0, 0.0, 0, 0, 0, 0, 0, 0, -0.82989501953125, -0.944663405418396, 0.03405735269188881
11616, -0.00762488879263401, 0.05134883150458336, -0.057782456278800964, 0.20351186394691467, -0.11954562366008759, 0.1259860098361969, -0.001429619500413537, -0.003358386689797044, 1.0012727975845337, -0.82989501953125, -0.944663405418396, 0.03405735269188881, 0.0, 0.0, 0.0, 0, 0, 0, 0, 0, 0, -0.8320486545562744, -0.9468096494674683, 0.03417700529098511
11626, -0.0077526443637907505, 0.04967475309967995, -0.05745629593729973, 0.0003535588039085269, 0.38486671447753906, 0.06314367800951004, -0.0028896869625896215, -0.005103606730699539, 0.9999097585678101, -0.8320486545562744, -0.9468096494674683, 0.03417700529098511, 0.0, 0.0, 0.0, 0, 0, 0, 0, 0, 0, -0.8342052102088928, -0.9489598274230957, 0.034297313541173935
11636, -0.008836762048304081, 0.04981743544340134, -0.05811374634504318, -0.1836274415254593, 0.11127737164497375, -0.15983237326145172, -0.0016870825784280896, -0.0029350656550377607, 1.0008856058120728, -0.8342052102088928, -0.9489598274230957, 0.034297313541173935, 0.0, 0.0, 0.0, 0, 0, 0, 0, 0, 0, -0.83636474609375, -0.9511141777038574, 0.034418024122714996
11646, -0.009885652922093868, 0.04945868253707886, -0.05795072391629219, -0.06665527820587158, 0.06399518251419067, -0.032617781311273575, -0.0032412358559668064, -0.002373018069192767, 1.0010260343551636, -0.83636474609375, -0.9511141777038574, 0.034418024122714996, 0.0, 0.0, 0.0, 0, 0, 0, 0, 0, 0, -0.8385273814201355, -0.9532713294029236, 0.034539639949798584
11656, -0.010291073471307755, 0.050347600132226944, -0.058386173099279404, 0.030046287924051285, -0.1922825574874878, -0.24574416875839233, -0.0033885561861097813, -0.0025830308441072702, 1.0003292560577393, -0.8385273814201355, -0.9532713294029236, 0.034539639949798584, 0.0, 0.0, 0.0, 0, 0, 0, 0, 0, 0, -0.8406939506530762, -0.9554306268692017, 0.034661829471588135
11666, -0.00958604458719492, 0.05142901837825775, -0.05860409513115883, 0.08837587386369705, -0.13267244398593903, -0.05724864825606346, -0.0025334449019283056, -0.0026607285253703594, 0.9995110630989075, -0.8406939506530762, -0.9554306268692017, 0.034661829471588135, 0.0, 0.0, 0.0, 0, 0, 0, 0, 0, 0, -0.8406939506530762, -0.9554306268692017, 0.034661829471588135
11676, -0.009924260899424553, 0.052051618695259094, -0.057286154478788376, -0.08056274056434631, -0.19161070883274078, 0.1323184221982956, -0.001312767039053142, -0.0025294232182204723, 0.9991589784622192, -0.8430814743041992, -0.9578086733818054, 0.03479596599936485, 0.0, 0.0, 0.0, 0, 0, 0, 0, 0, 0, -0.8430814743041992, -0.9578086733818054, 0.03479596599936485
11686, -0.009083732031285763, 0.0530281588435173, -0.059048209339380264, 0.040772926062345505, 0.026231378316879272, -0.2737007737159729, -0.0033942258451133966, -0.003757983911782503, 1.0010613203048706, -0.8452548980712891, -0.9599732756614685, 0.03491731360554695, 0.0, 0.0, 0.0, 0, 0, 0, 0, 0, 0, -0.8452548980712891, -0.9599732756614685, 0.03491731360554695
11696, -0.00951495673507452, 0.053966011852025986, -0.06016456335783005, -0.031293969601392746, -0.035972967743873596, -0.09466022253036499, -0.003469540737569332, -0.002143055899068713, 1.0017836093902588, -0.8474316596984863, -0.962140679359436, 0.0350390262901783, 0.0, 0.0, 0.0, 0, 0, 0, 0, 0, 0, -0.8474316596984863, -0.962140679359436, 0.0350390262901783
11706, -0.009746710769832134, 0.0518776960670948, -0.061612632125616074, -0.05653136223554611, 0.4064967930316925, -0.21009625494480133, -0.000855585909448564, -0.002052449155598879, 0.9999481439590454, -0.8496127128601074, -0.9643106460571289, 0.03516221418976784, 0.0, 0.0, 0.0, 0, 0, 0, 0, 0, 0, -0.8496127128601074, -0.9643106460571289, 0.03516221418976784
11716, -0.010145491920411587, 0.049432624131441116, -0.061728183180093765, -0.0577080212533474, 0.21695831418037415, -0.04280039668083191, 0.0008062724955379963, -0.0017572649521753192, 0.9983203411102295, -0.8517968058586121, -0.9664825201034546, 0.035286132246255875, 0.0, 0.0, 0.0, 0, 0, 0, 0, 0, 0, -0.8517968058586121, -0.9664825201034546, 0.035286132246255875
11726, -0.010642927139997482, 0.05064258724451065, -0.0626678392291069, -0.05106021463871002, -0.173959419131279, -0.030455956235527992, -0.0013178656809031963, -0.004331496544182301, 0.9984872937202454, -0.8539820313453674, -0.9686561226844788, 0.03540913388133049, 0.0, 0.0, 0.0, 0, 0, 0, 0, 0, 0, -0.8539820313453674, -0.9686561226844788, 0.03540913388133049
11736, -0.009711848571896553, 0.05009210482239723, -0.06275272369384766, 0.11253118515014648, 0.02785848267376423, 0.0312805101275444, -0.002720485208556056, -0.0048401798121631145, 1.001226544380188, -0.8561685085296631, -0.9708326458930969, 0.0355307012796402, 0.0, 0.0, 0.0, 0, 0, 0, 0, 0, 0, -0.8561685085296631, -0.9708326458930969, 0.0355307012796402
11746, -0.0096988994628191, 0.051568299531936646, -0.06450722366571426, -0.009571889415383339, -0.1706312745809555, -0.29034411907196045, -0.003815689589828253, -0.0030008673202246428, 1.0013171434402466, -0.8583577871322632, -0.9730134606361389, 0.035652123391628265, 0.0, 0.0, 0.0, 0, 0, 0, 0, 0, 0, -0.8583577871322632, -0.9730134606361389, 0.035652123391628265
11756, -0.01030660793185234, 0.05102110281586647, -0.06480282545089722, -0.001698773936368525, 0.1598668396472931, -0.04272846505045891, -0.0019372656242921948, -0.0038762271869927645, 1.0014137029647827, -0.8605508804321289, -0.9751982092857361, 0.03577469289302826, 0.0, 0.0, 0.0, 0, 0, 0, 0, 0, 0, -0.8605508804321289, -0.9751982092857361, 0.03577469289302826
11766, -0.010269705206155777, 0.05127624422311783, -0.065196692943573, 0.13606402277946472, -0.07913167774677277, -0.07652455568313599, -0.0020274303387850523, -0.0024829956237226725, 1.0011178255081177, -0.8627474904060364, -0.9773863554000854, 0.035898782312870026, 0.0, 0.0, 0.0, 0, 0, 0, 0, 0, 0, -0.8627474904060364, -0.9773863554000854, 0.035898782312870026
11776, -0.011746247299015522, 0.05144190415740013, -0.0650358721613884, -0.056109778583049774, -0.17430542409420013, 0.06479169428348541, -0.0006160976481623948, -0.002291248179972172, 1.0001693964004517, -0.864946722984314, -0.9795777201652527, 0.036024220287799835, 0.0, 0.0, 0.0, 0, 0, 0, 0, 0, 0, -0.864946722984314, -0.9795777201652527, 0.036024220287799835
11786, -0.011262915097177029, 0.05134885385632515, -0.0640132948756218, 0.09571728110313416, -0.048387836664915085, 0.1738545447587967, -0.001425298280082643, -0.0019696694798767567, 1.0006345510482788, -0.8671479225158691, -0.9817716479301453, 0.036150313913822174, 0.0, 0.0, 0.0, 0, 0, 0, 0, 0, 0, -0.8671479225158691, -0.9817716479301453, 0.036150313913822174
11796, -0.011272926814854145, 0.05162561312317848, -0.06394722312688828, -0.07651183009147644, 0.03397443890571594, -0.1202114149928093, -0.00448875455185771, -0.0021854827646166086, 1.0011515617370605, -0.8693512082099915, -0.9839677214622498, 0.03627678379416466, 0.0, 0.0, 0.0, 0, 0, 0, 0, 0, 0, -0.8693512082099915, -0.9839677214622498, 0.03627678379416466
11806, -0.011732880026102066, 0.05133650824427605, -0.06378962099552155, -0.06997622549533844, 0.12104302644729614, -0.01159040816128254, -0.004267610143870115, -0.003751609241589904, 0.9990871548652649, -0.8715583086013794, -0.9861658811569214, 0.03640388697385788, 0.0, 0.0, 0.0, 0, 0, 0, 0, 0, 0, -0.8715583086013794, -0.9861658811569214, 0.03640388697385788
11816, -0.011301903985440731, 0.05242083594202995, -0.0629098191857338, 0.018897783011198044, -0.0763532742857933, 0.08784760534763336, -0.0034820628352463245, -0.0024324916303157806, 1.0001567602157593, -0.8737704753875732, -0.9883667826652527, 0.03653109073638916, 0.0, 0.0, 0.0, 0, 0, 0, 0, 0, 0, -0.8737704753875732, -0.9883667826652527, 0.03653109073638916
11826, -0.010884584859013557, 0.053156089037656784, -0.06257397681474686, 0.038027942180633545, -0.2302534431219101, -0.10104469209909439, -0.002094947500154376, -0.003631595056504011, 1.000327467918396, -0.87598717212677, -0.9905704259872437, 0.03665810450911522, 0.0, 0.0, 0.0, 0, 0, 0, 0, 0, 0, -0.87598717212677, -0.9905704259872437, 0.03665810450911522
11836, -0.011529100127518177, 0.051707200706005096, -0.06181829050183296, -0.087733194231987, 0.15314501523971558, 0.06447875499725342, -0.003699377179145813, -0.0016763504827395082, 0.9982701539993286, -0.8782076239585876, -0.9927768111228943, 0.03678526729345322, 0.0, 0.0, 0.0, 0, 0, 0, 0, 0, 0, -0.8782076239585876, -0.9927768111228943, 0.03678526729345322
11846, -0.011756991036236286, 0.05206126347184181, -0.06329917162656784, -0.10358034819364548, 0.0020391992293298244, -0.2933397591114044, -0.0026734836865216494, -0.0012861222494393587, 0.9997047185897827, -0.88043212890625, -0.9949855208396912, 0.03691177815198898, 0.0, 0.0, 0.0, 0, 0, 0, 0, 0, 0, -0.88043212890625, -0.9949855208396912, 0.03691177815198898
11856, -0.012504911981523037, 0.05132008716464043, -0.06255517899990082, -0.17991749942302704, 0.14484715461730957, 0.0956215038895607, -0.0026202674489468336, -0.002558543346822262, 0.9986671805381775, -0.8826608061790466, -0.9971957206726074, 0.037037238478660583, 0.0, 0.0, 0.0, 0, 0, 0, 0, 0, 0, -0.8826608061790466, -0.9971957206726074, 0.037037238478660583
11866, -0.01217022817581892, 0.04988088831305504, -0.0619015209376812, 0.02538478747010231, 0.11268462985754013, -0.009749050252139568, -0.0031893239356577396, -0.0019062614301219583, 0.9999369978904724, -0.8848929405212402, -0.9994078278541565, 0.037161748856306076, 0.0, 0.0, 0.0, 0, 0, 0, 0, 0, 0, -0.8848929405212402, -0.9994078278541565, 0.037161748856306076
11876, -0.012467089109122753, 0.05144866555929184, -0.06183444708585739, 0.013165690004825592, -0.14582334458827972, 0.013774463906884193, -0.0030604409985244274, -0.0017912032781168818, 1.0027997493743896, -0.8871286511421204, -1.0016220808029175, 0.03728568181395531, 0.0, 0.0, 0.0, 0, 0, 0, 0, 0, 0, -0.8871286511421204, -1.0016220808029175, 0.03728568181395531
11886, -0.011814692057669163, 0.0525042787194252, -0.06181643530726433, 0.005625822115689516, -0.03647495061159134, 0.009952589869499207, -0.0011796725448220968, -0.004424431826919317, 1.0000072717666626, -0.8893681764602661, -1.0038381814956665, 0.03741084039211273, 0.0, 0.0, 0.0, 0, 0, 0, 0, 0, 0, -0.8893681764602661, -1.0038381814956665, 0.03741084039211273
11896, -0.011391670443117619, 0.05086425691843033, -0.062252141535282135, 0.018823906779289246, 0.1344103068113327, -0.09141534566879272, -0.0030789964366704226, -0.003887040540575981, 1.001021385192871, -0.8916108012199402, -1.0060571432113647, 0.037537336349487305, 0.0, 0.0, 0.0, 0, 0, 0, 0, 0, 0, -0.8916108012199402, -1.0060571432113647, 0.037537336349487305
11906, -0.011193200014531612, 0.05169126018881798, -0.0617000050842762, -0.02828141115605831, -0.1686629056930542, 0.15800799429416656, -0.001732856617309153, -0.002932582516223192, 1.0008310079574585, -0.8938562870025635, -1.008279800415039, 0.037664491683244705, 0.0, 0.0, 0.0, 0, 0, 0, 0, 0, 0, -0.8938562870025635, -1.008279800415039, 0.037664491683244705
11916, -0.011631269007921219, 0.05299191549420357, -0.06155434995889664, -0.07511208206415176, -0.11548786610364914, -0.017540911212563515, -0.001634828862734139, -0.004177425988018513, 1.0009323358535767, -0.8961048126220703, -1.0105057954788208, 0.03779267892241478, 0.0, 0.0, 0.0, 0, 0, 0, 0, 0, 0, -0.8961048126220703, -1.0105057954788208, 0.03779267892241478
11926, -0.011420711874961853, 0.051431186497211456, -0.061502888798713684, 0.06563468277454376, -0.028891494497656822, -0.02167435735464096, -0.0020218926947563887, -0.0034821860026568174, 1.0018727779388428, -0.8983559608459473, -1.0127350091934204, 0.03792188689112663, 0.0, 0.0, 0.0, 0, 0, 0, 0, 0, 0, -0.8983559608459473, -1.0127350091934204, 0.03792188689112663
11936, -0.010564741678535938, 0.049041301012039185, -0.06108291819691658, 0.12866148352622986, 0.3058595359325409, 0.18619541823863983, -0.0030775084160268307, -0.004389640875160694, 1.000510573387146, -0.9006097316741943, -1.0149677991867065, 0.03805239126086235, 0.0, 0.0, 0.0, 0, 0, 0, 0, 0, 0, -0.9006097316741943, -1.0149677991867065, 0.03805239126086235
11946, -0.010213840752840042, 0.04919924959540367, -0.06050150468945503, 0.003321356838569045, 0.007077306509017944, 0.14257144927978516, -0.0026616412214934826, -0.002092676004394889, 0.996360719203949, -0.9028666019439697, -1.0172041654586792, 0.038183603435754776, 0.0, 0.0, 0.0, 0, 0, 0, 0, 0, 0, -0.9028666019439697, -1.0172041654586792, 0.038183603435754776
11956, -0.009486517868936062, 0.05059405043721199, -0.0614732950925827, -0.02380322851240635, -0.1745471954345703, -0.26351991295814514, -0.00012297694047447294, -0.000684538041241467, 0.9993157982826233, -0.905126690864563, -1.0194432735443115, 0.03831318020820618, 0.0, 0.0, 0.0, 0, 0, 0, 0, 0, 0, -0.905126690864563, -1.0194432735443115, 0.03831318020820618
11966, -0.008533968590199947, 0.050158705562353134, -0.06109528988599777, 0.06978968530893326, -0.10678328573703766, 0.011938627809286118, -0.0013920437777414918, -0.0020327300298959017, 1.0011801719665527, -0.9073888063430786, -1.0216835737228394, 0.0384410135447979, 0.0, 0.0, 0.0, 0, 0, 0, 0, 0, 0, -0.9073888063430786, -1.0216835737228394, 0.0384410135447979
11976, -0.009864581748843193, 0.050702910870313644, -0.06176901236176491, -0.1894579380750656, 0.06746068596839905, -0.06927593797445297, -0.0017557479441165924, -0.0021633573342114687, 1.0003122091293335, -0.9096526503562927, -1.0239250659942627, 0.03856917470693588, 0.0, 0.0, 0.0, 0, 0, 0, 0, 0, 0, -0.9096526503562927, -1.0239250659942627, 0.03856917470693588
11986, -0.010390975512564182, 0.05137144401669502, -0.06209516152739525, 0.013112690299749374, -0.09942707419395447, -0.11335612088441849, -0.0013391252141445875, -0.0033736086916178465, 0.9983831644058228, -0.9119187593460083, -1.0261683464050293, 0.03869794309139252, 0.0, 0.0, 0.0, 0, 0, 0, 0, 0, 0, -0.9119187593460083, -1.0261683464050293, 0.03869794309139252
11996, -0.009860440157353878, 0.052706029266119, -0.06258929520845413, 0.0327187217772007, -0.21272753179073334, -0.09686823189258575, -0.001663540955632925, -0.0022187151480466127, 0.9992381930351257, -0.9141871929168701, -1.028414249420166, 0.038826171308755875, 0.0, 0.0, 0.0, 0, 0, 0, 0, 0, 0, -0.9141871929168701, -1.028414249420166, 0.038826171308755875
12006, -0.009732939302921295, 0.05312275141477585, -0.06265808641910553, -0.0931917056441307, -0.012753037735819817, 0.02351045235991478, -0.004173710010945797, -0.0005722068017348647, 1.000015139579773, -0.9164583086967468, -1.0306624174118042, 0.03895353153347969, 0.0, 0.0, 0.0, 0, 0, 0, 0, 0, 0, -0.9164583086967468, -1.0306624174118042, 0.03895353153347969
12016, -0.008599072694778442, 0.052809640765190125, -0.0628034770488739, 0.10635078698396683, -0.008247955702245235, -0.13635048270225525, -0.0021326858550310135, -0.0020804456435143948, 0.9990455508232117, -0.9187331795692444, -1.032911777496338, 0.039080679416656494, 0.0, 0.0, 0.0, 0, 0, 0, 0, 0, 0, -0.9187331795692444, -1.032911777496338, 0.039080679416656494
12026, -0.009417474269866943, 0.05461031198501587, -0.0633801817893982, -0.19962161779403687, -0.04725952446460724, -0.11083763837814331, -0.0029611510690301657, -0.005569439847022295, 1.0011736154556274, -0.9210119247436523, -1.0351625680923462, 0.039207566529512405, 0.0, 0.0, 0.0, 0, 0, 0, 0, 0, 0, -0.9210119247436523, -1.0351625680923462, 0.039207566529512405
12036, -0.010455545037984848, 0.05501364544034004, -0.06251025944948196, -0.1179947778582573, -0.04530591145157814, 0.0741453617811203, -0.001560282427817583, -0.005105992779135704, 1.0018707513809204, -0.923294186592102, -1.0374171733856201, 0.039334867149591446, 0.0, 0.0, 0.0, 0, 0, 0, 0, 0, 0, -0.923294186592102, -1.0374171733856201, 0.039334867149591446
12046, -0.010716855525970459, 0.052792180329561234, -0.0616295151412487, -0.07517513632774353, 0.29414471983909607, -0.029457921162247658, 0.0007927616243250668, -0.001357505563646555, 0.9994168877601624, -0.9255795478820801, -1.0396769046783447, 0.03946373611688614, 0.0, 0.0, 0.0, 0, 0, 0, 0, 0, 0, -0.9255795478820801, -1.0396769046783447, 0.03946373611688614
12056, -0.010781945660710335, 0.05272950977087021, -0.06241922080516815, -0.04869406670331955, 0.026927202939987183, -0.058033157140016556, -0.0008608267526142299, -0.0005388203426264226, 0.9987962245941162, -0.9278663396835327, -1.041939616203308, 0.03959326073527336, 0.0, 0.0, 0.0, 0, 0, 0, 0, 0, 0, -0.9278663396835327, -1.041939616203308, 0.03959326073527336
12066, -0.011218762025237083, 0.052111897617578506, -0.06287694722414017, -0.23959313333034515, 0.20980489253997803, -0.02382318675518036, -0.00157441315241158, -0.001790402689948678, 0.9997162222862244, -0.9301542639732361, -1.0442031621932983, 0.039722051471471786, 0.0, 0.0, 0.0, 0, 0, 0, 0, 0, 0, -0.9301542639732361, -1.0442031621932983, 0.039722051471471786
12076, -0.010965699329972267, 0.05303138121962547, -0.062305375933647156, 0.014123023487627506, -0.08510484546422958, 0.011106093414127827, -0.002716823946684599, -0.0022269608452916145, 0.9998425245285034, -0.9324442744255066, -1.046467661857605, 0.03985017165541649, 0.0, 0.0, 0.0, 0, 0, 0, 0, 0, 0, -0.9324442744255066, -1.046467661857605, 0.03985017165541649
12086, -0.010701805353164673, 0.05393358692526817, -0.06250612437725067, 0.09236163645982742, -0.1322188675403595, -0.0027049430646002293, -0.004846286028623581, -0.0060252356342971325, 0.9978732466697693, -0.9347374439239502, -1.0487340688705444, 0.03997795283794403, 0.0, 0.0, 0.0, 0, 0, 0, 0, 0, 0, -0.9347374439239502, -1.0487340688705444, 0.03997795283794403
12096, -0.010687940753996372, 0.054578348994255066, -0.06301222741603851, -0.09045083075761795, 0.009323835372924805, -0.10590452700853348, -0.0033908544573932886, -0.003741402179002762, 1.0005052089691162, -0.9370353817939758, -1.051004409790039, 0.04010458290576935, 0.0, 0.0, 0.0, 0, 0, 0, 0, 0, 0, -0.9370353817939758, -1.051004409790039, 0.04010458290576935
12106, -0.011210121214389801, 0.05715882033109665, -0.06326157599687576, 0.015299971215426922, -0.3513811230659485, -0.0300077386200428, -0.0026398785412311554, -0.003085262840613723, 0.9982256293296814, -0.939338207244873, -1.0532793998718262, 0.04023027792572975, 0.0, 0.0, 0.0, 0, 0, 0, 0, 0, 0, -0.939338207244873, -1.0532793998718262, 0.04023027792572975
12116, -0.010570885613560677, 0.05697129666805267, -0.06297258287668228, 0.11253511160612106, -0.007331208325922489, 0.04164589196443558, -0.001110680284909904, -0.0024436768144369125, 1.000274896621704, -0.9416448473930359, -1.0555576086044312, 0.04035536199808121, 0.0, 0.0, 0.0, 0, 0, 0, 0, 0, 0, -0.9416448473930359, -1.0555576086044312, 0.04035536199808121
12126, -0.011400594376027584, 0.05703023448586464, -0.06462790071964264, -0.10872166603803635, -0.17551298439502716, -0.380751371383667, -0.0010051247663795948, -0.0019129951251670718, 0.999859631061554, -0.9439541101455688, -1.0578380823135376, 0.04047985002398491, 0.0, 0.0, 0.0, 0, 0, 0, 0, 0, 0, -0.9439541101455688, -1.0578380823135376, 0.04047985002398491
12136, -0.011339623481035233, 0.05776418000459671, -0.06388256698846817, -0.062470775097608566, -0.11412664502859116, 0.11428247392177582, -0.00017015408957377076, -0.0028014264535158873, 0.9988399744033813, -0.9462652206420898, -1.0601205825805664, 0.04060431569814682, 0.0, 0.0, 0.0, 0, 0, 0, 0, 0, 0, -0.9462652206420898, -1.0601205825805664, 0.04060431569814682
12146, -0.011984077282249928, 0.05793718248605728, -0.06314130127429962, -0.08950232714414597, -0.1217116042971611, -0.008088099770247936, -0.001847942708991468, -0.0017140755662694573, 1.0005875825881958, -0.948577880859375, -1.0624052286148071, 0.04072831943631172, 0.0, 0.0, 0.0, 0, 0, 0, 0, 0, 0, -0.948577880859375, -1.0624052286148071, 0.04072831943631172
12156, -0.012656676582992077, 0.060356490314006805, -0.06374479085206985, -0.006852688733488321, -0.11199093610048294, -0.12087205052375793, -0.0017270357348024845, -0.0027455217204988003, 0.9978044033050537, -0.950892448425293, -1.0646919012069702, 0.040852006524801254, 0.0, 0.0, 0.0, 0, 0, 0, 0, 0, 0, -0.950892448425293, -1.0646919012069702, 0.040852006524801254
12166, -0.013142514042556286, 0.06005237251520157, -0.06322252750396729, 0.016787827014923096, -0.009527580812573433, 0.2793366312980652, -0.003464791225269437, -0.00383642571978271, 1.000100016593933, -0.9532097578048706, -1.0669807195663452, 0.040974851697683334, 0.0, 0.0, 0.0, 0, 0, 0, 0, 0, 0, -0.9532097578048706, -1.0669807195663452, 0.040974851697683334
12176, -0.013098780065774918, 0.05935029685497284, -0.06338328868150711, -0.055503085255622864, 0.09663309901952744, 0.04589450731873512, -0.0048928759060800076, -0.0026750315446406603, 0.9998015761375427, -0.9555306434631348, -1.0692726373672485, 0.0410967618227005, 0.0, 0.0, 0.0, 0, 0, 0, 0, 0, 0, -0.9555306434631348, -1.0692726373672485, 0.0410967618227005
12186, -0.01336184237152338, 0.05861271917819977, -0.06262360513210297, -0.04081527143716812, 0.1392073780298233, 0.26391005516052246, -0.0034732623025774956, -0.002013209043070674, 0.9992733597755432, -0.9578565955162048, -1.0715676546096802, 0.04121857136487961, 0.0, 0.0, 0.0, 0, 0, 0, 0, 0, 0, -0.9578565955162048, -1.0715676546096802, 0.04121857136487961
12196, -0.01453227736055851, 0.05580771341919899, -0.06394747644662857, -0.25150710344314575, 0.15231749415397644, -0.25974106788635254, -0.003707275493070483, -0.001712404191493988, 1.0007777214050293, -0.9601877331733704, -1.0738646984100342, 0.04133979231119156, 0.0, 0.0, 0.0, 0, 0, 0, 0, 0, 0, -0.9601877331733704, -1.0738646984100342, 0.04133979231119156
12206, -0.014642500318586826, 0.05539882555603981, -0.06323477625846863, 0.057646557688713074, 0.010742908343672752, 0.11745491623878479, -0.0008554949890822172, -0.0022815975826233625, 0.9990736842155457, -0.9625232815742493, -1.076163411140442, 0.041460663080215454, 0.0, 0.0, 0.0, 0, 0, 0, 0, 0, 0, -0.9625232815742493, -1.076163411140442, 0.041460663080215454
12216, -0.014265112578868866, 0.05594318360090256, -0.06492848694324493, -0.044330645352602005, -0.18945327401161194, -0.41251981258392334, -0.0029431486036628485, -0.0020889004226773977, 0.9987022280693054, -0.9648621082305908, -1.078464150428772, 0.0415811762213707, 0.0, 0.0, 0.0, 0, 0, 0, 0, 0, 0, -0.9648621082305908, -1.078464150428772, 0.0415811762213707
12226, -0.01496117189526558, 0.0533941276371479, -0.06402746587991714, -0.28656795620918274, 0.20601479709148407, 0.08788862079381943, -0.0032792878337204456, -0.0017203250899910927, 0.9986754059791565, -0.9672038555145264, -1.0807669162750244, 0.041700419038534164, 0.0, 0.0, 0.0, 0, 0, 0, 0, 0, 0, -0.9672038555145264, -1.0807669162750244, 0.041700419038534164
12236, -0.014823045581579208, 0.052210066467523575, -0.06440114229917526, -0.08569979667663574, 0.057693254202604294, -0.06802111864089966, -0.0013496190076693892, -0.004008742514997721, 0.99964439868927, -0.9695494174957275, -1.083071231842041, 0.041818298399448395, 0.0, 0.0, 0.0, 0, 0, 0, 0, 0, 0, -0.9695494174957275, -1.083071231842041, 0.041818298399448395
12246, -0.01456023845821619, 0.05417829006910324, -0.06482269614934921, 0.01846848800778389, -0.3142412006855011, -0.04506859555840492, -0.002024170011281967, -0.004982649348676205, 0.9997588992118835, -0.9718982577323914, -1.0853780508041382, 0.04193531721830368, 0.0, 0.0, 0.0, 0, 0, 0, 0, 0, 0, -0.9718982577323914, -1.0853780508041382, 0.04193531721830368
12256, -0.013896160759031773, 0.05396467447280884, -0.06429807096719742, -0.018965568393468857, -0.011823131702840328, 0.18393196165561676, -0.0013368484796956182, -0.005485353525727987, 1.001270055770874, -0.9742497205734253, -1.0876891613006592, 0.0420520082116127, 0.0, 0.0, 0.0, 0, 0, 0, 0, 0, 0, -0.9742497205734253, -1.0876891613006592, 0.0420520082116127
12266, -0.012873050756752491, 0.05605269968509674, -0.06560271978378296, 0.1213126927614212, -0.1049598678946495, -0.20987579226493835, -0.0029852772131562233, -0.004251332022249699, 1.000567078590393, -0.9766036868095398, -1.0900051593780518, 0.04216912388801575, 0.0, 0.0, 0.0, 0, 0, 0, 0, 0, 0, -0.9766036868095398, -1.0900051593780518, 0.04216912388801575
12276, -0.012359576299786568, 0.0563802607357502, -0.06561415642499924, 0.092382051050663, 0.0338783785700798, -0.04337438568472862, -0.0017191568622365594, -0.004287858959287405, 1.001244306564331, -0.9789605736732483, -1.0923256874084473, 0.042287103831768036, 0.0, 0.0, 0.0, 0, 0, 0, 0, 0, 0, -0.9789605736732483, -1.0923256874084473, 0.042287103831768036
12286, -0.012065257877111435, 0.0562453493475914, -0.06600456684827805, -0.012229805812239647, -0.051999740302562714, -0.010398167185485363, -0.0018877878319472075, -0.0018378992099314928, 1.0004733800888062, -0.9813206791877747, -1.094650149345398, 0.042406126856803894, 0.0, 0.0, 0.0, 0, 0, 0, 0, 0, 0, -0.9813206791877747, -1.094650149345398, 0.042406126856803894
12296, -0.013420062139630318, 0.056685276329517365, -0.06589242815971375, -0.13601426780223846, -0.18486197292804718, 0.08389148116111755, -0.0027286969125270844, -0.001726150163449347, 1.000482439994812, -0.9836838841438293, -1.0969771146774292, 0.04252598434686661, 0.0, 0.0, 0.0, 0, 0, 0, 0, 0, 0, -0.9836838841438293, -1.0969771146774292, 0.04252598434686661
12306, -0.012622576206922531, 0.058205440640449524, -0.0647166296839714, 0.13720163702964783, -0.0062268441542983055, 0.1994624137878418, -0.0014004982076585293, -0.0005790538853034377, 1.000314474105835, -0.9860504269599915, -1.0993056297302246, 0.04264615848660469, 0.0, 0.0, 0.0, 0, 0, 0, 0, 0, 0, -0.9860504269599915, -1.0993056297302246, 0.04264615848660469
12316, -0.012804907746613026, 0.058288250118494034, -0.06515172868967056, 0.020522870123386383, 0.09953711181879044, 0.0138997258618474, -0.002347690984606743, -0.0009101780597120523, 0.9997134804725647, -0.9884200096130371, -1.1016350984573364, 0.04276661574840546, 0.0, 0.0, 0.0, 0, 0, 0, 0, 0, 0, -0.9884200096130371, -1.1016350984573364, 0.04276661574840546
12326, -0.012650306336581707, 0.056503355503082275, -0.06401056051254272, -0.01575460098683834, 0.25663647055625916, 0.1558276116847992, -0.0038842109497636557, -0.0031737221870571375, 0.9971184134483337, -0.9907925128936768, -1.103965163230896, 0.04288693889975548, 0.0, 0.0, 0.0, 0, 0, 0, 0, 0, 0, -0.9907925128936768, -1.103965163230896, 0.04288693889975548
12336, -0.013576289638876915, 0.05608201399445534, -0.06501481682062149, -0.15099796652793884, 0.0242391899228096, -0.14829587936401367, -0.005014034919440746, -0.0018289393046870828, 1.0013729333877563, -0.9931690096855164, -1.1062970161437988, 0.04300595074892044, 0.0, 0.0, 0.0, 0, 0, 0, 0, 0, 0, -0.9931690096855164, -1.1062970161437988, 0.04300595074892044
12346, -0.014111390337347984, 0.0565197579562664, -0.06603552401065826, -0.15429605543613434, -0.19255580008029938, -0.18431121110916138, -0.005153074860572815, -0.0025633780751377344, 1.0019853115081787, -0.9955507516860962, -1.108630895614624, 0.04312460124492645, 0.0, 0.0, 0.0, 0, 0, 0, 0, 0, 0, -0.9955507516860962, -1.108630895614624, 0.04312460124492645
12356, -0.013522962108254433, 0.056339945644140244, -0.0659305527806282, 0.1574409008026123, 0.10713182389736176, 0.15244072675704956, -0.0017250942764803767, -0.002170766470953822, 1.0004212856292725, -0.9979382753372192, -1.1109665632247925, 0.043244868516922, 0.0, 0.0, 0.0, 0, 0, 0, 0, 0, 0, -0.9979382753372192, -1.1109665632247925, 0.043244868516922
12366, -0.013532561250030994, 0.058638785034418106, -0.06706138700246811, -0.013189814053475857, -0.0884915292263031, -0.15582847595214844, -0.0032670574728399515, -0.002710901200771332, 0.9996172785758972, -1.0003300905227661, -1.1133042573928833, 0.04336635023355484, 0.0, 0.0, 0.0, 0, 0, 0, 0, 0, 0, -1.0003300905227661, -1.1133042573928833, 0.04336635023355484
