timeTick, roll, pitch, yaw, gyroX, gyroY, gyroZ, accX, accY, accZ, stateX, stateY, stateZ, target_x, target_y, target_z, otX, otY, otZ, otRoll, otPitch, otYaw, kalX, kalY, kalZ
15085, -0.07265829294919968, -0.08627203106880188, -0.02159918285906315, 0, 0, 0, 0, 0, 0, 0, 0, 0, 0, 0, 0, 0, 0, 0, 0, 0, 0, 0, 0, 0
15095, -0.0726744756102562, -0.08504503220319748, -0.02139461413025856, 0.16872179508209229, -0.12029769271612167, -0.008088874630630016, -0.002704486483708024, -0.003802600782364607, 0.9995545744895935, -1.4413310289382935, -2.5889995098114014, 0.05413134768605232, 0.0, 0.0, 0.0, 0, 0, 0, 0, 0, 0, -1.443464756011963, -2.5931320190429688, 0.05428257957100868
15105, -0.07230769842863083, -0.0844803974032402, -0.02232440561056137, -0.10058403760194778, -0.16944757103919983, -0.0928848534822464, -0.0019035156583413482, -0.005714047700166702, 0.9988136887550354, -1.443464756011963, -2.5931320190429688, 0.05428257957100868, 0.0, 0.0, 0.0, 0, 0, 0, 0, 0, 0, -1.4455997943878174, -2.5972678661346436, 0.05443306639790535
15115, -0.07152608036994934, -0.08297472447156906, -0.023671012371778488, 0.11305730789899826, -0.025710444897413254, 0.04430504888296127, -0.0007352035609073937, -0.003239664016291499, 0.9978636503219604, -1.4455997943878174, -2.5972678661346436, 0.05443306639790535, 0.0, 0.0, 0.0, 0, 0, 0, 0, 0, 0, -1.44773530960083, -2.6014068126678467, 0.054582227021455765
15125, -0.07147099822759628, -0.08261051028966904, -0.022327598184347153, 0.19642940163612366, -0.013680108822882175, -0.030929725617170334, -0.001401199260726571, -0.002895415062084794, 1.0008432865142822, -1.44773530960083, -2.6014068126678467, 0.054582227021455765, 0.0, 0.0, 0.0, 0, 0, 0, 0, 0, 0, -1.449870228767395, -2.605548143386841, 0.05473008379340172
15135, -0.07070852071046829, -0.08030596375465393, -0.022910023108124733, -0.029703207314014435, -0.34819352626800537, -0.11447205394506454, -0.004674478434026241, -0.003102509304881096, 1.004157304763794, -1.449870228767395, -2.605548143386841, 0.05473008379340172, 0.0, 0.0, 0.0, 0, 0, 0, 0, 0, 0, -1.4520056247711182, -2.6096911430358887, 0.054879069328308105
15145, -0.07008912414312363, -0.07979021966457367, -0.02208094298839569, 0.14183010160923004, -0.3013751208782196, 0.23935893177986145, -0.003494551405310631, -0.003839008044451475, 1.0013612508773804, -1.4520056247711182, -2.6096911430358887, 0.054879069328308105, 0.0, 0.0, 0.0, 0, 0, 0, 0, 0, 0, -1.4541434049606323, -2.6138360500335693, 0.05503084510564804
15155, -0.06948263943195343, -0.07998712360858917, -0.021701984107494354, 0.15516707301139832, 0.1109166368842125, 0.11274676769971848, -0.002469441154971719, -0.0026589648332446814, 1.0022375583648682, -1.4541434049606323, -2.6138360500335693, 0.05503084510564804, 0.0, 0.0, 0.0, 0, 0, 0, 0, 0, 0, -1.4562832117080688, -2.617983102798462, 0.05518447607755661
15165, -0.06879185885190964, -0.08019186556339264, -0.021569596603512764, 0.01881512627005577, -0.09703980386257172, -0.02901414781808853, -0.003599397838115692, -0.004414608236402273, 0.9999895691871643, -1.4562832117080688, -2.617983102798462, 0.05518447607755661, 0.0, 0.0, 0.0, 0, 0, 0, 0, 0, 0, -1.458424687385559, -2.6221323013305664, 0.055339425802230835
15175, -0.06943628937005997, -0.08055490255355835, -0.023195311427116394, 0.011372609063982964, -0.04718661680817604, -0.20862847566604614, -0.004388831555843353, -0.004040072672069073, 0.9995111227035522, -1.458424687385559, -2.6221323013305664, 0.055339425802230835, 0.0, 0.0, 0.0, 0, 0, 0, 0, 0, 0, -1.4605681896209717, -2.62628436088562, 0.05549467355012894
15185, -0.06922765076160431, -0.08066249638795853, -0.02339121885597706, -0.055409181863069534, 0.3024284839630127, -0.16975505650043488, -0.0029801575001329184, -0.006598290521651506, 1.0011237859725952, -1.4605681896209717, -2.62628436088562, 0.05549467355012894, 0.0, 0.0, 0.0, 0, 0, 0, 0, 0, 0, -1.4627140760421753, -2.6304399967193604, 0.055649787187576294
15195, -0.07017448544502258, -0.08166834712028503, -0.023960761725902557, -0.29537418484687805, 0.03234956040978432, -0.07266782969236374, -0.00396438455209136, -0.004019385203719139, 1.001134991645813, -1.4627140760421753, -2.6304399967193604, 0.055649787187576294, 0.0, 0.0, 0.0, 0, 0, 0, 0, 0, 0, -1.4648619890213013, -2.6345999240875244, 0.055805597454309464
15205, -0.0696491226553917, -0.0816701278090477, -0.024944089353084564, 0.04977056011557579, -0.0094738295301795, -0.05693681538105011, -0.003823888720944524, -0.004545559640973806, 1.00038480758667, -1.4648619890213013, -2.6345999240875244, 0.055805597454309464, 0.0, 0.0, 0.0, 0, 0, 0, 0, 0, 0, -1.4670116901397705, -2.638763427734375, 0.05596226453781128
15215, -0.07012327760457993, -0.08172862976789474, -0.026009896770119667, -0.13152211904525757, -0.014055810868740082, -0.06206991523504257, -0.003654216416180134, -0.005495899822562933, 1.0000368356704712, -1.4670116901397705, -2.638763427734375, 0.05596226453781128, 0.0, 0.0, 0.0, 0, 0, 0, 0, 0, 0, -1.4691638946533203, -2.642930507659912, 0.0561196394264698
15225, -0.07049127668142319, -0.08341316133737564, -0.025760965421795845, -0.038061901926994324, 0.12381487339735031, -0.1716068536043167, -0.001821355428546667, -0.004365765489637852, 0.9986394643783569, -1.4691638946533203, -2.642930507659912, 0.0561196394264698, 0.0, 0.0, 0.0, 0, 0, 0, 0, 0, 0, -1.471318006515503, -2.647101402282715, 0.05627652257680893
15235, -0.06981640309095383, -0.08190029859542847, -0.025489607825875282, 0.12130071967840195, -0.18942663073539734, 0.17602381110191345, -0.0034314601216465235, -0.003374406136572361, 1.0009961128234863, -1.471318006515503, -2.647101402282715, 0.05627652257680893, 0.0, 0.0, 0.0, 0, 0, 0, 0, 0, 0, -1.4734735488891602, -2.6512749195098877, 0.05643269047141075
15245, -0.06910821050405502, -0.07975552976131439, -0.024969182908535004, 0.06874062120914459, -0.37117379903793335, 0.04716746136546135, -0.0014605004107579589, -0.006695509888231754, 0.9990226030349731, -1.4734735488891602, -2.6512749195098877, 0.05643269047141075, 0.0, 0.0, 0.0, 0, 0, 0, 0, 0, 0, -1.4756299257278442, -2.655451536178589, 0.056589242070913315
15255, -0.06880292296409607, -0.07917343080043793, -0.024856578558683395, 0.1205049380660057, 0.1736862063407898, 0.12058471888303757, -0.00450078584253788, -0.005548238754272461, 0.9979363083839417, -1.4756299257278442, -2.655451536178589, 0.056589242070913315, 0.0, 0.0, 0.0, 0, 0, 0, 0, 0, 0, -1.4777873754501343, -2.659632444381714, 0.05674514174461365
15265, -0.06894778460264206, -0.07762013375759125, -0.025610225275158882, -0.05213073641061783, -0.04656056687235832, -0.17937764525413513, -0.0030605150386691093, -0.004603699315339327, 0.9986313581466675, -1.4777873754501343, -2.659632444381714, 0.05674514174461365, 0.0, 0.0, 0.0, 0, 0, 0, 0, 0, 0, -1.4799472093582153, -2.6638174057006836, 0.056899189949035645
15275, -0.06724996119737625, -0.0767851173877716, -0.024444852024316788, 0.02533418871462345, -0.1792704164981842, 0.17849113047122955, -0.0015327844303101301, -0.005954910535365343, 1.0010348558425903, -1.4799472093582153, -2.6638174057006836, 0.056899189949035645, 0.0, 0.0, 0.0, 0, 0, 0, 0, 0, 0, -1.48210871219635, -2.668006181716919, 0.05705244466662407
15285, -0.06693940609693527, -0.07588943094015121, -0.023679150268435478, 0.08344918489456177, -0.3594764471054077, 0.09230358898639679, -0.001526404288597405, -0.0038922408130019903, 1.0010706186294556, -1.48210871219635, -2.668006181716919, 0.05705244466662407, 0.0, 0.0, 0.0, 0, 0, 0, 0, 0, 0, -1.484270453453064, -2.672199010848999, 0.057206276804208755
15295, -0.06696677207946777, -0.07511766254901886, -0.023224161937832832, -0.11780928820371628, -0.2380228042602539, -0.0028257512021809816, -0.0020201518200337887, -0.0024109254591166973, 1.0021440982818604, -1.484270453453064, -2.672199010848999, 0.057206276804208755, 0.0, 0.0, 0.0, 0, 0, 0, 0, 0, 0, -1.4864325523376465, -2.676394462585449, 0.05736115947365761
15305, -0.06623946130275726, -0.0751061737537384, -0.02313140407204628, 0.05351892486214638, 0.05947728827595711, 0.11807382851839066, -0.0024956155102699995, -0.0030204174108803272, 1.0014628171920776, -1.4864325523376465, -2.676394462585449, 0.05736115947365761, 0.0, 0.0, 0.0, 0, 0, 0, 0, 0, 0, -1.4885953664779663, -2.680591106414795, 0.0575178861618042
15315, -0.06756266206502914, -0.07628650963306427, -0.02511579915881157, -0.10444162040948868, -0.047530751675367355, -0.5073150396347046, -0.003432948375120759, -0.0028234324418008327, 1.0008265972137451, -1.4885953664779663, -2.680591106414795, 0.0575178861618042, 0.0, 0.0, 0.0, 0, 0, 0, 0, 0, 0, -1.4907596111297607, -2.6847891807556152, 0.05767635628581047
15325, -0.06677041202783585, -0.07679610699415207, -0.02520998753607273, 0.03637843579053879, 0.10879641026258469, 0.24541710317134857, -0.0038366166409105062, -0.005935974419116974, 0.9990546703338623, -1.4907596111297607, -2.6847891807556152, 0.05767635628581047, 0.0, 0.0, 0.0, 0, 0, 0, 0, 0, 0, -1.4929258823394775, -2.6889894008636475, 0.05783522501587868
15335, -0.06829103827476501, -0.07679544389247894, -0.02579427883028984, -0.1335974484682083, -0.11313841491937637, -0.14082880318164825, -0.0037415982224047184, -0.005537488963454962, 1.000670075416565, -1.4929258823394775, -2.6889894008636475, 0.05783522501587868, 0.0, 0.0, 0.0, 0, 0, 0, 0, 0, 0, -1.4950945377349854, -2.6931936740875244, 0.057993702590465546
15345, -0.06682116538286209, -0.07728873193264008, -0.024474896490573883, 0.048628926277160645, 0.11139355599880219, 0.16631032526493073, -0.0026854120660573244, -0.0024620709009468555, 1.0004236698150635, -1.4950945377349854, -2.6931936740875244, 0.057993702590465546, 0.0, 0.0, 0.0, 0, 0, 0, 0, 0, 0, -1.497265338897705, -2.697401523590088, 0.0581524632871151
15355, -0.06765952706336975, -0.07836635410785675, -0.025487177073955536, -0.019854258745908737, 0.026237135753035545, -0.07436410337686539, -0.0031104625668376684, -0.0029987983871251345, 0.9990103244781494, -1.4994378089904785, -2.7016115188598633, 0.0583113469183445, 0.0, 0.0, 0.0, 0, 0, 0, 0, 0, 0, -1.4994378089904785, -2.7016115188598633, 0.0583113469183445
15365, -0.0672505646944046, -0.07928413897752762, -0.024739639833569527, -0.02522779442369938, 0.2673356831073761, 0.17593543231487274, -0.0034176919143646955, -0.005498993676155806, 0.9980819821357727, -1.4994378089904785, -2.7016115188598633, 0.0583113469183445, 0.0, 0.0, 0.0, 0, 0, 0, 0, 0, 0, -1.5016119480133057, -2.7058238983154297, 0.05846920609474182
15375, -0.06687577068805695, -0.07999084889888763, -0.0250833909958601, -0.05905061587691307, 0.07157242298126221, -0.11912140250205994, -0.0012943586334586143, -0.0037005096673965454, 1.000348687171936, -1.5037873983383179, -2.7100396156311035, 0.05862592160701752, 0.0, 0.0, 0.0, 0, 0, 0, 0, 0, 0, -1.5037873983383179, -2.7100396156311035, 0.05862592160701752
15385, -0.06753752380609512, -0.08006531000137329, -0.025649769231677055, -0.009893455542623997, 0.16459445655345917, 0.1502949744462967, -0.001278853276744485, -0.005779193714261055, 0.9992169141769409, -1.5037873983383179, -2.7100396156311035, 0.05862592160701752, 0.0, 0.0, 0.0, 0, 0, 0, 0, 0, 0, -1.5059632062911987, -2.7142586708068848, 0.058782223612070084
15395, -0.06717628985643387, -0.07830000668764114, -0.02430625818669796, -0.08375150710344315, -0.24272632598876953, -0.09386126697063446, -0.005332627333700657, -0.007164841517806053, 0.999061644077301, -1.5081398487091064, -2.7184815406799316, 0.0589379258453846, 0.0, 0.0, 0.0, 0, 0, 0, 0, 0, 0, -1.5081398487091064, -2.7184815406799316, 0.0589379258453846
15405, -0.06691554933786392, -0.07971780747175217, -0.02394084259867668, 0.016112519428133965, 0.18132811784744263, 0.2214837670326233, -0.004098463803529739, -0.0052220169454813, 1.0003186464309692, -1.5081398487091064, -2.7184815406799316, 0.0589379258453846, 0.0, 0.0, 0.0, 0, 0, 0, 0, 0, 0, -1.5103189945220947, -2.7227096557617188, 0.05909274145960808
15415, -0.06533098220825195, -0.07880058139562607, -0.0239592045545578, 0.12546101212501526, 0.034759823232889175, 0.055196363478899, -0.0029941254761070013, -0.004146753344684839, 1.0019088983535767, -1.512500524520874, -2.726942300796509, 0.05924779921770096, 0.0, 0.0, 0.0, 0, 0, 0, 0, 0, 0, -1.512500524520874, -2.726942300796509, 0.05924779921770096
15425, -0.06540554016828537, -0.08015498518943787, -0.023161252960562706, -0.17380714416503906, 0.32084429264068604, -0.012880995869636536, -0.0033856346271932125, -0.0030931641813367605, 1.0015590190887451, -1.512500524520874, -2.726942300796509, 0.05924779921770096, 0.0, 0.0, 0.0, 0, 0, 0, 0, 0, 0, -1.5146838426589966, -2.731178045272827, 0.059404417872428894
15435, -0.065315380692482, -0.08230109512805939, -0.022396236658096313, 0.0802185982465744, 0.2173215001821518, 0.12987828254699707, -0.0024372406769543886, -0.004247584380209446, 1.0019960403442383, -1.5146838426589966, -2.731178045272827, 0.059404417872428894, 0.0, 0.0, 0.0, 0, 0, 0, 0, 0, 0, -1.5170875787734985, -2.735840082168579, 0.05957914888858795
15445, -0.06489656865596771, -0.08101356029510498, -0.022956782951951027, 0.013867935165762901, -0.10313834249973297, 0.06357350945472717, -0.0030936484690755606, -0.0056683882139623165, 0.9995473623275757, -1.5170875787734985, -2.735840082168579, 0.05957914888858795, 0.0, 0.0, 0.0, 0, 0, 0, 0, 0, 0, -1.5192742347717285, -2.740081310272217, 0.05973929539322853
15455, -0.06483431160449982, -0.08296255767345428, -0.022105451673269272, -0.015207341872155666, 0.12703032791614532, 0.09901732951402664, -0.0015801105182617903, -0.006911917123943567, 1.0010266304016113, -1.5192742347717285, -2.740081310272217, 0.05973929539322853, 0.0, 0.0, 0.0, 0, 0, 0, 0, 0, 0, -1.521461844444275, -2.7443270683288574, 0.059900011867284775
15465, -0.06397638469934464, -0.0848139226436615, -0.021065670996904373, -0.06639061123132706, 0.4320638179779053, 0.07505679130554199, -0.0036187954246997833, -0.003968360368162394, 0.9989140629768372, -1.521461844444275, -2.7443270683288574, 0.059900011867284775, 0.0, 0.0, 0.0, 0, 0, 0, 0, 0, 0, -1.5236507654190063, -2.74857759475708, 0.060061074793338776
15475, -0.06445232778787613, -0.08393290638923645, -0.01972777768969536, -0.07736311107873917, -0.23027686774730682, 0.040760643780231476, -0.002191903768107295, -0.004513723310083151, 1.00126051902771, -1.5236507654190063, -2.74857759475708, 0.060061074793338776, 0.0, 0.0, 0.0, 0, 0, 0, 0, 0, 0, -1.5260601043701172, -2.7532567977905273, 0.060238130390644073
15485, -0.06503678858280182, -0.08571264892816544, -0.021499227732419968, -0.01129059586673975, 0.23937010765075684, -0.2343779355287552, -0.003932419698685408, -0.00371782504953444, 1.00032377243042, -1.5260601043701172, -2.7532567977905273, 0.060238130390644073, 0.0, 0.0, 0.0, 0, 0, 0, 0, 0, 0, -1.5282518863677979, -2.7575137615203857, 0.060399506241083145
15495, -0.06533221900463104, -0.08755467087030411, -0.02248549833893776, -0.022726962342858315, 0.16702121496200562, -0.14779508113861084, -0.0018023544689640403, -0.005757857114076614, 1.0015288591384888, -1.5282518863677979, -2.7575137615203857, 0.060399506241083145, 0.0, 0.0, 0.0, 0, 0, 0, 0, 0, 0, -1.5304447412490845, -2.7617743015289307, 0.06056181341409683
15505, -0.06415417790412903, -0.08781074732542038, -0.023914095014333725, 0.12502309679985046, 0.028907006606459618, -0.291581392288208, -0.004126198124140501, -0.004930455237627029, 1.0007201433181763, -1.5304447412490845, -2.7617743015289307, 0.06056181341409683, 0.0, 0.0, 0.0, 0, 0, 0, 0, 0, 0, -1.5326387882232666, -2.766038656234741, 0.060724932700395584
15515, -0.0642816349864006, -0.08859556913375854, -0.022189917042851448, -0.07717475295066833, 0.09583429992198944, -0.022215811535716057, -0.003174120094627142, -0.003293996676802635, 1.0008602142333984, -1.5326387882232666, -2.766038656234741, 0.060724932700395584, 0.0, 0.0, 0.0, 0, 0, 0, 0, 0, 0, -1.534834623336792, -2.770305871963501, 0.06088899075984955
15525, -0.06454476714134216, -0.09067843109369278, -0.022417673841118813, -0.01720297709107399, 0.3574465811252594, -0.1293056607246399, -0.0008513251086696982, -0.005833747331053019, 0.9975700974464417, -1.534834623336792, -2.770305871963501, 0.06088899075984955, 0.0, 0.0, 0.0, 0, 0, 0, 0, 0, 0, -1.5370312929153442, -2.77457594871521, 0.061052992939949036
15535, -0.06560870260000229, -0.09234310686588287, -0.023227516561746597, -0.1800898164510727, 0.18109454214572906, -0.07750090956687927, -0.00039049782208167017, -0.006072680000215769, 0.9991893768310547, -1.5370312929153442, -2.77457594871521, 0.061052992939949036, 0.0, 0.0, 0.0, 0, 0, 0, 0, 0, 0, -1.5392274856567383, -2.778850555419922, 0.06121541187167168
15545, -0.06560852378606796, -0.09156118333339691, -0.02432037889957428, -0.007856976240873337, -0.19040915369987488, -0.17877733707427979, -0.0034721349366009235, -0.0036391017492860556, 0.9999058246612549, -1.5392274856567383, -2.778850555419922, 0.06121541187167168, 0.0, 0.0, 0.0, 0, 0, 0, 0, 0, 0, -1.5414234399795532, -2.7831292152404785, 0.061376556754112244
15555, -0.0667656660079956, -0.09248615056276321, -0.02451033890247345, -0.1646919697523117, -0.02112312614917755, 0.04001430794596672, -0.0029658726416528225, -0.0038612696807831526, 0.9990116357803345, -1.5414234399795532, -2.7831292152404785, 0.061376556754112244, 0.0, 0.0, 0.0, 0, 0, 0, 0, 0, 0, -1.5436205863952637, -2.7874104976654053, 0.06153678148984909
15565, -0.06719136983156204, -0.09281402826309204, -0.023944996297359467, -0.015231361612677574, 0.06427595764398575, 0.22332297265529633, -0.0017041695537045598, -0.00432725390419364, 0.9984824061393738, -1.5436205863952637, -2.7874104976654053, 0.06153678148984909, 0.0, 0.0, 0.0, 0, 0, 0, 0, 0, 0, -1.5458189249038696, -2.7916946411132812, 0.06169574707746506
15575, -0.06740999966859818, -0.09352191537618637, -0.02302486263215542, -0.13245749473571777, 0.11928483843803406, 0.03005707822740078, -0.003824606304988265, -0.004927659407258034, 1.0014230012893677, -1.5458189249038696, -2.7916946411132812, 0.06169574707746506, 0.0, 0.0, 0.0, 0, 0, 0, 0, 0, 0, -1.548018455505371, -2.7959821224212646, 0.061854198575019836
15585, -0.06609335541725159, -0.09217393398284912, -0.0230559129267931, 0.2731850743293762, -0.052019067108631134, 0.061660073697566986, -0.0028918872121721506, -0.003189696464687586, 1.0029882192611694, -1.548018455505371, -2.7959821224212646, 0.061854198575019836, 0.0, 0.0, 0.0, 0, 0, 0, 0, 0, 0, -1.5502196550369263, -2.8002724647521973, 0.062014140188694
15595, -0.06675410270690918, -0.09272440522909164, -0.02272004634141922, -0.07364965975284576, 0.08955724537372589, 0.03258008137345314, -0.0017822989029809833, -0.002216337015852332, 1.0011961460113525, -1.5502196550369263, -2.8002724647521973, 0.062014140188694, 0.0, 0.0, 0.0, 0, 0, 0, 0, 0, 0, -1.5524219274520874, -2.8045647144317627, 0.06217620521783829
15605, -0.06690090149641037, -0.09469034522771835, -0.0216528233140707, -0.1584123969078064, 0.2681591212749481, -0.19184018671512604, -0.0019405846251174808, -0.0017595156095921993, 1.0015770196914673, -1.5524219274520874, -2.8045647144317627, 0.06217620521783829, 0.0, 0.0, 0.0, 0, 0, 0, 0, 0, 0, -1.5546246767044067, -2.8088579177856445, 0.06233957037329674
15615, -0.06779693067073822, -0.09247617423534393, -0.01995372213423252, -0.14201928675174713, -0.2908668518066406, 0.14714333415031433, -0.0013311689253896475, -0.004086068365722895, 1.0002754926681519, -1.5546246767044067, -2.8088579177856445, 0.06233957037329674, 0.0, 0.0, 0.0, 0, 0, 0, 0, 0, 0, -1.556827425956726, -2.813152551651001, 0.06250354647636414
15625, -0.06676392257213593, -0.09174471348524094, -0.02009235881268978, 0.1360393911600113, -0.039777010679244995, 0.027644161134958267, -0.0026369590777903795, -0.003682567970827222, 1.000624179840088, -1.556827425956726, -2.813152551651001, 0.06250354647636414, 0.0, 0.0, 0.0, 0, 0, 0, 0, 0, 0, -1.5590301752090454, -2.8174495697021484, 0.06266797333955765
15635, -0.06667861342430115, -0.09201261401176453, -0.01896839402616024, 0.09576430171728134, -0.11349654942750931, 0.055899567902088165, -0.00273117795586586, -0.004077398218214512, 0.9995000958442688, -1.5590301752090454, -2.8174495697021484, 0.06266797333955765, 0.0, 0.0, 0.0, 0, 0, 0, 0, 0, 0, -1.5612338781356812, -2.821749210357666, 0.06283257156610489
15645, -0.06728007644414902, -0.0916157215833664, -0.018638424575328827, -0.036341145634651184, -0.1955263614654541, 0.02751990221440792, -0.003923703916370869, -0.005902581382542849, 0.9976531863212585, -1.5612338781356812, -2.821749210357666, 0.06283257156610489, 0.0, 0.0, 0.0, 0, 0, 0, 0, 0, 0, -1.5634394884109497, -2.82605242729187, 0.0629962682723999
15655, -0.06720699369907379, -0.09400351345539093, -0.018015341833233833, 0.09101888537406921, 0.3250003457069397, 0.17340217530727386, -0.00040896673453971744, -0.0050203511491417885, 0.9991484880447388, -1.5634394884109497, -2.82605242729187, 0.0629962682723999, 0.0, 0.0, 0.0, 0, 0, 0, 0, 0, 0, -1.5656460523605347, -2.83035945892334, 0.06315874308347702
15665, -0.06669768691062927, -0.09461601823568344, -0.01796860434114933, -0.004799053072929382, -0.0929805114865303, 0.18047669529914856, -0.0027399121318012476, -0.004623688291758299, 0.9998379349708557, -1.5656460523605347, -2.83035945892334, 0.06315874308347702, 0.0, 0.0, 0.0, 0, 0, 0, 0, 0, 0, -1.5678526163101196, -2.834670305252075, 0.0633203387260437
15675, -0.06744340807199478, -0.09370914846658707, -0.01869927905499935, -0.08492404222488403, -0.1624232679605484, 0.01605430617928505, -0.0025304004084318876, -0.0031959672924131155, 0.9989418983459473, -1.5678526163101196, -2.834670305252075, 0.0633203387260437, 0.0, 0.0, 0.0, 0, 0, 0, 0, 0, 0, -1.5700600147247314, -2.838984251022339, 0.06348113715648651
15685, -0.0677274614572525, -0.09487264603376389, -0.019984045997262, -0.05342327803373337, 0.031474046409130096, -0.11664101481437683, -0.0031161431688815355, -0.0033640230540186167, 0.9992920756340027, -1.5700600147247314, -2.838984251022339, 0.06348113715648651, 0.0, 0.0, 0.0, 0, 0, 0, 0, 0, 0, -1.5722686052322388, -2.8432998657226562, 0.0636410340666771
15695, -0.06752941012382507, -0.09702625870704651, -0.018093502148985863, -0.018629319965839386, 0.287911057472229, 0.1094949021935463, -0.0012062375899404287, -0.005172054283320904, 0.9986517429351807, -1.5722686052322388, -2.8432998657226562, 0.0636410340666771, 0.0, 0.0, 0.0, 0, 0, 0, 0, 0, 0, -1.5744777917861938, -2.8476181030273438, 0.06379993259906769
15705, -0.0675659328699112, -0.09709841758012772, -0.01910354010760784, -0.04612942785024643, -0.15211176872253418, -0.2557932138442993, -0.00048485660227015615, -0.004475075285881758, 1.0021799802780151, -1.5744777917861938, -2.8476181030273438, 0.06379993259906769, 0.0, 0.0, 0.0, 0, 0, 0, 0, 0, 0, -1.5766866207122803, -2.8519396781921387, 0.06395880877971649
15715, -0.06809785962104797, -0.09701140224933624, -0.01838451251387596, -0.10714969038963318, 0.04777860268950462, 0.25470471382141113, -0.002774270484223962, -0.004334702622145414, 1.0030529499053955, -1.5766866207122803, -2.8519396781921387, 0.06395880877971649, 0.0, 0.0, 0.0, 0, 0, 0, 0, 0, 0, -1.5788954496383667, -2.856264591217041, 0.06411989778280258
15725, -0.06784313917160034, -0.0981229692697525, -0.018746135756373405, -0.11887554079294205, 0.1553691327571869, -0.07006357610225677, -0.004697049502283335, -0.005371022038161755, 1.0010074377059937, -1.5788954496383667, -2.856264591217041, 0.06411989778280258, 0.0, 0.0, 0.0, 0, 0, 0, 0, 0, 0, -1.5811057090759277, -2.8605926036834717, 0.06428318470716476
15735, -0.06810644268989563, -0.09665600955486298, -0.01948157325387001, -0.08783040195703506, -0.20355011522769928, -0.003274522954598069, -0.004316405858844519, -0.005039543844759464, 0.9990202188491821, -1.5811057090759277, -2.8605926036834717, 0.06428318470716476, 0.0, 0.0, 0.0, 0, 0, 0, 0, 0, 0, -1.5833184719085693, -2.864924669265747, 0.0644465908408165
15745, -0.06926582008600235, -0.09655430912971497, -0.020250732079148293, -0.18350063264369965, -0.030090032145380974, -0.04494844749569893, -0.0038729447405785322, -0.004577266052365303, 1.0014430284500122, -1.5833184719085693, -2.864924669265747, 0.0644465908408165, 0.0, 0.0, 0.0, 0, 0, 0, 0, 0, 0, -1.5855337381362915, -2.869260549545288, 0.0646100714802742
15755, -0.06931524723768234, -0.09781228750944138, -0.019961459562182426, 0.013683809898793697, 0.06031673774123192, -0.15306006371974945, -0.00296829198487103, -0.004492363892495632, 0.9986857175827026, -1.5855337381362915, -2.869260549545288, 0.0646100714802742, 0.0, 0.0, 0.0, 0, 0, 0, 0, 0, 0, -1.587750792503357, -2.8735997676849365, 0.06477368623018265
15765, -0.07037749886512756, -0.10005643963813782, -0.019129594787955284, -0.13976140320301056, 0.2596055865287781, 0.028824666514992714, -0.0029678253922611475, -0.003097937908023596, 0.9976802468299866, -1.587750792503357, -2.8735997676849365, 0.06477368623018265, 0.0, 0.0, 0.0, 0, 0, 0, 0, 0, 0, -1.589969277381897, -2.877941608428955, 0.06493596732616425
15775, -0.07030035555362701, -0.09835734963417053, -0.0198187418282032, 0.04079505801200867, -0.1679442822933197, 0.12932869791984558, -0.003617416135966778, -0.00577167235314846, 0.999619722366333, -1.589969277381897, -2.877941608428955, 0.06493596732616425, 0.0, 0.0, 0.0, 0, 0, 0, 0, 0, 0, -1.5921891927719116, -2.882286548614502, 0.06509696692228317
15785, -0.07086408138275146, -0.09923762828111649, -0.020062660798430443, 0.01367263961583376, 0.18373630940914154, 0.1188921108841896, -0.0029585694428533316, -0.0061486209742724895, 0.9992093443870544, -1.5921891927719116, -2.882286548614502, 0.06509696692228317, 0.0, 0.0, 0.0, 0, 0, 0, 0, 0, 0, -1.59441077709198, -2.8866357803344727, 0.06525726616382599
15795, -0.07118064910173416, -0.09981969743967056, -0.020603090524673462, 0.05659330263733864, 0.013588819652795792, -0.05640139803290367, -0.0012284013209864497, -0.0038437172770500183, 0.9996381998062134, -1.59441077709198, -2.8866357803344727, 0.06525726616382599, 0.0, 0.0, 0.0, 0, 0, 0, 0, 0, 0, -1.5966334342956543, -2.890989065170288, 0.06541692465543747
15805, -0.07174567878246307, -0.10072241723537445, -0.020748840644955635, -0.05258655920624733, -0.12546037137508392, 0.1069822907447815, -0.002864984329789877, -0.003964896779507399, 0.9991118907928467, -1.5966334342956543, -2.890989065170288, 0.06541692465543747, 0.0, 0.0, 0.0, 0, 0, 0, 0, 0, 0, -1.5988565683364868, -2.8953449726104736, 0.06557600200176239
15815, -0.0708082839846611, -0.102376289665699, -0.02077876590192318, 0.16831903159618378, 0.17151303589344025, 0.013039824552834034, -0.00507107051089406, -0.005135395098477602, 0.9988999962806702, -1.5988565683364868, -2.8953449726104736, 0.06557600200176239, 0.0, 0.0, 0.0, 0, 0, 0, 0, 0, 0, -1.6010816097259521, -2.8997037410736084, 0.06573421508073807
15825, -0.06988314539194107, -0.09895934164524078, -0.019459955394268036, 0.0674472227692604, -0.4965461194515228, 0.04429071769118309, -0.0024115429259836674, -0.003062628908082843, 1.0008851289749146, -1.6010816097259521, -2.8997037410736084, 0.06573421508073807, 0.0, 0.0, 0.0, 0, 0, 0, 0, 0, 0, -1.603308916091919, -2.9040653705596924, 0.065891794860363
15835, -0.0696948915719986, -0.09823043644428253, -0.018992852419614792, 0.057725533843040466, 0.059491321444511414, 0.05300189182162285, -0.0021339310333132744, -0.0018062186427414417, 1.0022295713424683, -1.603308916091919, -2.9040653705596924, 0.065891794860363, 0.0, 0.0, 0.0, 0, 0, 0, 0, 0, 0, -1.605536937713623, -2.90842866897583, 0.06605054438114166
15845, -0.06989949941635132, -0.09877041727304459, -0.020449679344892502, -0.02992190606892109, 0.04921353980898857, -0.3305359184741974, -0.0024111538659781218, -0.0024725410621613264, 1.0008816719055176, -1.605536937713623, -2.90842866897583, 0.06605054438114166, 0.0, 0.0, 0.0, 0, 0, 0, 0, 0, 0, -1.6077653169631958, -2.912792921066284, 0.06621118634939194
15855, -0.07051548361778259, -0.0984693318605423, -0.019948819652199745, -0.06486300379037857, -0.15933701395988464, -0.07200787216424942, -0.0028203176334500313, -0.0034001541789621115, 0.9994353652000427, -1.6077653169631958, -2.912792921066284, 0.06621118634939194, 0.0, 0.0, 0.0, 0, 0, 0, 0, 0, 0, -1.6099944114685059, -2.917158842086792, 0.06637232005596161
15865, -0.07020977884531021, -0.09917145222425461, -0.020320823416113853, 0.018984176218509674, -0.004143829923123121, -0.23397186398506165, -0.0056797512806952, -0.006027639377862215, 1.0009026527404785, -1.6099944114685059, -2.917158842086792, 0.06637232005596161, 0.0, 0.0, 0.0, 0, 0, 0, 0, 0, 0, -1.6122254133224487, -2.921527862548828, 0.06653361767530441
15875, -0.07030956447124481, -0.09953471273183823, -0.02054317481815815, -0.08771281689405441, -0.13919246196746826, -0.15817371010780334, -0.0037708845920860767, -0.004851229954510927, 0.9994375109672546, -1.6122254133224487, -2.921527862548828, 0.06653361767530441, 0.0, 0.0, 0.0, 0, 0, 0, 0, 0, 0, -1.6144590377807617, -2.925900936126709, 0.06669516116380692
15885, -0.07019860297441483, -0.09916277974843979, -0.021112438291311264, 0.03637586161494255, 0.0980510413646698, -0.22146451473236084, -0.0009554518037475646, -0.003921194933354855, 0.9994000196456909, -1.6144590377807617, -2.925900936126709, 0.06669516116380692, 0.0, 0.0, 0.0, 0, 0, 0, 0, 0, 0, -1.6166938543319702, -2.9302775859832764, 0.06685628741979599
15895, -0.06997642666101456, -0.09766148030757904, -0.02156541496515274, 0.03902573883533478, -0.038674723356962204, 0.016749940812587738, -0.0035162344574928284, -0.004261269234120846, 0.9988062381744385, -1.6166938543319702, -2.9302775859832764, 0.06685628741979599, 0.0, 0.0, 0.0, 0, 0, 0, 0, 0, 0, -1.6189290285110474, -2.934657096862793, 0.06701651215553284
15905, -0.06995896995067596, -0.09882666915655136, -0.021088628098368645, 0.03364469110965729, 0.03319539502263069, -0.0625644400715828, -0.002016550162807107, -0.006429931148886681, 1.0017552375793457, -1.6189290285110474, -2.934657096862793, 0.06701651215553284, 0.0, 0.0, 0.0, 0, 0, 0, 0, 0, 0, -1.621165156364441, -2.939040184020996, 0.06717674434185028
15915, -0.06909409165382385, -0.09656506031751633, -0.021550379693508148, 0.017859717831015587, -0.34532034397125244, -0.2733469009399414, -0.0030549601651728153, -0.004304816015064716, 1.0011910200119019, -1.621165156364441, -2.939040184020996, 0.06717674434185028, 0.0, 0.0, 0.0, 0, 0, 0, 0, 0, 0, -1.6234021186828613, -2.943427324295044, 0.0673380196094513
15925, -0.06844066828489304, -0.09668046236038208, -0.020548762753605843, 0.09805002063512802, 0.1277618706226349, 0.11880960315465927, -0.003250374924391508, -0.005109650548547506, 1.0011329650878906, -1.6234021186828613, -2.943427324295044, 0.0673380196094513, 0.0, 0.0, 0.0, 0, 0, 0, 0, 0, 0, -1.6256405115127563, -2.9478182792663574, 0.06750021874904633
15935, -0.06788252294063568, -0.09702245891094208, -0.019099950790405273, 0.022257793694734573, -0.02404482662677765, 0.29063844680786133, -0.0015271437587216496, -0.004709151573479176, 1.0012465715408325, -1.6256405115127563, -2.9478182792663574, 0.06750021874904633, 0.0, 0.0, 0.0, 0, 0, 0, 0, 0, 0, -1.6278798580169678, -2.9522128105163574, 0.06766335666179657
15945, -0.06854944676160812, -0.09654287248849869, -0.019093956798315048, -0.0534546859562397, -0.009530668146908283, 0.10109490156173706, -0.0020853604655712843, -0.002995683578774333, 1.0012805461883545, -1.6278798580169678, -2.9522128105163574, 0.06766335666179657, 0.0, 0.0, 0.0, 0, 0, 0, 0, 0, 0, -1.6301190853118896, -2.9566104412078857, 0.06782780587673187
15955, -0.06922982633113861, -0.09398256987333298, -0.018533876165747643, -0.12151136994361877, -0.32665613293647766, 0.1180475503206253, -0.0037889007944613695, -0.004287637770175934, 0.9989191293716431, -1.6301190853118896, -2.9566104412078857, 0.06782780587673187, 0.0, 0.0, 0.0, 0, 0, 0, 0, 0, 0, -1.6323590278625488, -2.961010694503784, 0.0679926872253418
15965, -0.068830706179142, -0.09516311436891556, -0.017637470737099648, 0.07465533167123795, 0.2989397644996643, 0.11969989538192749, -0.0038619921542704105, -0.004008293617516756, 1.0013591051101685, -1.6323590278625488, -2.961010694503784, 0.0679926872253418, 0.0, 0.0, 0.0, 0, 0, 0, 0, 0, 0, -1.634601354598999, -2.965413808822632, 0.06815754622220993
15975, -0.06808029115200043, -0.09534326195716858, -0.018529025837779045, 0.14273370802402496, 0.10861103981733322, -0.07877745479345322, -0.0035251693334430456, -0.004007158800959587, 1.001114845275879, -1.634601354598999, -2.965413808822632, 0.06815754622220993, 0.0, 0.0, 0.0, 0, 0, 0, 0, 0, 0, -1.6368457078933716, -2.9698197841644287, 0.06832342594861984
15985, -0.06813639402389526, -0.09668254107236862, -0.017918827012181282, -0.08684266358613968, 0.23939548432826996, 0.12996815145015717, -0.003227847395464778, -0.0027056182734668255, 1.0001509189605713, -1.6368457078933716, -2.9698197841644287, 0.06832342594861984, 0.0, 0.0, 0.0, 0, 0, 0, 0, 0, 0, -1.6390917301177979, -2.9742281436920166, 0.06849012523889542
15995, -0.0685727521777153, -0.09825120866298676, -0.01787695847451687, -0.0721590518951416, -0.0002216733555542305, -0.07875566929578781, -0.0030380506068468094, -0.0024639994371682405, 0.9994375705718994, -1.6390917301177979, -2.9742281436920166, 0.06849012523889542, 0.0, 0.0, 0.0, 0, 0, 0, 0, 0, 0, -1.6413393020629883, -2.978638172149658, 0.06865635514259338
16005, -0.0688445195555687, -0.09955205768346786, -0.01793607883155346, -0.06763383746147156, 0.052596621215343475, -0.12647809088230133, -0.0035117457155138254, -0.00279781362041831, 0.9997724294662476, -1.6413393020629883, -2.978638172149658, 0.06865635514259338, 0.0, 0.0, 0.0, 0, 0, 0, 0, 0, 0, -1.6435881853103638, -2.9830496311187744, 0.06882209330797195
16015, -0.06800393015146255, -0.09842151403427124, -0.01880389079451561, 0.04355853796005249, -0.12083952128887177, -0.035074274986982346, -0.001171473297290504, -0.0043642218224704266, 0.9998639225959778, -1.6435881853103638, -2.9830496311187744, 0.06882209330797195, 0.0, 0.0, 0.0, 0, 0, 0, 0, 0, 0, -1.6458377838134766, -2.9874632358551025, 0.06898783147335052
16025, -0.06729315221309662, -0.0977497473359108, -0.018803952261805534, 0.014046709053218365, -0.20338036119937897, 0.13411031663417816, -0.0017697194125503302, -0.0039468626491725445, 1.0002589225769043, -1.6458377838134766, -2.9874632358551025, 0.06898783147335052, 0.0, 0.0, 0.0, 0, 0, 0, 0, 0, 0, -1.6480876207351685, -2.99187970161438, 0.06915336847305298
16035, -0.06900154054164886, -0.10008129477500916, -0.017485646530985832, -0.19288930296897888, 0.13526545464992523, 0.2680646479129791, -0.0014956732047721744, -0.006251456681638956, 0.9996556639671326, -1.6480876207351685, -2.99187970161438, 0.06915336847305298, 0.0, 0.0, 0.0, 0, 0, 0, 0, 0, 0, -1.6503374576568604, -2.9962997436523438, 0.06931894272565842
16045, -0.06849543750286102, -0.10161907225847244, -0.0174857210367918, -0.018631955608725548, 0.055871207267045975, -0.06506747007369995, -0.0021538138389587402, -0.005429868120700121, 1.0011283159255981, -1.6503374576568604, -2.9962997436523438, 0.06931894272565842, 0.0, 0.0, 0.0, 0, 0, 0, 0, 0, 0, -1.6525874137878418, -3.0007243156433105, 0.06948500126600266
16055, -0.0682579055428505, -0.09842173010110855, -0.01730584166944027, 0.015003273263573647, -0.6751596927642822, 0.11929935961961746, -0.0020307532977312803, -0.004397365730255842, 1.0016276836395264, -1.6525874137878418, -3.0007243156433105, 0.06948500126600266, 0.0, 0.0, 0.0, 0, 0, 0, 0, 0, 0, -1.654837727546692, -3.005152463912964, 0.0696522668004036
16065, -0.06897997111082077, -0.09847725927829742, -0.017792552709579468, -0.17640116810798645, 0.29337164759635925, 0.06274868547916412, -0.0017636728007346392, -0.005430198740214109, 1.0018211603164673, -1.654837727546692, -3.005152463912964, 0.0696522668004036, 0.0, 0.0, 0.0, 0, 0, 0, 0, 0, 0, -1.6570881605148315, -3.009584426879883, 0.06982112675905228
16075, -0.06756653636693954, -0.0965777039527893, -0.017417242750525475, 0.10459498316049576, -0.25470009446144104, -0.0846795067191124, -0.0023571269121021032, -0.008024616166949272, 0.9991782307624817, -1.6570881605148315, -3.009584426879883, 0.06982112675905228, 0.0, 0.0, 0.0, 0, 0, 0, 0, 0, 0, -1.6593388319015503, -3.014021635055542, 0.06999044865369797
16085, -0.0665540024638176, -0.09857241064310074, -0.01597711071372032, 0.04835805296897888, 0.14164669811725616, 0.22981475293636322, -0.002774880500510335, -0.005288529675453901, 0.9996550679206848, -1.6593388319015503, -3.014021635055542, 0.06999044865369797, 0.0, 0.0, 0.0, 0, 0, 0, 0, 0, 0, -1.6615902185440063, -3.0184643268585205, 0.07015924900770187
16095, -0.06713701784610748, -0.09889236837625504, -0.01627684012055397, -0.0156395360827446, -0.02822510525584221, -0.10678905248641968, -0.0025028439704328775, -0.004752955865114927, 1.000928521156311, -1.6615902185440063, -3.0184643268585205, 0.07015924900770187, 0.0, 0.0, 0.0, 0, 0, 0, 0, 0, 0, -1.6638425588607788, -3.0229108333587646, 0.07032796740531921
16105, -0.06733010709285736, -0.09983924776315689, -0.017428355291485786, -0.08373665064573288, 0.007191110868006945, -0.19122035801410675, -0.0028396667912602425, -0.005376535467803478, 1.0000122785568237, -1.6638425588607788, -3.0229108333587646, 0.07032796740531921, 0.0, 0.0, 0.0, 0, 0, 0, 0, 0, 0, -1.6660959720611572, -3.0273609161376953, 0.07049719989299774
16115, -0.06752011179924011, -0.1007954403758049, -0.01731422170996666, 0.03839733824133873, 0.07898415625095367, 0.07064220309257507, -0.002596817212179303, -0.003917398862540722, 0.9976155161857605, -1.6660959720611572, -3.0273609161376953, 0.07049719989299774, 0.0, 0.0, 0.0, 0, 0, 0, 0, 0, 0, -1.6683505773544312, -3.0318145751953125, 0.0706658735871315
16125, -0.067252017557621, -0.09982500225305557, -0.01761651784181595, 0.10476785898208618, -0.014144894666969776, 0.04206596314907074, -0.0034735866356641054, -0.0038671221118420362, 0.9993475675582886, -1.6683505773544312, -3.0318145751953125, 0.0706658735871315, 0.0, 0.0, 0.0, 0, 0, 0, 0, 0, 0, -1.6706063747406006, -3.0362706184387207, 0.07083308696746826
16135, -0.06759262830018997, -0.09892971068620682, -0.017133047804236412, -0.07602998614311218, -0.17738474905490875, -0.03410617262125015, -0.0029395262245088816, -0.0045808469876646996, 1.0012869834899902, -1.6706063747406006, -3.0362706184387207, 0.07083308696746826, 0.0, 0.0, 0.0, 0, 0, 0, 0, 0, 0, -1.672863245010376, -3.040729522705078, 0.07100015133619308
16145, -0.0679837316274643, -0.10151368379592896, -0.0173282902687788, -0.17403391003608704, 0.4588339030742645, -0.003130599856376648, -0.005394991487264633, -0.003922902513295412, 1.001816987991333, -1.672863245010376, -3.040729522705078, 0.07100015133619308, 0.0, 0.0, 0.0, 0, 0, 0, 0, 0, 0, -1.6751222610473633, -3.045191764831543, 0.07116838544607162
16155, -0.06780146062374115, -0.1014503464102745, -0.018383115530014038, -0.05163475126028061, 0.042371541261672974, -0.03611725941300392, -0.004561734851449728, -0.005274930037558079, 1.0022079944610596, -1.6751222610473633, -3.045191764831543, 0.07116838544607162, 0.0, 0.0, 0.0, 0, 0, 0, 0, 0, 0, -1.6773844957351685, -3.049657106399536, 0.07133837044239044
16165, -0.06799155473709106, -0.10492274165153503, -0.017890222370624542, -0.009865806438028812, 0.4363384544849396, 0.0897606760263443, -0.0025507528334856033, -0.002305444795638323, 1.0011613368988037, -1.6773844957351685, -3.049657106399536, 0.07133837044239044, 0.0, 0.0, 0.0, 0, 0, 0, 0, 0, 0, -1.679648995399475, -3.054124593734741, 0.0715102106332779
16175, -0.0681915357708931, -0.10379898548126221, -0.01902950368821621, 0.08200149983167648, -0.2943571209907532, -0.259362131357193, -0.0012850717175751925, -0.003436144907027483, 1.0015841722488403, -1.679648995399475, -3.054124593734741, 0.0715102106332779, 0.0, 0.0, 0.0, 0, 0, 0, 0, 0, 0, -1.6819140911102295, -3.058594226837158, 0.07168350368738174
16185, -0.06811650097370148, -0.10307255387306213, -0.018962906673550606, 0.01429353840649128, -0.10088827461004257, -0.07681218534708023, -0.0013907257234677672, -0.0034325781743973494, 1.000380516052246, -1.6819140911102295, -3.058594226837158, 0.07168350368738174, 0.0, 0.0, 0.0, 0, 0, 0, 0, 0, 0, -1.6841789484024048, -3.063066005706787, 0.07185785472393036
16195, -0.06846977770328522, -0.10492678731679916, -0.018688367679715157, 0.05281384289264679, 0.20217271149158478, -0.037052106112241745, -0.0025957573670893908, -0.0049744173884391785, 1.0001819133758545, -1.6841789484024048, -3.063066005706787, 0.07185785472393036, 0.0, 0.0, 0.0, 0, 0, 0, 0, 0, 0, -1.68644380569458, -3.0675411224365234, 0.07203235477209091
16205, -0.06890790164470673, -0.10622217506170273, -0.01765443943440914, -0.02020489051938057, 0.09302489459514618, 0.028715580701828003, -0.0036429555620998144, -0.0054798973724246025, 1.0005828142166138, -1.68644380569458, -3.0675411224365234, 0.07203235477209091, 0.0, 0.0, 0.0, 0, 0, 0, 0, 0, 0, -1.6887096166610718, -3.0720200538635254, 0.07220673561096191
16215, -0.06899243593215942, -0.10740126669406891, -0.019057918339967728, 0.07079422473907471, 0.1434466540813446, -0.3289433419704437, -0.0014568772166967392, -0.005146916955709457, 1.0011204481124878, -1.6887096166610718, -3.0720200538635254, 0.07220673561096191, 0.0, 0.0, 0.0, 0, 0, 0, 0, 0, 0, -1.6909765005111694, -3.076502799987793, 0.07238171994686127
16225, -0.06924223154783249, -0.108513742685318, -0.01822461374104023, -0.02043594978749752, 0.17067094147205353, 0.07363522052764893, -0.0006842836155556142, -0.0041691893711686134, 0.9999185800552368, -1.6909765005111694, -3.076502799987793, 0.07238171994686127, 0.0, 0.0, 0.0, 0, 0, 0, 0, 0, 0, -1.6932430267333984, -3.080989360809326, 0.07255741208791733
16235, -0.06943662464618683, -0.10900461673736572, -0.01959124766290188, -0.013038520701229572, 0.03895731270313263, -0.1008351668715477, -0.001462655607610941, -0.004242451395839453, 0.9981440901756287, -1.6932430267333984, -3.080989360809326, 0.07255741208791733, 0.0, 0.0, 0.0, 0, 0, 0, 0, 0, 0, -1.6955087184906006, -3.0854787826538086, 0.07273279875516891
16245, -0.0699818804860115, -0.10659024864435196, -0.019803008064627647, -0.0790119543671608, -0.18001091480255127, 0.0017265536589547992, -0.0020893579348921776, -0.00418971199542284, 0.9997822642326355, -1.6955087184906006, -3.0854787826538086, 0.07273279875516891, 0.0, 0.0, 0.0, 0, 0, 0, 0, 0, 0, -1.6977744102478027, -3.0899710655212402, 0.07290733605623245
16255, -0.0711110383272171, -0.10740874707698822, -0.020079825073480606, -0.23698222637176514, -0.16263644397258759, 0.11193906515836716, -0.0027009358163923025, -0.003935513086616993, 0.9996479749679565, -1.6977744102478027, -3.0899710655212402, 0.07290733605623245, 0.0, 0.0, 0.0, 0, 0, 0, 0, 0, 0, -1.7000406980514526, -3.094466209411621, 0.07308164238929749
16265, -0.07028485089540482, -0.10824831575155258, -0.019495969638228416, 0.09023124724626541, 0.17789138853549957, 0.24376527965068817, -0.0018075149273499846, -0.004098766483366489, 1.000473976135254, -1.7000406980514526, -3.094466209411621, 0.07308164238929749, 0.0, 0.0, 0.0, 0, 0, 0, 0, 0, 0, -1.7025341987609863, -3.099414110183716, 0.07327336817979813
16275, -0.07125618308782578, -0.10758716613054276, -0.019311342388391495, -0.09378531575202942, -0.0022567063570022583, 0.08123669028282166, -0.003541279351338744, -0.007294370327144861, 0.9993910193443298, -1.7025341987609863, -3.099414110183716, 0.07327336817979813, 0.0, 0.0, 0.0, 0, 0, 0, 0, 0, 0, -1.7048014402389526, -3.103916645050049, 0.07344741374254227
16285, -0.07042995095252991, -0.10837406665086746, -0.018820667639374733, 0.1502304971218109, 0.060904860496520996, 0.20378628373146057, -0.002617224585264921, -0.005843054968863726, 0.9990960955619812, -1.7048014402389526, -3.103916645050049, 0.07344741374254227, 0.0, 0.0, 0.0, 0, 0, 0, 0, 0, 0, -1.7070695161819458, -3.108424186706543, 0.07362089306116104
16295, -0.07102900743484497, -0.10869745910167694, -0.019735287874937057, 0.00870219711214304, -3.954909698222764e-05, -0.1940903216600418, -0.002935561118647456, -0.004531878046691418, 1.001712679862976, -1.7070695161819458, -3.108424186706543, 0.07362089306116104, 0.0, 0.0, 0.0, 0, 0, 0, 0, 0, 0, -1.7093385457992554, -3.112935781478882, 0.07379467785358429
16305, -0.07185950875282288, -0.1096290647983551, -0.020107628777623177, -0.1775902956724167, 0.2048606127500534, -0.02830696851015091, -0.0011322620557621121, -0.005043724551796913, 1.0011491775512695, -1.7093385457992554, -3.112935781478882, 0.07379467785358429, 0.0, 0.0, 0.0, 0, 0, 0, 0, 0, 0, -1.7116076946258545, -3.117450714111328, 0.0739697515964508
16315, -0.07145600020885468, -0.10830782353878021, -0.0195365771651268, 0.17183543741703033, -0.12398912012577057, 0.13987784087657928, -0.0021754985209554434, -0.0028840703889727592, 1.0004247426986694, -1.7116076946258545, -3.117450714111328, 0.0739697515964508, 0.0, 0.0, 0.0, 0, 0, 0, 0, 0, 0, -1.713876485824585, -3.1219685077667236, 0.0741455927491188
16325, -0.07324830442667007, -0.10720031708478928, -0.020933685824275017, -0.14068835973739624, -0.1197090595960617, -0.15019649267196655, -0.0024094649124890566, -0.0036803660914301872, 1.0014302730560303, -1.713876485824585, -3.1219685077667236, 0.0741455927491188, 0.0, 0.0, 0.0, 0, 0, 0, 0, 0, 0, -1.7161455154418945, -3.12648868560791, 0.07432214170694351
16335, -0.0733758807182312, -0.10733425617218018, -0.019651900976896286, 0.03844285011291504, 0.04449927806854248, 0.07260465621948242, -0.003510979935526848, -0.0038240605499595404, 1.0013607740402222, -1.7161455154418945, -3.12648868560791, 0.07432214170694351, 0.0, 0.0, 0.0, 0, 0, 0, 0, 0, 0, -1.718415379524231, -3.1310112476348877, 0.07449985295534134
16345, -0.07291943579912186, -0.10804764181375504, -0.019852133467793465, 0.017864612862467766, 0.03511224314570427, -0.025781307369470596, -0.0014424172695726156, -0.00552962813526392, 1.001948356628418, -1.718415379524231, -3.1310112476348877, 0.07449985295534134, 0.0, 0.0, 0.0, 0, 0, 0, 0, 0, 0, -1.7206858396530151, -3.1355371475219727, 0.07467900216579437
16355, -0.0723748505115509, -0.10919246077537537, -0.0186218973249197, 0.05074389651417732, 0.001854929025284946, 0.14949920773506165, -0.001590706524439156, -0.005067531485110521, 1.0012763738632202, -1.7206858396530151, -3.1355371475219727, 0.07467900216579437, 0.0, 0.0, 0.0, 0, 0, 0, 0, 0, 0, -1.7229559421539307, -3.1400668621063232, 0.07485975325107574
16365, -0.0730319544672966, -0.10987339168787003, -0.01955069787800312, -0.04651772975921631, 0.08518055826425552, -0.1393081545829773, -0.0025829593650996685, -0.006596307270228863, 0.9997677803039551, -1.7229559421539307, -3.1400668621063232, 0.07485975325107574, 0.0, 0.0, 0.0, 0, 0, 0, 0, 0, 0, -1.7252261638641357, -3.1446008682250977, 0.07504130899906158
16375, -0.07358627021312714, -0.11187303811311722, -0.019081300124526024, -0.09256260097026825, 0.29918530583381653, 0.1681187003850937, -0.0034233604092150927, -0.00306520308367908, 1.0001060962677002, -1.7252261638641357, -3.1446008682250977, 0.07504130899906158, 0.0, 0.0, 0.0, 0, 0, 0, 0, 0, 0, -1.7274975776672363, -3.1491384506225586, 0.0752229169011116
16385, -0.07433527708053589, -0.11250177025794983, -0.019781550392508507, -0.13958565890789032, -0.021052783355116844, 0.05843571946024895, -0.003084419295191765, -0.0026516816578805447, 0.9968594908714294, -1.7274975776672363, -3.1491384506225586, 0.0752229169011116, 0.0, 0.0, 0.0, 0, 0, 0, 0, 0, 0, -1.7297704219818115, -3.1536779403686523, 0.07540329545736313
16395, -0.07404567301273346, -0.11311162263154984, -0.018302567303180695, 0.05414522439241409, 0.04078516364097595, 0.14446131885051727, -0.0013329701032489538, -0.0035038632340729237, 0.9989927411079407, -1.7297704219818115, -3.1536779403686523, 0.07540329545736313, 0.0, 0.0, 0.0, 0, 0, 0, 0, 0, 0, -1.7320435047149658, -3.158219337463379, 0.07558181136846542
16405, -0.07452204078435898, -0.1119549423456192, -0.018305150792002678, -0.12206228822469711, -0.17025195062160492, -0.03822913020849228, -0.002585415029898286, -0.003692485159263015, 0.9992914199829102, -1.7320435047149658, -3.158219337463379, 0.07558181136846542, 0.0, 0.0, 0.0, 0, 0, 0, 0, 0, 0, -1.7343164682388306, -3.1627626419067383, 0.07575931400060654
16415, -0.07518661022186279, -0.11036688834428787, -0.019296597689390182, -0.20988592505455017, -0.25283175706863403, -0.21671392023563385, -0.004270853474736214, -0.003878643037751317, 0.999783992767334, -1.7343164682388306, -3.1627626419067383, 0.07575931400060654, 0.0, 0.0, 0.0, 0, 0, 0, 0, 0, 0, -1.7365907430648804, -3.1673083305358887, 0.0759362205862999
16425, -0.07477860897779465, -0.11270832270383835, -0.01742011494934559, 0.05805462598800659, 0.42960280179977417, 0.38764870166778564, -0.003233223455026746, -0.002504154806956649, 0.999371349811554, -1.7365907430648804, -3.1673083305358887, 0.0759362205862999, 0.0, 0.0, 0.0, 0, 0, 0, 0, 0, 0, -1.7388666868209839, -3.171856164932251, 0.07611281424760818
16435, -0.07398072630167007, -0.112574502825737, -0.01682756096124649, 0.3011150658130646, 0.059936098754405975, 0.19988901913166046, -0.0020517653319984674, -0.004248238168656826, 1.001447319984436, -1.7388666868209839, -3.171856164932251, 0.07611281424760818, 0.0, 0.0, 0.0, 0, 0, 0, 0, 0, 0, -1.7411435842514038, -3.176406145095825, 0.0762898176908493
16445, -0.07474617660045624, -0.11372493952512741, -0.018463190644979477, -0.04791700467467308, 0.2453784942626953, -0.3091915249824524, -0.002613441552966833, -0.006124377716332674, 1.0013316869735718, -1.7411435842514038, -3.176406145095825, 0.0762898176908493, 0.0, 0.0, 0.0, 0, 0, 0, 0, 0, 0, -1.7434210777282715, -3.180959701538086, 0.07646813243627548
16455, -0.07539711147546768, -0.1149582639336586, -0.018819795921444893, 0.008855843916535378, 0.23739758133888245, 0.0677419900894165, -0.003064011223614216, -0.004933228250592947, 1.0003769397735596, -1.7434210777282715, -3.180959701538086, 0.07646813243627548, 0.0, 0.0, 0.0, 0, 0, 0, 0, 0, 0, -1.7456995248794556, -3.1855175495147705, 0.07664744555950165
16465, -0.07633952796459198, -0.11672952771186829, -0.019485339522361755, -0.0947485938668251, 0.24833475053310394, -0.18990792334079742, -0.0028283472638577223, -0.0026797631289809942, 1.0011725425720215, -1.7456995248794556, -3.1855175495147705, 0.07664744555950165, 0.0, 0.0, 0.0, 0, 0, 0, 0, 0, 0, -1.7479790449142456, -3.1900782585144043, 0.07682754099369049
16475, -0.07645871490240097, -0.11563891172409058, -0.018614554777741432, -0.05077728256583214, -0.058957718312740326, 0.09364190697669983, -0.003564991056919098, -0.0025572674348950386, 1.0021958351135254, -1.7479790449142456, -3.1900782585144043, 0.07682754099369049, 0.0, 0.0, 0.0, 0, 0, 0, 0, 0, 0, -1.7502597570419312, -3.1946403980255127, 0.07700906693935394
16485, -0.07626604288816452, -0.1160101667046547, -0.01771949976682663, 0.05744102597236633, 0.16645339131355286, -0.02350778691470623, -0.001084808842279017, -0.004168711137026548, 1.000879168510437, -1.7502597570419312, -3.1946403980255127, 0.07700906693935394, 0.0, 0.0, 0.0, 0, 0, 0, 0, 0, 0, -1.7525410652160645, -3.199204206466675, 0.07719200104475021
16495, -0.07623396813869476, -0.11489842087030411, -0.01773243397474289, 0.12078945338726044, -0.06937593966722488, -0.11673138290643692, -0.0015611726557835937, -0.005237423349171877, 1.0002923011779785, -1.7525410652160645, -3.199204206466675, 0.07719200104475021, 0.0, 0.0, 0.0, 0, 0, 0, 0, 0, 0, -1.7548218965530396, -3.2037711143493652, 0.07737554609775543
16505, -0.0761413425207138, -0.11457610875368118, -0.01777460053563118, -0.041450127959251404, 0.2964877784252167, -0.090163953602314, -0.004085260909050703, -0.004710417706519365, 1.0011646747589111, -1.7548218965530396, -3.2037711143493652, 0.07737554609775543, 0.0, 0.0, 0.0, 0, 0, 0, 0, 0, 0, -1.7571030855178833, -3.208341360092163, 0.07755971699953079
16515, -0.07670578360557556, -0.11357727646827698, -0.01796020194888115, -0.022733174264431, -0.01155280601233244, 0.06231863051652908, -0.0018066458869725466, -0.0032993140630424023, 1.0009515285491943, -1.7571030855178833, -3.208341360092163, 0.07755971699953079, 0.0, 0.0, 0.0, 0, 0, 0, 0, 0, 0, -1.759385108947754, -3.212913990020752, 0.07774479687213898
16525, -0.07735730707645416, -0.11437489837408066, -0.018138566985726357, -0.22195614874362946, 0.22764341533184052, -0.0597083754837513, -0.002523631788790226, -0.003379685804247856, 1.0006754398345947, -1.759385108947754, -3.212913990020752, 0.07774479687213898, 0.0, 0.0, 0.0, 0, 0, 0, 0, 0, 0, -1.7616673707962036, -3.2174887657165527, 0.0779305100440979
16535, -0.07763775438070297, -0.11283323913812637, -0.018301524221897125, -0.014474145136773586, -0.2881558835506439, 0.0780443623661995, -0.0019233373459428549, -0.004150846507400274, 1.000080943107605, -1.7616673707962036, -3.2174887657165527, 0.0779305100440979, 0.0, 0.0, 0.0, 0, 0, 0, 0, 0, 0, -1.7639496326446533, -3.2220661640167236, 0.07811635732650757
16545, -0.07796170562505722, -0.1134454607963562, -0.017419904470443726, -0.026274045929312706, -0.018205324187874794, 0.16790495812892914, -0.002387539716437459, -0.004634390585124493, 1.0002505779266357, -1.7639496326446533, -3.2220661640167236, 0.07811635732650757, 0.0, 0.0, 0.0, 0, 0, 0, 0, 0, 0, -1.7662321329116821, -3.226646900177002, 0.0783023089170456
16555, -0.07772313058376312, -0.11306481063365936, -0.015457709319889545, 0.038907404989004135, 0.045471638441085815, 0.16524077951908112, -0.002577342791482806, -0.004048752132803202, 0.9994001984596252, -1.7662321329116821, -3.226646900177002, 0.0783023089170456, 0.0, 0.0, 0.0, 0, 0, 0, 0, 0, 0, -1.7685152292251587, -3.2312304973602295, 0.07848808914422989
16565, -0.07788650691509247, -0.11179114133119583, -0.015628565102815628, -0.0750754177570343, -0.02465158887207508, 0.021773692220449448, -0.00099389988463372, -0.0050851707346737385, 0.9994639754295349, -1.7685152292251587, -3.2312304973602295, 0.07848808914422989, 0.0, 0.0, 0.0, 0, 0, 0, 0, 0, 0, -1.7707983255386353, -3.2358171939849854, 0.07867341488599777
16575, -0.07630837708711624, -0.11284640431404114, -0.014713696204125881, 0.18412211537361145, 0.24613699316978455, 0.21148735284805298, 0.0005197342252358794, -0.005289479624480009, 1.001940131187439, -1.7707983255386353, -3.2358171939849854, 0.07867341488599777, 0.0, 0.0, 0.0, 0, 0, 0, 0, 0, 0, -1.7730801105499268, -3.240407705307007, 0.07885956764221191
16585, -0.07726551592350006, -0.11367497593164444, -0.014681396074593067, -0.03151900693774223, 0.0700133740901947, -0.11221767216920853, -0.0029990477487444878, -0.00575216906145215, 1.0012853145599365, -1.7730801105499268, -3.240407705307007, 0.07885956764221191, 0.0, 0.0, 0.0, 0, 0, 0, 0, 0, 0, -1.7753609418869019, -3.245002508163452, 0.07904727011919022
16595, -0.07728041708469391, -0.11221901327371597, -0.014805777929723263, 0.012655406259000301, -0.11400269716978073, -0.06625689566135406, -0.003390320809558034, -0.005472198594361544, 1.0012809038162231, -1.7753609418869019, -3.245002508163452, 0.07904727011919022, 0.0, 0.0, 0.0, 0, 0, 0, 0, 0, 0, -1.7776427268981934, -3.2496016025543213, 0.07923612743616104
16605, -0.07651279121637344, -0.1121661365032196, -0.013367291539907455, 0.04097731411457062, 0.08476158231496811, 0.07468348741531372, -0.002853094134479761, -0.0037112017162144184, 1.001511573791504, -1.7776427268981934, -3.2496016025543213, 0.07923612743616104, 0.0, 0.0, 0.0, 0, 0, 0, 0, 0, 0, -1.77992582321167, -3.2542037963867188, 0.07942619919776917
16615, -0.0778241753578186, -0.11156035214662552, -0.013400347903370857, -0.23558421432971954, -0.24476200342178345, 0.017673317342996597, -0.00042654413846321404, -0.0046910629607737064, 1.0014853477478027, -1.77992582321167, -3.2542037963867188, 0.07942619919776917, 0.0, 0.0, 0.0, 0, 0, 0, 0, 0, 0, -1.782208800315857, -3.2588090896606445, 0.07961755245923996
16625, -0.07744509726762772, -0.10979527980089188, -0.01434404868632555, 0.0767248347401619, -0.32709401845932007, -0.05811121314764023, -0.0029746233485639095, -0.006046460010111332, 1.0008288621902466, -1.782208800315857, -3.2588090896606445, 0.07961755245923996, 0.0, 0.0, 0.0, 0, 0, 0, 0, 0, 0, -1.7844914197921753, -3.263418436050415, 0.07980994880199432
16635, -0.0781647339463234, -0.11036307364702225, -0.015308556146919727, -0.16824480891227722, -0.02233455330133438, -0.1363379955291748, -0.002308560535311699, -0.002232530154287815, 1.000300645828247, -1.7844914197921753, -3.263418436050415, 0.07980994880199432, 0.0, 0.0, 0.0, 0, 0, 0, 0, 0, 0, -1.7867743968963623, -3.268030881881714, 0.08000300079584122
16645, -0.07952509075403214, -0.10996829718351364, -0.01601719856262207, -0.15297295153141022, -0.016767505556344986, 0.023143934085965157, -0.0025882755871862173, -0.003683424089103937, 0.9997168183326721, -1.7867743968963623, -3.268030881881714, 0.08000300079584122, 0.0, 0.0, 0.0, 0, 0, 0, 0, 0, 0, -1.789057731628418, -3.2726452350616455, 0.08019624650478363
16655, -0.07954246550798416, -0.10942312330007553, -0.017361368983983994, 0.02985834889113903, 0.19751577079296112, -0.10408167541027069, -0.0011385104153305292, -0.0016874369466677308, 1.000691533088684, -1.789057731628418, -3.2726452350616455, 0.08019624650478363, 0.0, 0.0, 0.0, 0, 0, 0, 0, 0, 0, -1.791340947151184, -3.2772607803344727, 0.08038956671953201
16665, -0.07936665415763855, -0.10903961956501007, -0.017396194860339165, -0.1208459660410881, 0.13708598911762238, 0.03863344341516495, -0.0048380885273218155, -0.004466230981051922, 1.0011581182479858, -1.791340947151184, -3.2772607803344727, 0.08038956671953201, 0.0, 0.0, 0.0, 0, 0, 0, 0, 0, 0, -1.793624997138977, -3.2818779945373535, 0.08058345317840576
16675, -0.07942477613687515, -0.11102328449487686, -0.015677498653531075, -0.004441052209585905, 0.3859085142612457, 0.2986370027065277, -0.0036488717887550592, -0.005829926114529371, 1.0006022453308105, -1.793624997138977, -3.2818779945373535, 0.08058345317840576, 0.0, 0.0, 0.0, 0, 0, 0, 0, 0, 0, -1.795911431312561, -3.286498546600342, 0.0807780772447586
16685, -0.07919023931026459, -0.11139136552810669, -0.014847096055746078, 0.07152169197797775, 0.16177672147750854, -0.1173519492149353, -0.0034915157593786716, -0.0063355229794979095, 0.9995818138122559, -1.795911431312561, -3.286498546600342, 0.0807780772447586, 0.0, 0.0, 0.0, 0, 0, 0, 0, 0, 0, -1.7981996536254883, -3.291123628616333, 0.08097279816865921
16695, -0.08044969290494919, -0.11073125898838043, -0.014609863981604576, -0.13061362504959106, 0.17197571694850922, 0.023224908858537674, -0.003735286183655262, -0.005181340966373682, 0.9986892342567444, -1.7981996536254883, -3.291123628616333, 0.08097279816865921, 0.0, 0.0, 0.0, 0, 0, 0, 0, 0, 0, -1.8004895448684692, -3.295753002166748, 0.08116690069437027
16705, -0.07992615550756454, -0.1109841987490654, -0.014102552086114883, 0.15460553765296936, 0.058309853076934814, 0.19625428318977356, -0.002960027428343892, -0.004340302664786577, 1.001115083694458, -1.8004895448684692, -3.295753002166748, 0.08116690069437027, 0.0, 0.0, 0.0, 0, 0, 0, 0, 0, 0, -1.8027808666229248, -3.3003857135772705, 0.08136102557182312
16715, -0.08141548931598663, -0.1119081974029541, -0.014101756736636162, -0.14079493284225464, 0.07481022924184799, -0.09053023904561996, -0.0025766759645193815, -0.004565362352877855, 0.9988958835601807, -1.8027808666229248, -3.3003857135772705, 0.08136102557182312, 0.0, 0.0, 0.0, 0, 0, 0, 0, 0, 0, -1.8050731420516968, -3.3050215244293213, 0.08155534416437149
16725, -0.08140473812818527, -0.11191980540752411, -0.013612747192382812, -0.14596936106681824, 0.015083602629601955, -0.06892648339271545, -0.0032119047828018665, -0.006578515749424696, 0.9994909167289734, -1.8050731420516968, -3.3050215244293213, 0.08155534416437149, 0.0, 0.0, 0.0, 0, 0, 0, 0, 0, 0, -1.8073664903640747, -3.3096611499786377, 0.0817490816116333
16735, -0.08162064850330353, -0.11076270788908005, -0.015150955878198147, -0.055558692663908005, -0.21011485159397125, -0.23731184005737305, -0.0011490110773593187, -0.006580349523574114, 0.9982547163963318, -1.8073664903640747, -3.3096611499786377, 0.0817490816116333, 0.0, 0.0, 0.0, 0, 0, 0, 0, 0, 0, -1.8096601963043213, -3.314305543899536, 0.0819416493177414
