timeTick, roll, pitch, yaw, gyroX, gyroY, gyroZ, accX, accY, accZ, stateX, stateY, stateZ, target_x, target_y, target_z, otX, otY, otZ, otRoll, otPitch, otYaw, kalX, kalY, kalZ
13640, 0.04067334905266762, -0.01258163433521986, 0.13845719397068024, 0, 0, 0, 0, 0, 0, 0, 0, 0, 0, 0, 0, 0, 0, 0, 0, 0, 0, 0, 0, 0
13650, 0.04065754637122154, -0.013198728673160076, 0.1374765783548355, 0.07478238642215729, 0.04894576594233513, -0.032883141189813614, -0.0024687391705811024, -0.00639193644747138, 0.9992631077766418, -1.031949520111084, -2.5240800380706787, -0.01400848664343357, 0.0, 0.0, 0.0, 0, 0, 0, 0, 0, 0, -1.031949520111084, -2.5240800380706787, -0.01400848664343357
13660, 0.040215399116277695, -0.014082228764891624, 0.13686233758926392, -0.003256439696997404, 0.271615594625473, 0.012705031782388687, -0.003250956302508712, -0.004095158539712429, 0.9998790621757507, -1.0338714122772217, -2.5290584564208984, -0.014034569263458252, 0.0, 0.0, 0.0, 0, 0, 0, 0, 0, 0, -1.0338714122772217, -2.5290584564208984, -0.014034569263458252
13670, 0.039044249802827835, -0.014784037135541439, 0.13690564036369324, -0.25480344891548157, 0.20247125625610352, 0.001455318764783442, -0.0033864686265587807, -0.004296165890991688, 1.0014514923095703, -1.0357956886291504, -2.5340428352355957, -0.014061427675187588, 0.0, 0.0, 0.0, 0, 0, 0, 0, 0, 0, -1.0357956886291504, -2.5340428352355957, -0.014061427675187588
13680, 0.03975144401192665, -0.012576509267091751, 0.13656757771968842, 0.0798577293753624, -0.3160710036754608, -0.15745273232460022, -0.002117622410878539, -0.004256619606167078, 1.0009596347808838, -1.0377225875854492, -2.539031744003296, -0.014087937772274017, 0.0, 0.0, 0.0, 0, 0, 0, 0, 0, 0, -1.0377225875854492, -2.539031744003296, -0.014087937772274017
13690, 0.0405036062002182, -0.011786521412432194, 0.13722389936447144, 0.11520466208457947, -0.07684635370969772, -0.09180603176355362, -0.0025708116590976715, -0.0038560405373573303, 1.0011156797409058, -1.0396519899368286, -2.544025421142578, -0.01411323994398117, 0.0, 0.0, 0.0, 0, 0, 0, 0, 0, 0, -1.0396519899368286, -2.544025421142578, -0.01411323994398117
13700, 0.0401335135102272, -0.012447651475667953, 0.13828346133232117, -0.07992614805698395, 0.029234101995825768, 0.13098032772541046, -0.003422854235395789, -0.005916473921388388, 0.9994109272956848, -1.0415834188461304, -2.5490238666534424, -0.01413744781166315, 0.0, 0.0, 0.0, 0, 0, 0, 0, 0, 0, -1.0415834188461304, -2.5490238666534424, -0.01413744781166315
13710, 0.03992296755313873, -0.010018639266490936, 0.13760612905025482, -0.10699989646673203, -0.23324334621429443, -0.09059594571590424, -0.004011844284832478, -0.005930547136813402, 0.9986028075218201, -1.0435174703598022, -2.554027557373047, -0.014161144383251667, 0.0, 0.0, 0.0, 0, 0, 0, 0, 0, 0, -1.0435174703598022, -2.554027557373047, -0.014161144383251667
13720, 0.03884926438331604, -0.010994011536240578, 0.1370270550251007, -0.13088582456111908, 0.15572023391723633, -0.06303788721561432, -0.0011717663146555424, -0.004223462659865618, 1.0002305507659912, -1.045454740524292, -2.559037446975708, -0.014185595326125622, 0.0, 0.0, 0.0, 0, 0, 0, 0, 0, 0, -1.045454740524292, -2.559037446975708, -0.014185595326125622
13730, 0.037980079650878906, -0.010376800782978535, 0.13737280666828156, -0.23680120706558228, -0.13939303159713745, -0.047608476132154465, -0.001710765645839274, -0.003872332163155079, 0.9997754096984863, -1.0473945140838623, -2.5640530586242676, -0.014210852794349194, 0.0, 0.0, 0.0, 0, 0, 0, 0, 0, 0, -1.0473945140838623, -2.5640530586242676, -0.014210852794349194
13740, 0.03873390331864357, -0.0106711620464921, 0.13785962760448456, 0.09395671635866165, -0.022632043808698654, 0.06129338592290878, -0.0012835711240768433, -0.005053031723946333, 1.0005499124526978, -1.0493357181549072, -2.569073438644409, -0.014236333779990673, 0.0, 0.0, 0.0, 0, 0, 0, 0, 0, 0, -1.0493357181549072, -2.569073438644409, -0.014236333779990673
13750, 0.040209896862506866, -0.009453203529119492, 0.13742560148239136, 0.2521044611930847, -0.11993216723203659, -0.037866584956645966, -0.0015512702520936728, -0.003829904831945896, 1.0005465745925903, -1.0512781143188477, -2.574098825454712, -0.014261528849601746, 0.0, 0.0, 0.0, 0, 0, 0, 0, 0, 0, -1.0512781143188477, -2.574098825454712, -0.014261528849601746
13760, 0.03920546919107437, -0.008423319086432457, 0.13760177791118622, -0.13498470187187195, 0.003031848231330514, 0.0065809013321995735, -0.002003147965297103, -0.002954102586954832, 1.0011627674102783, -1.0532217025756836, -2.579129457473755, -0.014286115765571594, 0.0, 0.0, 0.0, 0, 0, 0, 0, 0, 0, -1.0532217025756836, -2.579129457473755, -0.014286115765571594
13770, 0.038530949503183365, -0.009444311261177063, 0.13658784329891205, -0.06405559927225113, 0.21577273309230804, -0.18512174487113953, -0.001274381298571825, -0.004765378311276436, 0.9992408752441406, -1.0551666021347046, -2.5841641426086426, -0.014309979043900967, 0.0, 0.0, 0.0, 0, 0, 0, 0, 0, 0, -1.0551666021347046, -2.5841641426086426, -0.014309979043900967
13780, 0.03812175989151001, -0.009165466763079166, 0.1368219405412674, -0.08862920105457306, -0.1058376282453537, 0.06629921495914459, -0.002643961925059557, -0.004849810153245926, 0.9999643564224243, -1.0571130514144897, -2.589203119277954, -0.014333432540297508, 0.0, 0.0, 0.0, 0, 0, 0, 0, 0, 0, -1.0571130514144897, -2.589203119277954, -0.014333432540297508
13790, 0.03851040080189705, -0.009324557147920132, 0.13773168623447418, 0.16956110298633575, 0.04564104601740837, 0.12142977863550186, -0.0036998155992478132, -0.0036450244951993227, 1.0008469820022583, -1.0590611696243286, -2.5942471027374268, -0.01435717660933733, 0.0, 0.0, 0.0, 0, 0, 0, 0, 0, 0, -1.0590611696243286, -2.5942471027374268, -0.01435717660933733
13800, 0.038073185831308365, -0.0083933025598526, 0.13856251537799835, -0.09628094732761383, 0.04515174403786659, 0.2245710790157318, -0.003064966993406415, -0.0063749151304364204, 0.9994363188743591, -1.0610120296478271, -2.5992958545684814, -0.014380855485796928, 0.0, 0.0, 0.0, 0, 0, 0, 0, 0, 0, -1.0610120296478271, -2.5992958545684814, -0.014380855485796928
13810, 0.037545252591371536, -0.007622151169925928, 0.13835009932518005, -0.14469313621520996, -0.050700653344392776, -0.0769103467464447, -0.0013085732934996486, -0.005116352345794439, 1.0023059844970703, -1.062965989112854, -2.6043500900268555, -0.01440468616783619, 0.0, 0.0, 0.0, 0, 0, 0, 0, 0, 0, -1.062965989112854, -2.6043500900268555, -0.01440468616783619
13820, 0.03797801584005356, -0.0075031365267932415, 0.13884061574935913, 0.0258091501891613, -0.016331074759364128, -0.006062657106667757, -0.0021465010941028595, -0.006380686070770025, 0.9976092576980591, -1.0649222135543823, -2.609410285949707, -0.014428124763071537, 0.0, 0.0, 0.0, 0, 0, 0, 0, 0, 0, -1.0649222135543823, -2.609410285949707, -0.014428124763071537
13830, 0.03778788819909096, -0.00785183347761631, 0.13821710646152496, -0.10323752462863922, 0.011751153506338596, -0.1179543063044548, -0.002361940685659647, -0.0030786909628659487, 0.998018741607666, -1.0668803453445435, -2.6144769191741943, -0.014451497234404087, 0.0, 0.0, 0.0, 0, 0, 0, 0, 0, 0, -1.0668803453445435, -2.6144769191741943, -0.014451497234404087
13840, 0.037961196154356, -0.005300793331116438, 0.13767404854297638, -0.06340385228395462, -0.20593717694282532, -0.0489777997136116, -8.32466030260548e-05, -0.0027869082987308502, 0.9987317323684692, -1.0688403844833374, -2.61954927444458, -0.014476618729531765, 0.0, 0.0, 0.0, 0, 0, 0, 0, 0, 0, -1.0688403844833374, -2.61954927444458, -0.014476618729531765
13850, 0.038556989282369614, -0.0051918900571763515, 0.13914218544960022, 0.10200868546962738, 0.10106545686721802, 0.3456571400165558, -0.000695141323376447, -0.0022533421870321035, 0.9996264576911926, -1.0708014965057373, -2.6246254444122314, -0.014503464102745056, 0.0, 0.0, 0.0, 0, 0, 0, 0, 0, 0, -1.0708014965057373, -2.6246254444122314, -0.014503464102745056
13860, 0.03870727866888046, -0.005325698293745518, 0.13861554861068726, -0.05003511533141136, 0.11992305517196655, -0.03374394774436951, -0.002197174122557044, -0.004803781397640705, 0.9991759061813354, -1.0727630853652954, -2.629704713821411, -0.014531191438436508, 0.0, 0.0, 0.0, 0, 0, 0, 0, 0, 0, -1.0727630853652954, -2.629704713821411, -0.014531191438436508
13870, 0.03902413696050644, -0.003993859980255365, 0.1385909467935562, -0.12304115295410156, -0.02333036996424198, 0.07397924363613129, -0.001698260777629912, -0.0063729966059327126, 0.9989836812019348, -1.07472562789917, -2.6347880363464355, -0.014559347182512283, 0.0, 0.0, 0.0, 0, 0, 0, 0, 0, 0, -1.07472562789917, -2.6347880363464355, -0.014559347182512283
13880, 0.03866172954440117, -0.00424146419391036, 0.13899165391921997, -0.07361157238483429, 0.046006109565496445, 0.0016183822881430387, -1.0082566404889803e-05, -0.003914895001798868, 0.9980433583259583, -1.0766898393630981, -2.6398773193359375, -0.014588096179068089, 0.0, 0.0, 0.0, 0, 0, 0, 0, 0, 0, -1.0766898393630981, -2.6398773193359375, -0.014588096179068089
13890, 0.03851407393813133, -0.00435945950448513, 0.13988979160785675, 0.05786331743001938, 0.04880010709166527, 0.3234669864177704, 0.00015758084191475064, -0.004055958241224289, 0.9998193979263306, -1.0786550045013428, -2.644972562789917, -0.014618179760873318, 0.0, 0.0, 0.0, 0, 0, 0, 0, 0, 0, -1.0786550045013428, -2.644972562789917, -0.014618179760873318
13900, 0.038800936192274094, -0.0032306681387126446, 0.1415574699640274, 0.035987772047519684, -0.04980270192027092, 0.3511623740196228, -0.0006385467131622136, -0.004180012736469507, 0.998629093170166, -1.0806201696395874, -2.6500725746154785, -0.014649663120508194, 0.0, 0.0, 0.0, 0, 0, 0, 0, 0, 0, -1.0806201696395874, -2.6500725746154785, -0.014649663120508194
13910, 0.03908200189471245, -0.004071921110153198, 0.14141765236854553, -0.01190005149692297, -0.051013462245464325, 0.02089187316596508, -0.0031150702852755785, -0.004021836444735527, 1.0003292560577393, -1.082585334777832, -2.655177354812622, -0.014682024717330933, 0.0, 0.0, 0.0, 0, 0, 0, 0, 0, 0, -1.082585334777832, -2.655177354812622, -0.014682024717330933
13920, 0.03877255693078041, -0.006518547888845205, 0.14284150302410126, -0.04971122741699219, 0.1369408667087555, 0.09377983212471008, -0.0028398996219038963, -0.0033670440316200256, 0.9997425079345703, -1.0845519304275513, -2.6602869033813477, -0.014714924618601799, 0.0, 0.0, 0.0, 0, 0, 0, 0, 0, 0, -1.0845519304275513, -2.6602869033813477, -0.014714924618601799
13930, 0.03842444345355034, -0.004771404433995485, 0.14188162982463837, -0.12025558948516846, -0.30939775705337524, -0.2456488311290741, -0.0024365107528865337, -0.0038600186817348003, 1.000504493713379, -1.0865211486816406, -2.665400981903076, -0.014747954905033112, 0.0, 0.0, 0.0, 0, 0, 0, 0, 0, 0, -1.0865211486816406, -2.665400981903076, -0.014747954905033112
13940, 0.038274601101875305, -0.005145583767443895, 0.14242154359817505, 0.0012165731750428677, 0.17001058161258698, 0.13640889525413513, -0.003400445217266679, -0.004328579641878605, 0.9995273351669312, -1.0884928703308105, -2.6705193519592285, -0.014780933037400246, 0.0, 0.0, 0.0, 0, 0, 0, 0, 0, 0, -1.0884928703308105, -2.6705193519592285, -0.014780933037400246
13950, 0.03854385018348694, -0.005108320154249668, 0.14239180088043213, -0.023076899349689484, 0.07547002285718918, 0.07548371702432632, -0.002883665729314089, -0.00422962661832571, 0.9990310668945312, -1.0904672145843506, -2.675642490386963, -0.014813886024057865, 0.0, 0.0, 0.0, 0, 0, 0, 0, 0, 0, -1.0904672145843506, -2.675642490386963, -0.014813886024057865
13960, 0.03896573558449745, -0.0020564959850162268, 0.14277377724647522, 0.011081268079578876, -0.48913052678108215, 0.13124002516269684, -0.003916027024388313, -0.004600150510668755, 0.9988773465156555, -1.092444658279419, -2.6807706356048584, -0.014847459271550179, 0.0, 0.0, 0.0, 0, 0, 0, 0, 0, 0, -1.092444658279419, -2.6807706356048584, -0.014847459271550179
13970, 0.03935486823320389, -0.0012896483531221747, 0.1419675052165985, 0.09166479110717773, -0.21875719726085663, -0.049100592732429504, -0.0020964702125638723, -0.004747002851217985, 0.9998078346252441, -1.0944252014160156, -2.685903549194336, -0.014882217161357403, 0.0, 0.0, 0.0, 0, 0, 0, 0, 0, 0, -1.0944252014160156, -2.685903549194336, -0.014882217161357403
13980, 0.03805631771683693, -0.0014499162789434195, 0.1408456414937973, -0.08217713981866837, -0.061311084777116776, -0.05563705787062645, 0.00019481140770949423, -0.004263999871909618, 1.0006952285766602, -1.096408724784851, -2.6910414695739746, -0.01491789985448122, 0.0, 0.0, 0.0, 0, 0, 0, 0, 0, 0, -1.096408724784851, -2.6910414695739746, -0.01491789985448122
13990, 0.03778301551938057, -0.0044794827699661255, 0.14099009335041046, 0.03524352237582207, 0.3734440207481384, 0.1209450513124466, 0.0018300805240869522, -0.004519826266914606, 1.0017690658569336, -1.0983936786651611, -2.6961846351623535, -0.014953495003283024, 0.0, 0.0, 0.0, 0, 0, 0, 0, 0, 0, -1.0983936786651611, -2.6961846351623535, -0.014953495003283024
14000, 0.036902811378240585, -0.0029640737920999527, 0.1402077078819275, -0.2502860128879547, -0.3574123680591583, 0.08979026973247528, -0.0006367117748595774, -0.006717180833220482, 1.0003396272659302, -1.1003780364990234, -2.7013325691223145, -0.01498821284621954, 0.0, 0.0, 0.0, 0, 0, 0, 0, 0, 0, -1.1003780364990234, -2.7013325691223145, -0.01498821284621954
14010, 0.0375724658370018, -0.0021241679787635803, 0.14137017726898193, 0.09782449156045914, -0.06131938472390175, 0.13525152206420898, -0.0025563063099980354, -0.004622913897037506, 0.9993959069252014, -1.1023615598678589, -2.706486463546753, -0.015022015199065208, 0.0, 0.0, 0.0, 0, 0, 0, 0, 0, 0, -1.1023615598678589, -2.706486463546753, -0.015022015199065208
14020, 0.037449516355991364, -0.0019367843633517623, 0.142787903547287, -0.06009133905172348, 0.09001423418521881, 0.28232428431510925, -0.002360280603170395, -0.0035820009652525187, 0.9999670386314392, -1.1043461561203003, -2.711646556854248, -0.015055814757943153, 0.0, 0.0, 0.0, 0, 0, 0, 0, 0, 0, -1.1043461561203003, -2.711646556854248, -0.015055814757943153
14030, 0.03688374534249306, -0.0016905947122722864, 0.14235274493694305, -0.10297910124063492, -0.01433741394430399, -0.003016776405274868, -0.0016092450823634863, -0.004518596455454826, 1.0005247592926025, -1.1063328981399536, -2.7168118953704834, -0.015090030618011951, 0.0, 0.0, 0.0, 0, 0, 0, 0, 0, 0, -1.1063328981399536, -2.7168118953704834, -0.015090030618011951
14040, 0.03683072328567505, -0.00226855231449008, 0.14360052347183228, -0.00025174429174512625, 0.047803644090890884, 0.0502520352602005, -0.002180274110287428, -0.00346112297847867, 0.9999584555625916, -1.1083216667175293, -2.7219817638397217, -0.015124278143048286, 0.0, 0.0, 0.0, 0, 0, 0, 0, 0, 0, -1.1083216667175293, -2.7219817638397217, -0.015124278143048286
14050, 0.03665931895375252, -0.0017598567064851522, 0.14406928420066833, 0.051180314272642136, -0.14414779841899872, 0.07583209872245789, -0.003958770073950291, -0.004070775117725134, 1.0006568431854248, -1.1103122234344482, -2.727156162261963, -0.015158494934439659, 0.0, 0.0, 0.0, 0, 0, 0, 0, 0, 0, -1.1103122234344482, -2.727156162261963, -0.015158494934439659
14060, 0.03735465183854103, -0.0018539958400651813, 0.14475609362125397, 0.10473687201738358, 0.1420205980539322, 0.23492243885993958, 0.0005308813415467739, -0.00392094487324357, 0.9982883334159851, -1.1123054027557373, -2.732335090637207, -0.015192367136478424, 0.0, 0.0, 0.0, 0, 0, 0, 0, 0, 0, -1.1123054027557373, -2.732335090637207, -0.015192367136478424
14070, 0.037257615476846695, -0.0018291485030204058, 0.1439434438943863, 0.08426766097545624, 0.06245742738246918, -0.0037412194069474936, -0.0001225876621901989, -0.004403670784085989, 0.9989026188850403, -1.1145000457763672, -2.738037109375, -0.01523001492023468, 0.0, 0.0, 0.0, 0, 0, 0, 0, 0, 0, -1.1145000457763672, -2.738037109375, -0.01523001492023468
14080, 0.03690233454108238, 0.0005509481416083872, 0.14220842719078064, -0.029468204826116562, -0.2758099138736725, -0.27502065896987915, -0.0006827354081906378, -0.005014483816921711, 0.999576210975647, -1.1164952516555786, -2.7432258129119873, -0.015265400521457195, 0.0, 0.0, 0.0, 0, 0, 0, 0, 0, 0, -1.1164952516555786, -2.7432258129119873, -0.015265400521457195
14090, 0.036401692777872086, 0.0013994683977216482, 0.14229443669319153, -0.13648243248462677, -0.11655619740486145, 0.004868818912655115, -0.0012508747167885303, -0.0035335810389369726, 0.9985049962997437, -1.1184909343719482, -2.748419761657715, -0.015301443636417389, 0.0, 0.0, 0.0, 0, 0, 0, 0, 0, 0, -1.1184909343719482, -2.748419761657715, -0.015301443636417389
14100, 0.03553111478686333, 0.0027475133538246155, 0.14228250086307526, -0.17000164091587067, -0.24955709278583527, -0.08686808496713638, -0.0032454784959554672, -0.0039083692245185375, 1.001102328300476, -1.1204878091812134, -2.7536187171936035, -0.015338219702243805, 0.0, 0.0, 0.0, 0, 0, 0, 0, 0, 0, -1.1204878091812134, -2.7536187171936035, -0.015338219702243805
14110, 0.03629228100180626, 0.0026064252015203238, 0.14267762005329132, 0.06186363473534584, 0.0019371755188331008, -0.09219933301210403, -0.002133260713890195, -0.004821925889700651, 1.0014538764953613, -1.1224867105484009, -2.758822202682495, -0.015375330112874508, 0.0, 0.0, 0.0, 0, 0, 0, 0, 0, 0, -1.1224867105484009, -2.758822202682495, -0.015375330112874508
14120, 0.037083908915519714, 0.0032631345093250275, 0.14297457039356232, 0.13242411613464355, -0.03686277195811272, 0.12427017092704773, -0.00011195490515092388, -0.004949748981744051, 0.999065637588501, -1.124488115310669, -2.7640304565429688, -0.015411349944770336, 0.0, 0.0, 0.0, 0, 0, 0, 0, 0, 0, -1.124488115310669, -2.7640304565429688, -0.015411349944770336
14130, 0.03610030561685562, 0.005533580668270588, 0.14324840903282166, -0.14330856502056122, -0.4093133807182312, 0.08782309293746948, -0.0011559677077457309, -0.007248422130942345, 1.0001660585403442, -1.1264907121658325, -2.7692441940307617, -0.015446682460606098, 0.0, 0.0, 0.0, 0, 0, 0, 0, 0, 0, -1.1264907121658325, -2.7692441940307617, -0.015446682460606098
14140, 0.03567099571228027, 0.0031271895859390497, 0.14404624700546265, -0.009488853625953197, 0.1540277749300003, 0.03785274177789688, -0.0019575529731810093, -0.006136583164334297, 1.000129222869873, -1.1284937858581543, -2.7744643688201904, -0.015482098795473576, 0.0, 0.0, 0.0, 0, 0, 0, 0, 0, 0, -1.1284937858581543, -2.7744643688201904, -0.015482098795473576
14150, 0.03703141584992409, 0.002441722434014082, 0.1437803953886032, 0.1418117731809616, 0.10299649834632874, -0.07669567316770554, -0.0011329720728099346, -0.0029187826439738274, 1.0001178979873657, -1.1304982900619507, -2.779691696166992, -0.015517383813858032, 0.0, 0.0, 0.0, 0, 0, 0, 0, 0, 0, -1.1304982900619507, -2.779691696166992, -0.015517383813858032
14160, 0.03711337968707085, 0.0010766822379082441, 0.1450185775756836, -0.04746655002236366, 0.3852059543132782, 0.09377365559339523, -0.002842646325007081, -0.0045148879289627075, 0.9997634291648865, -1.1325045824050903, -2.784924030303955, -0.015552551485598087, 0.0, 0.0, 0.0, 0, 0, 0, 0, 0, 0, -1.1325045824050903, -2.784924030303955, -0.015552551485598087
14170, 0.03788322955369949, 0.0036495912354439497, 0.1449962854385376, 0.04890483617782593, -0.29228681325912476, -0.06739658862352371, -0.0037788504268974066, -0.0042475126683712006, 0.9989207983016968, -1.1345131397247314, -2.790160894393921, -0.015587599016726017, 0.0, 0.0, 0.0, 0, 0, 0, 0, 0, 0, -1.1345131397247314, -2.790160894393921, -0.015587599016726017
14180, 0.03784097731113434, 0.002677484415471554, 0.1447116583585739, 0.013025612570345402, 0.1810699999332428, -0.06491265445947647, -0.0020250908564776182, -0.00446668965741992, 0.9993149638175964, -1.1365249156951904, -2.7954025268554688, -0.015623199753463268, 0.0, 0.0, 0.0, 0, 0, 0, 0, 0, 0, -1.1365249156951904, -2.7954025268554688, -0.015623199753463268
14190, 0.03758116811513901, 0.0017331624403595924, 0.1442531943321228, -0.030121291056275368, 0.14476032555103302, -0.0426168255507946, -0.0036039859987795353, -0.003911315463483334, 0.9993361234664917, -1.1385395526885986, -2.8006491661071777, -0.01565992645919323, 0.0, 0.0, 0.0, 0, 0, 0, 0, 0, 0, -1.1385395526885986, -2.8006491661071777, -0.01565992645919323
14200, 0.037681493908166885, 0.0016780460719019175, 0.14495448768138885, -0.06081957742571831, -0.0270627960562706, 0.09791018813848495, -0.0016890517435967922, -0.005212502088397741, 0.9976397752761841, -1.140556812286377, -2.805900812149048, -0.015697505325078964, 0.0, 0.0, 0.0, 0, 0, 0, 0, 0, 0, -1.140556812286377, -2.805900812149048, -0.015697505325078964
14210, 0.03782135620713234, 0.0024745590053498745, 0.1459614336490631, 0.008058778010308743, -0.028628353029489517, 0.10151495784521103, -0.002484407974407077, -0.004898344166576862, 0.9992513656616211, -1.1425766944885254, -2.811157703399658, -0.015736494213342667, 0.0, 0.0, 0.0, 0, 0, 0, 0, 0, 0, -1.1425766944885254, -2.811157703399658, -0.015736494213342667
14220, 0.0396830216050148, 0.003828500397503376, 0.14728879928588867, 0.31339672207832336, -0.2080496847629547, 0.09365803003311157, -0.0020257241558283567, -0.004478666000068188, 0.9983944892883301, -1.1445987224578857, -2.816420316696167, -0.015776993706822395, 0.0, 0.0, 0.0, 0, 0, 0, 0, 0, 0, -1.1445987224578857, -2.816420316696167, -0.015776993706822395
14230, 0.03971632197499275, 0.003815854899585247, 0.14691878855228424, 0.0028144430834800005, -0.011100277304649353, 0.07990135252475739, -0.0014828965067863464, -0.005057663656771183, 0.9986982345581055, -1.1466232538223267, -2.821688175201416, -0.01581859588623047, 0.0, 0.0, 0.0, 0, 0, 0, 0, 0, 0, -1.1466232538223267, -2.821688175201416, -0.01581859588623047
14240, 0.03953245282173157, 0.004403494298458099, 0.1477491855621338, -0.005432918202131987, -0.02016543410718441, 0.19205883145332336, -0.0008560610003769398, -0.0044245002791285515, 0.9987741708755493, -1.14864981174469, -2.826961040496826, -0.015861494466662407, 0.0, 0.0, 0.0, 0, 0, 0, 0, 0, 0, -1.14864981174469, -2.826961040496826, -0.015861494466662407
14250, 0.039994943886995316, 0.002933938056230545, 0.14756619930267334, 0.14837932586669922, 0.3895703852176666, -0.04865144193172455, -0.0017656830605119467, -0.004722990561276674, 1.0003870725631714, -1.1506778001785278, -2.8322391510009766, -0.01590556651353836, 0.0, 0.0, 0.0, 0, 0, 0, 0, 0, 0, -1.1506778001785278, -2.8322391510009766, -0.01590556651353836
14260, 0.03980320319533348, 0.0015214669983834028, 0.1471841037273407, 0.007706074509769678, 0.19874468445777893, -0.04349508881568909, -0.003920283634215593, -0.0031539718620479107, 1.0003982782363892, -1.1527073383331299, -2.837522029876709, -0.01595008745789528, 0.0, 0.0, 0.0, 0, 0, 0, 0, 0, 0, -1.1527073383331299, -2.837522029876709, -0.01595008745789528
14270, 0.039911091327667236, 0.0020292503759264946, 0.14646172523498535, 0.023184845224022865, 0.0593867190182209, -0.11044877022504807, -0.0038258181884884834, -0.002917337231338024, 0.9996302127838135, -1.1547396183013916, -2.8428092002868652, -0.015994247049093246, 0.0, 0.0, 0.0, 0, 0, 0, 0, 0, 0, -1.1547396183013916, -2.8428092002868652, -0.015994247049093246
14280, 0.039635252207517624, 0.0010484472149983048, 0.14735667407512665, -0.09077566862106323, 0.2156585454940796, 0.3034695088863373, -0.0033768031280487776, -0.005883821751922369, 1.0006240606307983, -1.156775712966919, -2.848100185394287, -0.01603812351822853, 0.0, 0.0, 0.0, 0, 0, 0, 0, 0, 0, -1.156775712966919, -2.848100185394287, -0.01603812351822853
14290, 0.03859711065888405, 0.00042474677320569754, 0.1471688598394394, -0.0889357179403305, 0.02184961922466755, 0.05127314478158951, -0.004975905176252127, -0.004095479380339384, 0.9996768236160278, -1.1588153839111328, -2.853395938873291, -0.01608170010149479, 0.0, 0.0, 0.0, 0, 0, 0, 0, 0, 0, -1.1588153839111328, -2.853395938873291, -0.01608170010149479
14300, 0.03730344399809837, -0.0007663987926207483, 0.14640510082244873, -0.14810626208782196, 0.10551141202449799, -0.22266989946365356, -0.003555149771273136, -0.0035828533582389355, 0.9993703961372375, -1.1608589887619019, -2.8586971759796143, -0.016124876216053963, 0.0, 0.0, 0.0, 0, 0, 0, 0, 0, 0, -1.1608589887619019, -2.8586971759796143, -0.016124876216053963
14310, 0.037260472774505615, -0.0016533428570255637, 0.14678658545017242, 0.03390871360898018, 0.1841270625591278, 0.047370560467243195, -0.004961681552231312, -0.005792840849608183, 0.9988131523132324, -1.1629070043563843, -2.8640027046203613, -0.016168225556612015, 0.0, 0.0, 0.0, 0, 0, 0, 0, 0, 0, -1.1629070043563843, -2.8640027046203613, -0.016168225556612015
14320, 0.03804832696914673, 0.00011080584954470396, 0.14463011920452118, 0.22030705213546753, -0.32713064551353455, -0.17179782688617706, -0.004061672370880842, -0.005783940199762583, 0.9988301396369934, -1.164959192276001, -2.8693132400512695, -0.01621248945593834, 0.0, 0.0, 0.0, 0, 0, 0, 0, 0, 0, -1.164959192276001, -2.8693132400512695, -0.01621248945593834
14330, 0.037965964525938034, 0.0005180853186175227, 0.14419841766357422, 0.09675265848636627, -0.12445076555013657, 0.03199583664536476, -0.0020175452809780836, -0.003741061082109809, 0.9998890161514282, -1.167015790939331, -2.8746299743652344, -0.016257820650935173, 0.0, 0.0, 0.0, 0, 0, 0, 0, 0, 0, -1.167015790939331, -2.8746299743652344, -0.016257820650935173
14340, 0.03894434869289398, 0.001316698850132525, 0.14419277012348175, -0.003764333436265588, -0.17832811176776886, -0.12074200809001923, -0.0026195873506367207, -0.0032243954483419657, 1.0004446506500244, -1.1690757274627686, -2.8799519538879395, -0.016303736716508865, 0.0, 0.0, 0.0, 0, 0, 0, 0, 0, 0, -1.1690757274627686, -2.8799519538879395, -0.016303736716508865
14350, 0.039294302463531494, 0.0023092583287507296, 0.14338158071041107, 0.07318446040153503, -0.1404636651277542, -0.006003309041261673, -0.003105353331193328, -0.004583846777677536, 1.000943899154663, -1.171138048171997, -2.8852779865264893, -0.016349682584404945, 0.0, 0.0, 0.0, 0, 0, 0, 0, 0, 0, -1.171138048171997, -2.8852779865264893, -0.016349682584404945
14360, 0.0398283414542675, 0.0020643637981265783, 0.143692746758461, 0.06322328001260757, 0.06924315541982651, 0.04358871653676033, -0.0029727511573582888, -0.005176966544240713, 0.9986517429351807, -1.1732029914855957, -2.890608549118042, -0.016395073384046555, 0.0, 0.0, 0.0, 0, 0, 0, 0, 0, 0, -1.1732029914855957, -2.890608549118042, -0.016395073384046555
14370, 0.04009788855910301, 0.0016160081140697002, 0.14322131872177124, -0.08515561372041702, -0.014928528107702732, -0.08679888397455215, -0.0013867850648239255, -0.005175316706299782, 0.9989760518074036, -1.1752707958221436, -2.895944595336914, -0.016440629959106445, 0.0, 0.0, 0.0, 0, 0, 0, 0, 0, 0, -1.1752707958221436, -2.895944595336914, -0.016440629959106445
14380, 0.03950934484601021, 0.0003640052455011755, 0.1445002555847168, -0.10906316339969635, 0.255445271730423, 0.12147924304008484, -0.001141143380664289, -0.004706550855189562, 1.0002007484436035, -1.1773407459259033, -2.9012863636016846, -0.01648741029202938, 0.0, 0.0, 0.0, 0, 0, 0, 0, 0, 0, -1.1773407459259033, -2.9012863636016846, -0.01648741029202938
14390, 0.04014797508716583, 0.0005001092213205993, 0.14342869818210602, 0.16572967171669006, -0.03819260373711586, -0.23416823148727417, -0.0014256905997171998, -0.004317820072174072, 0.9984318017959595, -1.1794121265411377, -2.9066338539123535, -0.01653476059436798, 0.0, 0.0, 0.0, 0, 0, 0, 0, 0, 0, -1.1794121265411377, -2.9066338539123535, -0.01653476059436798
14400, 0.03972793370485306, 0.00011996191460639238, 0.14374834299087524, -0.17589543759822845, 0.029135946184396744, 0.004788378719240427, -0.0035901053342968225, -0.0032505413983017206, 0.9987816214561462, -1.1814848184585571, -2.9119863510131836, -0.016582747921347618, 0.0, 0.0, 0.0, 0, 0, 0, 0, 0, 0, -1.1814848184585571, -2.9119863510131836, -0.016582747921347618
14410, 0.039396677166223526, -0.00024230625422205776, 0.14400364458560944, -0.06258627772331238, 0.05305520445108414, -0.03340601921081543, -0.0029671022202819586, -0.00324687990359962, 0.9978609681129456, -1.183559775352478, -2.9173433780670166, -0.016632182523608208, 0.0, 0.0, 0.0, 0, 0, 0, 0, 0, 0, -1.183559775352478, -2.9173433780670166, -0.016632182523608208
14420, 0.03930866718292236, 0.0007971295272000134, 0.14208771288394928, -0.09266355633735657, -0.11798951774835587, -0.23954147100448608, -0.0022715353406965733, -0.006205226294696331, 0.9995187520980835, -1.1856379508972168, -2.9227042198181152, -0.016683286055922508, 0.0, 0.0, 0.0, 0, 0, 0, 0, 0, 0, -1.1856379508972168, -2.9227042198181152, -0.016683286055922508
14430, 0.0395888052880764, 0.0013076975010335445, 0.14063337445259094, 0.07913937419652939, -0.048246800899505615, -0.12305296957492828, -0.0025709664914757013, -0.005499967373907566, 1.0000011920928955, -1.1877186298370361, -2.928070306777954, -0.01673564687371254, 0.0, 0.0, 0.0, 0, 0, 0, 0, 0, 0, -1.1877186298370361, -2.928070306777954, -0.01673564687371254
14440, 0.04015174135565758, 0.00252070021815598, 0.1419893354177475, 0.12539584934711456, -0.23947685956954956, 0.1863880306482315, -0.004563961178064346, -0.0033706186804920435, 1.0002602338790894, -1.189801812171936, -2.9334425926208496, -0.016788510605692863, 0.0, 0.0, 0.0, 0, 0, 0, 0, 0, 0, -1.189801812171936, -2.9334425926208496, -0.016788510605692863
14450, 0.04116417467594147, 0.001928208046592772, 0.14266006648540497, 0.15810129046440125, 0.023541664704680443, -0.09915661811828613, -0.004022211767733097, -0.004356410354375839, 0.9998741745948792, -1.1918885707855225, -2.9388201236724854, -0.016841448843479156, 0.0, 0.0, 0.0, 0, 0, 0, 0, 0, 0, -1.1918885707855225, -2.9388201236724854, -0.016841448843479156
14460, 0.040481701493263245, -0.0005265758954919875, 0.1427992731332779, -0.12835074961185455, 0.24699945747852325, -0.0722191110253334, -0.0026890088338404894, -0.0035900920629501343, 1.0005848407745361, -1.1939795017242432, -2.944202184677124, -0.016894392669200897, 0.0, 0.0, 0.0, 0, 0, 0, 0, 0, 0, -1.1939795017242432, -2.944202184677124, -0.016894392669200897
14470, 0.04162602499127388, 0.00043885354534722865, 0.14361311495304108, 0.013024827465415001, -0.25067397952079773, 0.03916410356760025, -0.0027368448209017515, -0.004068718291819096, 1.0008163452148438, -1.1960738897323608, -2.9495887756347656, -0.016947230324149132, 0.0, 0.0, 0.0, 0, 0, 0, 0, 0, 0, -1.1960738897323608, -2.9495887756347656, -0.016947230324149132
14480, 0.04174958914518356, 0.001461995067074895, 0.14409318566322327, -0.05000295490026474, -0.14075146615505219, -0.010896329768002033, -0.0008804688695818186, -0.0032268164213746786, 1.0007208585739136, -1.1981709003448486, -2.95497989654541, -0.016999410465359688, 0.0, 0.0, 0.0, 0, 0, 0, 0, 0, 0, -1.1981709003448486, -2.95497989654541, -0.016999410465359688
14490, 0.042069025337696075, 0.0020211483351886272, 0.14538146555423737, 0.023767365142703056, -0.02331608533859253, 0.10943853110074997, -0.0022133071906864643, -0.002904627937823534, 0.9991740584373474, -1.2002698183059692, -2.9603753089904785, -0.01705077476799488, 0.0, 0.0, 0.0, 0, 0, 0, 0, 0, 0, -1.2002698183059692, -2.9603753089904785, -0.01705077476799488
14500, 0.04316992685198784, 0.0037364717572927475, 0.14572758972644806, 0.2518230378627777, -0.3729935586452484, 0.0944770872592926, -0.0023638452403247356, -0.004105422645807266, 1.000723123550415, -1.202370285987854, -2.9657745361328125, -0.017102167010307312, 0.0, 0.0, 0.0, 0, 0, 0, 0, 0, 0, -1.202370285987854, -2.9657745361328125, -0.017102167010307312
14510, 0.04218914732336998, 0.005231530871242285, 0.1438482254743576, 0.01413733884692192, -0.1457224190235138, -0.3050127923488617, -0.003981193993240595, -0.004229674115777016, 0.9995013475418091, -1.2044730186462402, -2.971177816390991, -0.017153648659586906, 0.0, 0.0, 0.0, 0, 0, 0, 0, 0, 0, -1.2044730186462402, -2.971177816390991, -0.017153648659586906
14520, 0.04109096899628639, 0.004934833850711584, 0.1433662474155426, 0.008037099614739418, 0.13226251304149628, 0.003374936757609248, -0.0011652879184111953, -0.0044365134090185165, 0.998455822467804, -1.2065788507461548, -2.976585626602173, -0.017204994335770607, 0.0, 0.0, 0.0, 0, 0, 0, 0, 0, 0, -1.2065788507461548, -2.976585626602173, -0.017204994335770607
14530, 0.04177827015519142, 0.005746633280068636, 0.14308194816112518, 0.12028300017118454, -0.17843903601169586, -0.08349323272705078, 2.6229223294649273e-05, -0.0036199279129505157, 0.9995580911636353, -1.208687424659729, -2.9819982051849365, -0.01725717820227146, 0.0, 0.0, 0.0, 0, 0, 0, 0, 0, 0, -1.208687424659729, -2.9819982051849365, -0.01725717820227146
14540, 0.041380345821380615, 0.004701395519077778, 0.14370454847812653, 0.004852429497987032, 0.18200112879276276, 0.2501680254936218, -0.0013885247753933072, -0.003163472283631563, 0.9991083741188049, -1.21079683303833, -2.9874155521392822, -0.01731053553521633, 0.0, 0.0, 0.0, 0, 0, 0, 0, 0, 0, -1.21079683303833, -2.9874155521392822, -0.01731053553521633
14550, 0.04003813490271568, 0.005931856110692024, 0.14328697323799133, -0.2129630446434021, 0.03159726411104202, -0.011098482646048069, -0.0006313868798315525, -0.006433458998799324, 1.0005204677581787, -1.2129069566726685, -2.992837429046631, -0.01736479625105858, 0.0, 0.0, 0.0, 0, 0, 0, 0, 0, 0, -1.2129069566726685, -2.992837429046631, -0.01736479625105858
14560, 0.040748048573732376, 0.005536166485399008, 0.14308443665504456, 0.10717929899692535, 0.09104830026626587, 0.07666053622961044, -0.0007894557202234864, -0.006090922746807337, 0.9997695684432983, -1.2150181531906128, -2.998264789581299, -0.017419278621673584, 0.0, 0.0, 0.0, 0, 0, 0, 0, 0, 0, -1.2150181531906128, -2.998264789581299, -0.017419278621673584
14570, 0.04168861359357834, 0.007830067537724972, 0.143650621175766, 0.06064985692501068, -0.2731652855873108, 0.09565893560647964, -0.0029850397258996964, -0.0033388957381248474, 0.9987351298332214, -1.217130184173584, -3.0036988258361816, -0.017473649233579636, 0.0, 0.0, 0.0, 0, 0, 0, 0, 0, 0, -1.217130184173584, -3.0036988258361816, -0.017473649233579636
14580, 0.04229828342795372, 0.008492257446050644, 0.14402706921100616, 0.06881590932607651, 0.05445241183042526, 0.05211155489087105, -0.003522925777360797, -0.005958019755780697, 0.9991564750671387, -1.2192440032958984, -3.009138345718384, -0.017528705298900604, 0.0, 0.0, 0.0, 0, 0, 0, 0, 0, 0, -1.2192440032958984, -3.009138345718384, -0.017528705298900604
14590, 0.04273999109864235, 0.006713633891195059, 0.14540386199951172, 0.043972164392471313, 0.37241482734680176, 0.070724718272686, -0.0014780809869989753, -0.00649361964315176, 0.998149573802948, -1.2213610410690308, -3.0145833492279053, -0.017585063353180885, 0.0, 0.0, 0.0, 0, 0, 0, 0, 0, 0, -1.2213610410690308, -3.0145833492279053, -0.017585063353180885
14600, 0.04205897077918053, 0.006130367983132601, 0.14420098066329956, -0.10842671990394592, 0.05935818329453468, -0.17267091572284698, 0.0008935004589147866, -0.004742306191474199, 1.0010393857955933, -1.223480463027954, -3.0200350284576416, -0.017643040046095848, 0.0, 0.0, 0.0, 0, 0, 0, 0, 0, 0, -1.223480463027954, -3.0200350284576416, -0.017643040046095848
14610, 0.04168461635708809, 0.007248526904731989, 0.1443372368812561, -0.07396955043077469, -0.1038290336728096, -0.04523599147796631, -0.002322975778952241, -0.003916395828127861, 0.9993285536766052, -1.2256004810333252, -3.0254931449890137, -0.017701542004942894, 0.0, 0.0, 0.0, 0, 0, 0, 0, 0, 0, -1.2256004810333252, -3.0254931449890137, -0.017701542004942894
14620, 0.041711416095495224, 0.008376963436603546, 0.14497028291225433, 0.0879233255982399, -0.11683250218629837, 0.19104383885860443, -0.0025796224363148212, -0.00469588628038764, 0.9978037476539612, -1.2277212142944336, -3.0309560298919678, -0.01775982789695263, 0.0, 0.0, 0.0, 0, 0, 0, 0, 0, 0, -1.2277212142944336, -3.0309560298919678, -0.01775982789695263
14630, 0.04190801829099655, 0.00798137579113245, 0.14607109129428864, 0.056372106075286865, -0.030304308980703354, 0.27130770683288574, -0.002275473205372691, -0.0044052437879145145, 1.0008245706558228, -1.229844093322754, -3.036423683166504, -0.017819205299019814, 0.0, 0.0, 0.0, 0, 0, 0, 0, 0, 0, -1.229844093322754, -3.036423683166504, -0.017819205299019814
14640, 0.04161311313509941, 0.008681532926857471, 0.144436314702034, -0.20758090913295746, -0.13585017621517181, -0.31536704301834106, -0.00247742491774261, -0.0030306337866932154, 0.9992538094520569, -1.2319695949554443, -3.041896343231201, -0.017879312857985497, 0.0, 0.0, 0.0, 0, 0, 0, 0, 0, 0, -1.2319695949554443, -3.041896343231201, -0.017879312857985497
14650, 0.04161015525460243, 0.007692825514823198, 0.1440335065126419, -0.03164757415652275, 0.06494589149951935, 0.00893403496593237, -0.0019706871826201677, -0.002905449829995632, 0.9994485378265381, -1.2340975999832153, -3.0473735332489014, -0.017939480021595955, 0.0, 0.0, 0.0, 0, 0, 0, 0, 0, 0, -1.2340975999832153, -3.0473735332489014, -0.017939480021595955
14660, 0.04128347709774971, 0.009108304977416992, 0.14438621699810028, 0.05240890011191368, -0.2823121249675751, 0.09070488810539246, -0.00264662760309875, -0.005210822448134422, 1.0000436305999756, -1.2362277507781982, -3.052854299545288, -0.018000178039073944, 0.0, 0.0, 0.0, 0, 0, 0, 0, 0, 0, -1.2362277507781982, -3.052854299545288, -0.018000178039073944
14670, 0.041922856122255325, 0.007809772156178951, 0.14532874524593353, 0.2456778585910797, 0.1574869304895401, 0.27226534485816956, -6.090972601668909e-05, -0.005180041305720806, 1.0010820627212524, -1.2383602857589722, -3.0583395957946777, -0.018061093986034393, 0.0, 0.0, 0.0, 0, 0, 0, 0, 0, 0, -1.2383602857589722, -3.0583395957946777, -0.018061093986034393
14680, 0.04249148070812225, 0.00716507900506258, 0.14410877227783203, 0.03284170478582382, 0.02771407924592495, -0.18359044194221497, -0.0005232993862591684, -0.004083449952304363, 1.0008560419082642, -1.2404943704605103, -3.063830614089966, -0.018121354281902313, 0.0, 0.0, 0.0, 0, 0, 0, 0, 0, 0, -1.2404943704605103, -3.063830614089966, -0.018121354281902313
14690, 0.04203394055366516, 0.006896761246025562, 0.14477834105491638, -0.05720873922109604, -0.006012790836393833, 0.13565777242183685, -0.002672364469617605, -0.006338011473417282, 0.9996709227561951, -1.242629051208496, -3.069326877593994, -0.01818057894706726, 0.0, 0.0, 0.0, 0, 0, 0, 0, 0, 0, -1.242629051208496, -3.069326877593994, -0.01818057894706726
14700, 0.04243507608771324, 0.0066243745386600494, 0.14490558207035065, 0.05288388207554817, 0.14591555297374725, 0.06023946404457092, -0.0029218667186796665, -0.003855535527691245, 1.0003842115402222, -1.2447654008865356, -3.074828624725342, -0.018239563331007957, 0.0, 0.0, 0.0, 0, 0, 0, 0, 0, 0, -1.2447654008865356, -3.074828624725342, -0.018239563331007957
14710, 0.04241630434989929, 0.006989667192101479, 0.14463742077350616, -0.0925552025437355, 0.19838328659534454, -0.07825960218906403, -0.000867769937030971, -0.0059976596385240555, 0.9992871880531311, -1.2469044923782349, -3.080335855484009, -0.01829867996275425, 0.0, 0.0, 0.0, 0, 0, 0, 0, 0, 0, -1.2469044923782349, -3.080335855484009, -0.01829867996275425
14720, 0.04285244643688202, 0.008146857842803001, 0.14488954842090607, -0.05776415765285492, -0.16270038485527039, -0.17030304670333862, -0.0017880935920402408, -0.006632666103541851, 0.9969225525856018, -1.2490456104278564, -3.085848808288574, -0.018357951194047928, 0.0, 0.0, 0.0, 0, 0, 0, 0, 0, 0, -1.2490456104278564, -3.085848808288574, -0.018357951194047928
14730, 0.04338450729846954, 0.007017406169325113, 0.14368027448654175, 0.08873256295919418, 0.2442803978919983, -0.10186784714460373, -0.0030007935129106045, -0.004745511803776026, 0.9981166124343872, -1.2511881589889526, -3.0913686752319336, -0.018418751657009125, 0.0, 0.0, 0.0, 0, 0, 0, 0, 0, 0, -1.2511881589889526, -3.0913686752319336, -0.018418751657009125
14740, 0.04276252165436745, 0.006104037165641785, 0.14331769943237305, -0.12443853914737701, 0.06368576735258102, 0.04592793434858322, -0.004253797233104706, -0.0056390962563455105, 1.0009684562683105, -1.2533330917358398, -3.0968949794769287, -0.018481744453310966, 0.0, 0.0, 0.0, 0, 0, 0, 0, 0, 0, -1.2533330917358398, -3.0968949794769287, -0.018481744453310966
14750, 0.04244118556380272, 0.005099053028970957, 0.1438223421573639, -0.11801255494356155, 0.04265972599387169, -0.03010166436433792, -0.0029930497985333204, -0.0035056178458034992, 1.0012229681015015, -1.255481481552124, -3.1024272441864014, -0.01854533702135086, 0.0, 0.0, 0.0, 0, 0, 0, 0, 0, 0, -1.255481481552124, -3.1024272441864014, -0.01854533702135086
14760, 0.04254341498017311, 0.006253187544643879, 0.14351965487003326, 0.06183707341551781, -0.1675274670124054, -0.18672682344913483, -0.0029569175094366074, -0.0013487195828929543, 0.9981299638748169, -1.2576334476470947, -3.1079647541046143, -0.01860819384455681, 0.0, 0.0, 0.0, 0, 0, 0, 0, 0, 0, -1.2576334476470947, -3.1079647541046143, -0.01860819384455681
14770, 0.043306391686201096, 0.007862621918320656, 0.14323478937149048, 0.08768205344676971, -0.11761937290430069, -0.164910688996315, -0.0013535870239138603, -0.003556641284376383, 1.0019903182983398, -1.2597883939743042, -3.1135056018829346, -0.01867131143808365, 0.0, 0.0, 0.0, 0, 0, 0, 0, 0, 0, -1.2597883939743042, -3.1135056018829346, -0.01867131143808365
14780, 0.043702028691768646, 0.006837458349764347, 0.14410139620304108, 0.15760868787765503, 0.0775877982378006, -0.015583719126880169, -0.0021386127918958664, -0.003932315390557051, 1.000820517539978, -1.2619454860687256, -3.119049310684204, -0.018734466284513474, 0.0, 0.0, 0.0, 0, 0, 0, 0, 0, 0, -1.2619454860687256, -3.119049310684204, -0.018734466284513474
14790, 0.04331086948513985, 0.003653306048363447, 0.14415132999420166, 0.026349928230047226, 0.20508049428462982, 0.13122040033340454, -0.00322138168849051, -0.004885206930339336, 0.9991554617881775, -1.2641043663024902, -3.1245970726013184, -0.018796449527144432, 0.0, 0.0, 0.0, 0, 0, 0, 0, 0, 0, -1.2641043663024902, -3.1245970726013184, -0.018796449527144432
14800, 0.04288797825574875, 0.0032361363992094994, 0.1439961940050125, -0.0389116108417511, -0.03582567721605301, 0.07654641568660736, -0.0018623457290232182, -0.006367599591612816, 1.0005801916122437, -1.266265869140625, -3.130150079727173, -0.018858129158616066, 0.0, 0.0, 0.0, 0, 0, 0, 0, 0, 0, -1.266265869140625, -3.130150079727173, -0.018858129158616066
14810, 0.04300832375884056, 0.005479406099766493, 0.14430081844329834, 0.0007928794366307557, -0.34689146280288696, -0.008151060901582241, -0.0020385647658258677, -0.0036575051490217447, 0.9998655915260315, -1.2684299945831299, -3.135709047317505, -0.01891983486711979, 0.0, 0.0, 0.0, 0, 0, 0, 0, 0, 0, -1.2684299945831299, -3.135709047317505, -0.01891983486711979
14820, 0.043747179210186005, 0.003912557382136583, 0.1450258493423462, 0.06602326035499573, 0.29566723108291626, -0.0292349960654974, -0.003679736517369747, -0.0046711089089512825, 0.9995899200439453, -1.2705962657928467, -3.1412734985351562, -0.018981246277689934, 0.0, 0.0, 0.0, 0, 0, 0, 0, 0, 0, -1.2705962657928467, -3.1412734985351562, -0.018981246277689934
14830, 0.04305628314614296, 0.0027645230293273926, 0.1457177996635437, -0.055454619228839874, 0.18243995308876038, 0.2914153039455414, -0.002066489541903138, -0.004989889916032553, 0.9993289113044739, -1.2727652788162231, -3.1468429565429688, -0.01904269866645336, 0.0, 0.0, 0.0, 0, 0, 0, 0, 0, 0, -1.2727652788162231, -3.1468429565429688, -0.01904269866645336
14840, 0.043125756084918976, 0.0015457805711776018, 0.146418496966362, -0.014808074571192265, 0.18175318837165833, 0.22458858788013458, -0.00348911015316844, -0.005587866064161062, 1.0001832246780396, -1.274937391281128, -3.1524181365966797, -0.01910463534295559, 0.0, 0.0, 0.0, 0, 0, 0, 0, 0, 0, -1.274937391281128, -3.1524181365966797, -0.01910463534295559
14850, 0.04322391748428345, 0.002320940140634775, 0.14616192877292633, -0.03622443974018097, -0.012296798638999462, -0.09908942878246307, -0.002196718705818057, -0.0033709474373608828, 0.9996542930603027, -1.277112364768982, -3.1579995155334473, -0.0191668514162302, 0.0, 0.0, 0.0, 0, 0, 0, 0, 0, 0, -1.277112364768982, -3.1579995155334473, -0.0191668514162302
14860, 0.04271380975842476, 0.0011089186882600188, 0.14450813829898834, -0.15741197764873505, 0.18760821223258972, -0.25328654050827026, -0.002683002734556794, -0.0037368740886449814, 0.9983587265014648, -1.2792904376983643, -3.163585901260376, -0.019229132682085037, 0.0, 0.0, 0.0, 0, 0, 0, 0, 0, 0, -1.2792904376983643, -3.163585901260376, -0.019229132682085037
14870, 0.04193911701440811, 0.000948047440033406, 0.14521615207195282, -0.16914133727550507, -0.002782703610137105, 0.09393540024757385, 3.603415461839177e-05, -0.004182781092822552, 0.9998642802238464, -1.2814712524414062, -3.1691768169403076, -0.01929224468767643, 0.0, 0.0, 0.0, 0, 0, 0, 0, 0, 0, -1.2814712524414062, -3.1691768169403076, -0.01929224468767643
14880, 0.0419011190533638, 1.7758766261977144e-05, 0.14431452751159668, 0.09726574271917343, -0.10360369831323624, -0.17191585898399353, -0.0007068241247907281, -0.003884172299876809, 0.9998231530189514, -1.2838718891143799, -3.1753323078155518, -0.019362708553671837, 0.0, 0.0, 0.0, 0, 0, 0, 0, 0, 0, -1.2838718891143799, -3.1753323078155518, -0.019362708553671837
14890, 0.041876934468746185, -0.001934071071445942, 0.14570537209510803, 0.07856722921133041, 0.2148086279630661, 0.22787582874298096, -0.0026016775518655777, -0.005047422368079424, 1.000648856163025, -1.2860549688339233, -3.1809329986572266, -0.019427089020609856, 0.0, 0.0, 0.0, 0, 0, 0, 0, 0, 0, -1.2860549688339233, -3.1809329986572266, -0.019427089020609856
14900, 0.04222438484430313, -0.0015359856188297272, 0.14553000032901764, 0.14648102223873138, -0.09292630851268768, 0.3089294135570526, -0.0019122716039419174, -0.0064392294734716415, 1.0027161836624146, -1.2882393598556519, -3.1865389347076416, -0.01949124224483967, 0.0, 0.0, 0.0, 0, 0, 0, 0, 0, 0, -1.2882393598556519, -3.1865389347076416, -0.01949124224483967
14910, 0.04222438484430313, -0.0015359856188297272, 0.14553000032901764, 0.050361551344394684, -0.31521329283714294, 0.15513332188129425, -0.0029276753775775433, -0.005279059987515211, 0.999717652797699, -1.290644645690918, -3.1927125453948975, -0.019560208544135094, 0.0, 0.0, 0.0, 0, 0, 0, 0, 0, 0, -1.290644645690918, -3.1927125453948975, -0.019560208544135094
14920, 0.043359119445085526, -0.0006143702776171267, 0.1464434415102005, 0.058084599673748016, -0.06591783463954926, 0.09149365872144699, -0.002508856588974595, -0.004328660201281309, 0.9984742999076843, -1.2930529117584229, -3.1988937854766846, -0.019627965986728668, 0.0, 0.0, 0.0, 0, 0, 0, 0, 0, 0, -1.2930529117584229, -3.1988937854766846, -0.019627965986728668
14930, 0.04280446097254753, 6.570944606210105e-06, 0.14755764603614807, -0.03293232247233391, 0.025244738906621933, 0.17506970465183258, -0.001955954125151038, -0.006213848944753408, 0.9988537430763245, -1.2954643964767456, -3.2050817012786865, -0.019696639850735664, 0.0, 0.0, 0.0, 0, 0, 0, 0, 0, 0, -1.2954643964767456, -3.2050817012786865, -0.019696639850735664
14940, 0.04205581918358803, 0.0024160961620509624, 0.14807449281215668, -0.05706437677145004, -0.07084568589925766, -0.08905011415481567, -0.0030084161553531885, -0.001749343704432249, 1.0021812915802002, -1.297658920288086, -3.2107131481170654, -0.01975979283452034, 0.0, 0.0, 0.0, 0, 0, 0, 0, 0, 0, -1.297658920288086, -3.2107131481170654, -0.01975979283452034
14950, 0.04216521978378296, 0.00333044514991343, 0.14702226221561432, 0.02904876135289669, -0.18797847628593445, 0.16310042142868042, -0.0039680590853095055, -0.003076672088354826, 1.0000684261322021, -1.2998560667037964, -3.216348648071289, -0.019821874797344208, 0.0, 0.0, 0.0, 0, 0, 0, 0, 0, 0, -1.2998560667037964, -3.216348648071289, -0.019821874797344208
14960, 0.04208248853683472, 0.003837518161162734, 0.147624671459198, 0.06650063395500183, 0.14972053468227386, 0.014567775651812553, -0.0028503448702394962, -0.0061843073926866055, 0.9964619278907776, -1.3020567893981934, -3.221987724304199, -0.019883455708622932, 0.0, 0.0, 0.0, 0, 0, 0, 0, 0, 0, -1.3020567893981934, -3.221987724304199, -0.019883455708622932
14970, 0.04271913692355156, 0.0022447232622653246, 0.1467706561088562, 0.13078515231609344, 0.12446321547031403, -0.06143717095255852, -0.0024062530137598515, -0.004665739834308624, 0.9969730377197266, -1.3042608499526978, -3.2276322841644287, -0.019947336986660957, 0.0, 0.0, 0.0, 0, 0, 0, 0, 0, 0, -1.3042608499526978, -3.2276322841644287, -0.019947336986660957
14980, 0.041943229734897614, 0.0007620492251589894, 0.1473839282989502, -0.07005244493484497, 0.16112731397151947, -0.008367188274860382, -0.0012418583501130342, -0.003028595820069313, 1.0003684759140015, -1.3064674139022827, -3.2332825660705566, -0.020013956353068352, 0.0, 0.0, 0.0, 0, 0, 0, 0, 0, 0, -1.3064674139022827, -3.2332825660705566, -0.020013956353068352
14990, 0.04165785014629364, -0.0008200699230656028, 0.1491076797246933, 0.022961029782891273, -0.051442284137010574, -0.132907435297966, -0.0001577617513248697, -0.0058602988719940186, 1.000318169593811, -1.3086752891540527, -3.2389371395111084, -0.02008119411766529, 0.0, 0.0, 0.0, 0, 0, 0, 0, 0, 0, -1.3086752891540527, -3.2389371395111084, -0.02008119411766529
15000, 0.04187684506177902, -0.000304240791592747, 0.14899450540542603, 0.10659138858318329, 0.02861529216170311, 0.016452888026833534, -0.0010016919113695621, -0.006015364546328783, 1.000401496887207, -1.31088387966156, -3.2445974349975586, -0.02014811523258686, 0.0, 0.0, 0.0, 0, 0, 0, 0, 0, 0, -1.31088387966156, -3.2445974349975586, -0.02014811523258686
15010, 0.04050767421722412, -0.00024813541676849127, 0.14886653423309326, -0.029177764430642128, -0.011154034174978733, 0.21277868747711182, -0.0023114546202123165, -0.0039824433624744415, 1.000533938407898, -1.3130933046340942, -3.2502641677856445, -0.020214758813381195, 0.0, 0.0, 0.0, 0, 0, 0, 0, 0, 0, -1.3130933046340942, -3.2502641677856445, -0.020214758813381195
15020, 0.04073275998234749, -0.001469489885494113, 0.1489110291004181, 0.07698383182287216, 0.03857184574007988, 0.08141288161277771, -0.0035476163029670715, -0.0033794662449508905, 0.999258279800415, -1.3153048753738403, -3.2559356689453125, -0.020281106233596802, 0.0, 0.0, 0.0, 0, 0, 0, 0, 0, 0, -1.3153048753738403, -3.2559356689453125, -0.020281106233596802
15030, 0.0400073379278183, -0.0013920634519308805, 0.1503220647573471, -0.06595620512962341, -0.11564259231090546, -0.19234921038150787, -0.003401454770937562, -0.006993446499109268, 0.9999789595603943, -1.3175195455551147, -3.2616119384765625, -0.020347902551293373, 0.0, 0.0, 0.0, 0, 0, 0, 0, 0, 0, -1.3175195455551147, -3.2616119384765625, -0.020347902551293373
15040, 0.039799995720386505, -0.0012259219074621797, 0.15002481639385223, -0.0387372151017189, 0.001758445636369288, -0.04804475978016853, -0.0019476852612569928, -0.0063920170068740845, 1.0002411603927612, -1.3197375535964966, -3.2672946453094482, -0.020414743572473526, 0.0, 0.0, 0.0, 0, 0, 0, 0, 0, 0, -1.3197375535964966, -3.2672946453094482, -0.020414743572473526
15050, 0.03994998708367348, -0.00043575314339250326, 0.14929459989070892, -0.11676380038261414, -0.06318283081054688, 0.1415637731552124, -0.0024529106449335814, -0.005703989882022142, 0.9996452927589417, -1.321958065032959, -3.272984504699707, -0.020481137558817863, 0.0, 0.0, 0.0, 0, 0, 0, 0, 0, 0, -1.321958065032959, -3.272984504699707, -0.020481137558817863
15060, 0.04045214504003525, -0.0014962706482037902, 0.15033374726772308, 0.0801735445857048, 0.14628779888153076, 0.012638937681913376, -0.0011458131484687328, -0.003872500266879797, 0.999325156211853, -1.324180245399475, -3.2786808013916016, -0.0205477774143219, 0.0, 0.0, 0.0, 0, 0, 0, 0, 0, 0, -1.324180245399475, -3.2786808013916016, -0.0205477774143219
15070, 0.03992316126823425, -0.0015158997848629951, 0.14982755482196808, -0.13219396770000458, 0.02194594033062458, 0.054960206151008606, -0.001683892565779388, -0.003145652823150158, 1.0010324716567993, -1.3264039754867554, -3.284381628036499, -0.020614681765437126, 0.0, 0.0, 0.0, 0, 0, 0, 0, 0, 0, -1.3264039754867554, -3.284381628036499, -0.020614681765437126
15080, 0.038586392998695374, -0.0016560670919716358, 0.15013855695724487, 0.11245662719011307, -0.1281130313873291, 0.34661179780960083, -0.00196532323025167, -0.004844367504119873, 1.000852108001709, -1.3286291360855103, -3.290086507797241, -0.020681064575910568, 0.0, 0.0, 0.0, 0, 0, 0, 0, 0, 0, -1.3286291360855103, -3.290086507797241, -0.020681064575910568
15090, 0.038386549800634384, -0.002345373621210456, 0.15140098333358765, -0.24932552874088287, -0.11712449043989182, -0.20200911164283752, -0.004115687217563391, -0.003642457304522395, 0.9988610744476318, -1.3308566808700562, -3.2957959175109863, -0.020746950060129166, 0.0, 0.0, 0.0, 0, 0, 0, 0, 0, 0, -1.3308566808700562, -3.2957959175109863, -0.020746950060129166
15100, 0.03835843876004219, -0.0009846679167822003, 0.15050840377807617, 0.018588881939649582, 0.1176377534866333, 0.19996555149555206, -0.0030047670006752014, -0.0032114998903125525, 1.0004072189331055, -1.33308744430542, -3.3015098571777344, -0.02081320807337761, 0.0, 0.0, 0.0, 0, 0, 0, 0, 0, 0, -1.33308744430542, -3.3015098571777344, -0.02081320807337761
15110, 0.03803019970655441, -0.00033853627974167466, 0.15084177255630493, 0.03880477696657181, -0.3184926211833954, 0.05367327108979225, -0.00198083627037704, -0.005119360517710447, 1.000810146331787, -1.335321068763733, -3.3072280883789062, -0.020879268646240234, 0.0, 0.0, 0.0, 0, 0, 0, 0, 0, 0, -1.335321068763733, -3.3072280883789062, -0.020879268646240234
15120, 0.03762452304363251, 0.0007208078750409186, 0.14999136328697205, -0.14795666933059692, 0.2607148289680481, -0.08382588624954224, -0.002619609935209155, -0.0044114557094872, 1.0002590417861938, -1.337557315826416, -3.31295108795166, -0.0209445022046566, 0.0, 0.0, 0.0, 0, 0, 0, 0, 0, 0, -1.337557315826416, -3.31295108795166, -0.0209445022046566
15130, 0.036817517131567, -0.0007912272703833878, 0.15139813721179962, -0.06877876073122025, 0.13979597389698029, 0.3427715003490448, -0.003132048062980175, -0.004329269286245108, 1.002079725265503, -1.3397963047027588, -3.3186793327331543, -0.021008873358368874, 0.0, 0.0, 0.0, 0, 0, 0, 0, 0, 0, -1.3397963047027588, -3.3186793327331543, -0.021008873358368874
15140, 0.03698918595910072, 0.0001091358280973509, 0.15272939205169678, 0.0032361256889998913, 0.14244982600212097, 0.10397481918334961, -0.003704272210597992, -0.003834738628938794, 0.9996671676635742, -1.3420383930206299, -3.3244128227233887, -0.021072132512927055, 0.0, 0.0, 0.0, 0, 0, 0, 0, 0, 0, -1.3420383930206299, -3.3244128227233887, -0.021072132512927055
15150, 0.03667695075273514, 0.0003965873329434544, 0.1522541493177414, -0.0791516974568367, -0.013566205278038979, -0.15364311635494232, -0.0033201957121491432, -0.003908952698111534, 0.9999820590019226, -1.344283938407898, -3.330150842666626, -0.021135114133358, 0.0, 0.0, 0.0, 0, 0, 0, 0, 0, 0, -1.344283938407898, -3.330150842666626, -0.021135114133358
15160, 0.03697663173079491, 0.00035773051786236465, 0.15135939419269562, 0.10197316855192184, -0.12273604422807693, 0.03649667277932167, -0.0021314395125955343, -0.004951032809913158, 0.9980384111404419, -1.3465325832366943, -3.335893392562866, -0.021198470145463943, 0.0, 0.0, 0.0, 0, 0, 0, 0, 0, 0, -1.3465325832366943, -3.335893392562866, -0.021198470145463943
15170, 0.036818284541368484, 0.001394205610267818, 0.15028753876686096, -0.1809094250202179, 0.005293477326631546, -0.027286073192954063, -0.0021537551656365395, -0.005150922574102879, 0.996421754360199, -1.3487834930419922, -3.341641426086426, -0.021263116970658302, 0.0, 0.0, 0.0, 0, 0, 0, 0, 0, 0, -1.3487834930419922, -3.341641426086426, -0.021263116970658302
15180, 0.03717082738876343, 0.0037764047738164663, 0.1507761925458908, 0.011184189468622208, -0.17455895245075226, 0.06709572672843933, -0.0027125226333737373, -0.005169836338609457, 0.9982441663742065, -1.3510366678237915, -3.347395181655884, -0.021330488845705986, 0.0, 0.0, 0.0, 0, 0, 0, 0, 0, 0, -1.3510366678237915, -3.347395181655884, -0.021330488845705986
15190, 0.03608235716819763, 0.004991549998521805, 0.15028873085975647, 0.017754921689629555, 0.0018288801657035947, 0.10816746205091476, -0.0016833338886499405, -0.004853472113609314, 0.9978720545768738, -1.3532923460006714, -3.353154420852661, -0.021400323137640953, 0.0, 0.0, 0.0, 0, 0, 0, 0, 0, 0, -1.3532923460006714, -3.353154420852661, -0.021400323137640953
15200, 0.03469868004322052, 0.004111517686396837, 0.15055468678474426, 0.05201555788516998, 0.059224385768175125, -0.22101177275180817, -0.001330527476966381, -0.003909687977284193, 1.0000828504562378, -1.355549931526184, -3.3589189052581787, -0.021471893414855003, 0.0, 0.0, 0.0, 0, 0, 0, 0, 0, 0, -1.355549931526184, -3.3589189052581787, -0.021471893414855003
15210, 0.035263944417238235, 0.004053304437547922, 0.14979280531406403, -0.0852825939655304, -0.08925211429595947, 0.07108833640813828, -0.0017390319844707847, -0.0020569812040776014, 1.001125454902649, -1.357809066772461, -3.364687919616699, -0.02154405787587166, 0.0, 0.0, 0.0, 0, 0, 0, 0, 0, 0, -1.357809066772461, -3.364687919616699, -0.02154405787587166
15220, 0.034347303211688995, 0.004428652580827475, 0.14992840588092804, 0.04733671247959137, 0.004615741316229105, 0.08162254095077515, -0.0019887948874384165, -0.0020605248864740133, 1.0015569925308228, -1.360069990158081, -3.370459794998169, -0.021615400910377502, 0.0, 0.0, 0.0, 0, 0, 0, 0, 0, 0, -1.360069990158081, -3.370459794998169, -0.021615400910377502
15230, 0.034655243158340454, 0.00365132256411016, 0.1505734920501709, 0.16069218516349792, 0.14969785511493683, 0.2660723924636841, 0.0001610350445844233, -0.005251463036984205, 0.9995620846748352, -1.3623327016830444, -3.376234769821167, -0.021685320883989334, 0.0, 0.0, 0.0, 0, 0, 0, 0, 0, 0, -1.3623327016830444, -3.376234769821167, -0.021685320883989334
15240, 0.03618134930729866, 0.004512183368206024, 0.15094183385372162, -0.17497952282428741, -0.010478058829903603, -0.023379063233733177, 0.0002656710857991129, -0.004219934809952974, 0.9993937611579895, -1.3645961284637451, -3.382014513015747, -0.021754732355475426, 0.0, 0.0, 0.0, 0, 0, 0, 0, 0, 0, -1.3645961284637451, -3.382014513015747, -0.021754732355475426
15250, 0.03593425825238228, 0.005245697218924761, 0.1510043442249298, -0.0387238934636116, 0.05045067518949509, -0.03408365324139595, -0.0016547645209357142, -0.004759371280670166, 0.9986719489097595, -1.3668599128723145, -3.3877995014190674, -0.021824859082698822, 0.0, 0.0, 0.0, 0, 0, 0, 0, 0, 0, -1.3668599128723145, -3.3877995014190674, -0.021824859082698822
15260, 0.035659726709127426, 0.005575262941420078, 0.15015624463558197, 0.1754223108291626, -0.26308247447013855, 0.021154342219233513, -0.0027463531587272882, -0.004643613006919622, 0.9978749752044678, -1.3691250085830688, -3.393589735031128, -0.021896174177527428, 0.0, 0.0, 0.0, 0, 0, 0, 0, 0, 0, -1.3691250085830688, -3.393589735031128, -0.021896174177527428
15270, 0.03640567511320114, 0.005501023028045893, 0.15150123834609985, 0.17830133438110352, 0.05254298076033592, 0.2889535427093506, -0.0016506054671481252, -0.006677299737930298, 1.0002654790878296, -1.3713921308517456, -3.399385452270508, -0.021968955174088478, 0.0, 0.0, 0.0, 0, 0, 0, 0, 0, 0, -1.3713921308517456, -3.399385452270508, -0.021968955174088478
15280, 0.03772129490971565, 0.005548766814172268, 0.1513744741678238, -0.12517908215522766, 0.10637521743774414, -0.10787913203239441, -0.0025189302396029234, -0.005618025083094835, 1.0001238584518433, -1.3736613988876343, -3.4051873683929443, -0.02204231359064579, 0.0, 0.0, 0.0, 0, 0, 0, 0, 0, 0, -1.3736613988876343, -3.4051873683929443, -0.02204231359064579
