timeTick, roll, pitch, yaw, gyroX, gyroY, gyroZ, accX, accY, accZ, stateX, stateY, stateZ, target_x, target_y, target_z, otX, otY, otZ, otRoll, otPitch, otYaw, kalX, kalY, kalZ
12520, -0.0781562328338623, -0.03690620884299278, -0.007728200871497393, 0, 0, 0, 0, 0, 0, 0, 0, 0, 0, 0, 0, 0, 0, 0, 0, 0, 0, 0, 0, 0
12530, -0.07823847234249115, -0.039623916149139404, -0.006755375303328037, 0.042921338230371475, 0.09382390230894089, 0.1656418889760971, -0.0021399918477982283, -0.003721012733876705, 0.9992179274559021, -0.1942390501499176, -2.2746081352233887, -0.15195459127426147, 0.0, 0.0, 0.0, 0, 0, 0, 0, 0, 0, -0.1942390501499176, -2.2746081352233887, -0.15195459127426147
12540, -0.07673617452383041, -0.04012487828731537, -0.005381206050515175, 0.24892517924308777, -0.02913689985871315, 0.1455850601196289, -0.0018215257441625, -0.005525798536837101, 0.9976974725723267, -0.19456548988819122, -2.2792603969573975, -0.1522851586341858, 0.0, 0.0, 0.0, 0, 0, 0, 0, 0, 0, -0.19456548988819122, -2.2792603969573975, -0.1522851586341858
12550, -0.07681844383478165, -0.04103103652596474, -0.003925411496311426, 0.008268347010016441, 0.2627830505371094, 0.1181950494647026, -0.0015782183036208153, -0.0070169358514249325, 1.0000375509262085, -0.19489295780658722, -2.2839155197143555, -0.15261732041835785, 0.0, 0.0, 0.0, 0, 0, 0, 0, 0, 0, -0.19489295780658722, -2.2839155197143555, -0.15261732041835785
12560, -0.0769122987985611, -0.042916275560855865, -0.00552369374781847, -0.0628206878900528, 0.3226982355117798, -0.24599838256835938, 0.00031607551500201225, -0.0063086021691560745, 1.0011621713638306, -0.19522109627723694, -2.2885751724243164, -0.15295062959194183, 0.0, 0.0, 0.0, 0, 0, 0, 0, 0, 0, -0.19522109627723694, -2.2885751724243164, -0.15295062959194183
12570, -0.07740678638219833, -0.0426211878657341, -0.00580798601731658, 0.11072542518377304, 0.0032456570770591497, 0.09911520034074783, -0.0006621485808864236, -0.005865811835974455, 1.000479817390442, -0.19554926455020905, -2.2932400703430176, -0.15328377485275269, 0.0, 0.0, 0.0, 0, 0, 0, 0, 0, 0, -0.19554926455020905, -2.2932400703430176, -0.15328377485275269
12580, -0.07773633301258087, -0.04255412891507149, -0.0057612149976193905, -0.031101509928703308, 0.07334068417549133, -0.00507122278213501, -0.000812299083918333, -0.007581179961562157, 0.999096155166626, -0.19587679207324982, -2.297909736633301, -0.1536160409450531, 0.0, 0.0, 0.0, 0, 0, 0, 0, 0, 0, -0.19587679207324982, -2.297909736633301, -0.1536160409450531
12590, -0.0773233026266098, -0.044332582503557205, -0.004925981163978577, 0.06397903710603714, 0.44496774673461914, -0.04527436941862106, -0.0012987935915589333, -0.006705683656036854, 0.9990634322166443, -0.19620415568351746, -2.302584648132324, -0.15394805371761322, 0.0, 0.0, 0.0, 0, 0, 0, 0, 0, 0, -0.19620415568351746, -2.302584648132324, -0.15394805371761322
12600, -0.07780729234218597, -0.04198713228106499, -0.003824092447757721, -0.08811222016811371, -0.3639242947101593, -0.03234940767288208, 0.00045995201799087226, -0.00551572535187006, 1.0013903379440308, -0.1965319812297821, -2.307265281677246, -0.1542806774377823, 0.0, 0.0, 0.0, 0, 0, 0, 0, 0, 0, -0.1965319812297821, -2.307265281677246, -0.1542806774377823
12610, -0.07733539491891861, -0.04205668717622757, -0.003985190764069557, 0.08989894390106201, -0.12322644889354706, -0.032045625150203705, -0.0010005870135501027, -0.006600643042474985, 1.0019861459732056, -0.19685976207256317, -2.311950922012329, -0.1546132117509842, 0.0, 0.0, 0.0, 0, 0, 0, 0, 0, 0, -0.19685976207256317, -2.311950922012329, -0.1546132117509842
12620, -0.07781238853931427, -0.04394999146461487, -0.004484571982175112, -0.022355016320943832, 0.19698119163513184, -0.10124513506889343, -0.000568387215025723, -0.004191363696008921, 1.0014060735702515, -0.19718720018863678, -2.316641092300415, -0.15494441986083984, 0.0, 0.0, 0.0, 0, 0, 0, 0, 0, 0, -0.19718720018863678, -2.316641092300415, -0.15494441986083984
12630, -0.078187495470047, -0.04436682537198067, -0.004023308865725994, -0.0034054091665893793, 0.11555604636669159, 0.022738516330718994, -0.00030516591505147517, -0.006470823660492897, 0.9990107417106628, -0.19751480221748352, -2.3213350772857666, -0.15527412295341492, 0.0, 0.0, 0.0, 0, 0, 0, 0, 0, 0, -0.19751480221748352, -2.3213350772857666, -0.15527412295341492
12640, -0.07835625857114792, -0.042925845831632614, -0.004830802790820599, 0.07109236717224121, -0.26100805401802063, -0.17213581502437592, -0.0003724249836523086, -0.005573928356170654, 0.9996290802955627, -0.19784234464168549, -2.326033115386963, -0.15560349822044373, 0.0, 0.0, 0.0, 0, 0, 0, 0, 0, 0, -0.19784234464168549, -2.326033115386963, -0.15560349822044373
12650, -0.07897365093231201, -0.041156839579343796, -0.005058120936155319, 0.007018596865236759, -0.04812220484018326, -0.033354029059410095, -0.0015722489915788174, -0.005780851934105158, 1.0001897811889648, -0.19816961884498596, -2.330735921859741, -0.1559334397315979, 0.0, 0.0, 0.0, 0, 0, 0, 0, 0, 0, -0.19816961884498596, -2.330735921859741, -0.1559334397315979
12660, -0.07986443489789963, -0.042311228811740875, -0.0055439346469938755, -0.16521982848644257, 0.06942512094974518, -0.17855995893478394, -0.0018488942878320813, -0.006388292647898197, 1.0004462003707886, -0.19849711656570435, -2.3354432582855225, -0.15626369416713715, 0.0, 0.0, 0.0, 0, 0, 0, 0, 0, 0, -0.19849711656570435, -2.3354432582855225, -0.15626369416713715
12670, -0.08013515919446945, -0.04359623044729233, -0.004982432350516319, 0.07245589047670364, -0.007538107689470053, -0.11064218729734421, -0.00035370149998925626, -0.008608418516814709, 1.0012297630310059, -0.19882544875144958, -2.3401551246643066, -0.156593918800354, 0.0, 0.0, 0.0, 0, 0, 0, 0, 0, 0, -0.19882544875144958, -2.3401551246643066, -0.156593918800354
12680, -0.08096269518136978, -0.04419063404202461, -0.004875443875789642, -0.1195109561085701, 0.1836872398853302, 0.14709153771400452, -0.00014504110731650144, -0.005225496832281351, 1.0017365217208862, -0.19915436208248138, -2.3448727130889893, -0.15692336857318878, 0.0, 0.0, 0.0, 0, 0, 0, 0, 0, 0, -0.19915436208248138, -2.3448727130889893, -0.15692336857318878
12690, -0.08069752901792526, -0.04344606027007103, -0.005006748251616955, 0.037593986839056015, -0.0433323048055172, 0.017470117658376694, 0.001263874932192266, -0.0060388450510799885, 1.0003175735473633, -0.19948317110538483, -2.3495960235595703, -0.15725144743919373, 0.0, 0.0, 0.0, 0, 0, 0, 0, 0, 0, -0.19948317110538483, -2.3495960235595703, -0.15725144743919373
12700, -0.07985222339630127, -0.043019913136959076, -0.00485231401398778, 0.13373610377311707, 0.146742582321167, -0.017003055661916733, -0.0008673852425999939, -0.0064082397148013115, 0.998607873916626, -0.19981113076210022, -2.3543238639831543, -0.1575784534215927, 0.0, 0.0, 0.0, 0, 0, 0, 0, 0, 0, -0.19981113076210022, -2.3543238639831543, -0.1575784534215927
12710, -0.08064740151166916, -0.04362529143691063, -0.0038528400473296642, -0.09476791322231293, 0.08027729392051697, 0.3074706196784973, 0.000712057575583458, -0.005589757114648819, 0.9975772500038147, -0.20013825595378876, -2.359056234359741, -0.15790556371212006, 0.0, 0.0, 0.0, 0, 0, 0, 0, 0, 0, -0.20013825595378876, -2.359056234359741, -0.15790556371212006
12720, -0.0800936296582222, -0.04210614785552025, -0.005819505546241999, 0.07441379129886627, -0.2634734511375427, -0.2216273695230484, -0.0008052866905927658, -0.00418031495064497, 1.000156044960022, -0.20046482980251312, -2.36379337310791, -0.1582343578338623, 0.0, 0.0, 0.0, 0, 0, 0, 0, 0, 0, -0.20046482980251312, -2.36379337310791, -0.1582343578338623
12730, -0.0801781639456749, -0.04153063893318176, -0.004978012293577194, -0.06458678841590881, -0.04662865400314331, 0.10501524060964584, -0.001564039965160191, -0.006741082761436701, 1.0008476972579956, -0.2007906585931778, -2.3685343265533447, -0.1585644632577896, 0.0, 0.0, 0.0, 0, 0, 0, 0, 0, 0, -0.2007906585931778, -2.3685343265533447, -0.1585644632577896
12740, -0.08001255244016647, -0.04122335463762283, -0.004887969698756933, -0.015892887488007545, 0.06756184995174408, 0.09026321768760681, -0.0011163540184497833, -0.004600368905812502, 1.0006412267684937, -0.2011164128780365, -2.373279094696045, -0.1588945984840393, 0.0, 0.0, 0.0, 0, 0, 0, 0, 0, 0, -0.2011164128780365, -2.373279094696045, -0.1588945984840393
12750, -0.08007548004388809, -0.039642296731472015, -0.004021754022687674, -0.04086277633905411, -0.2630883753299713, 0.005198080558329821, -0.0010261150309816003, -0.0053556072525680065, 1.0010850429534912, -0.20147530734539032, -2.3785030841827393, -0.15925711393356323, 0.0, 0.0, 0.0, 0, 0, 0, 0, 0, 0, -0.20147530734539032, -2.3785030841827393, -0.15925711393356323
12760, -0.07997437566518784, -0.04071050137281418, -0.0034786153119057417, -0.09397461265325546, 0.31463390588760376, 0.11913245916366577, -0.0027070583309978247, -0.005056669935584068, 1.000998854637146, -0.20183463394641876, -2.3837318420410156, -0.15961861610412598, 0.0, 0.0, 0.0, 0, 0, 0, 0, 0, 0, -0.20183463394641876, -2.3837318420410156, -0.15961861610412598
12770, -0.08033138513565063, -0.03982549160718918, -0.005700547713786364, -0.05992277339100838, 0.08292817324399948, -0.2654845416545868, -0.001648020464926958, -0.0054713049903512, 1.0029171705245972, -0.20216231048107147, -2.388489007949829, -0.15994617342948914, 0.0, 0.0, 0.0, 0, 0, 0, 0, 0, 0, -0.20216231048107147, -2.388489007949829, -0.15994617342948914
12780, -0.07950282096862793, -0.041733745485544205, -0.00526411971077323, 0.16263151168823242, 0.1840163916349411, 0.11563385277986526, -0.001198138459585607, -0.00438293069601059, 1.001011848449707, -0.2024911493062973, -2.393249988555908, -0.1602717638015747, 0.0, 0.0, 0.0, 0, 0, 0, 0, 0, 0, -0.2024911493062973, -2.393249988555908, -0.1602717638015747
12790, -0.0790570080280304, -0.040625203400850296, -0.005848151631653309, 0.10263315588235855, -0.12470503151416779, -0.07751459628343582, -0.0011814943281933665, -0.005530618131160736, 1.0012277364730835, -0.20282061398029327, -2.3980143070220947, -0.16059543192386627, 0.0, 0.0, 0.0, 0, 0, 0, 0, 0, 0, -0.20282061398029327, -2.3980143070220947, -0.16059543192386627
12800, -0.07846119999885559, -0.04040896147489548, -0.005937593523412943, 0.024262012913823128, -0.14554676413536072, 0.010059886611998081, 0.00037819609860889614, -0.007091750856488943, 1.0017248392105103, -0.20315062999725342, -2.4027822017669678, -0.16091784834861755, 0.0, 0.0, 0.0, 0, 0, 0, 0, 0, 0, -0.20315062999725342, -2.4027822017669678, -0.16091784834861755
12810, -0.07778864353895187, -0.03876719996333122, -0.004667036235332489, 0.12917515635490417, -0.08188454806804657, 0.3801863491535187, -0.003402932081371546, -0.006588323041796684, 0.9998039603233337, -0.20348064601421356, -2.407555103302002, -0.16123895347118378, 0.0, 0.0, 0.0, 0, 0, 0, 0, 0, 0, -0.20348064601421356, -2.407555103302002, -0.16123895347118378
12820, -0.07759816199541092, -0.03794711455702782, -0.003978711552917957, 0.13627728819847107, -0.1869884878396988, -0.04219859838485718, -0.002453516935929656, -0.0039774575270712376, 0.9985854625701904, -0.20381169021129608, -2.4123334884643555, -0.16155950725078583, 0.0, 0.0, 0.0, 0, 0, 0, 0, 0, 0, -0.20381169021129608, -2.4123334884643555, -0.16155950725078583
12830, -0.076735720038414, -0.037076421082019806, -0.00431250873953104, 0.07508533447980881, 0.1581423133611679, 0.03786996752023697, -0.0013388287043198943, -0.003342750482261181, 0.9995734095573425, -0.20414504408836365, -2.4171156883239746, -0.16188077628612518, 0.0, 0.0, 0.0, 0, 0, 0, 0, 0, 0, -0.20414504408836365, -2.4171156883239746, -0.16188077628612518
12840, -0.0772174596786499, -0.03672127053141594, -0.003388094250112772, 0.10431516915559769, 0.07362444698810577, 0.13045790791511536, 0.0009295989293605089, -0.004300330765545368, 0.9995636343955994, -0.2044796496629715, -2.4219002723693848, -0.16220298409461975, 0.0, 0.0, 0.0, 0, 0, 0, 0, 0, 0, -0.2044796496629715, -2.4219002723693848, -0.16220298409461975
12850, -0.07846390455961227, -0.03768017515540123, -0.004128106404095888, -0.2262454628944397, 0.10522958636283875, -0.10193070769309998, 0.00045759891509078443, -0.005405000410974026, 1.0003029108047485, -0.2048138529062271, -2.426687479019165, -0.16252565383911133, 0.0, 0.0, 0.0, 0, 0, 0, 0, 0, 0, -0.2048138529062271, -2.426687479019165, -0.16252565383911133
12860, -0.07892771065235138, -0.03590397164225578, -0.003940393216907978, 0.06579325348138809, -0.377582311630249, -0.1028602346777916, 0.0002509390760678798, -0.00818293634802103, 0.9995672702789307, -0.2051469087600708, -2.431478261947632, -0.16284851729869843, 0.0, 0.0, 0.0, 0, 0, 0, 0, 0, 0, -0.2051469087600708, -2.431478261947632, -0.16284851729869843
12870, -0.07813049852848053, -0.035886071622371674, -0.0041515459306538105, 0.08466820418834686, 0.25901734828948975, 0.050908856093883514, -0.0021116917487233877, -0.008525156415998936, 0.9977585077285767, -0.20547904074192047, -2.436274290084839, -0.1631718873977661, 0.0, 0.0, 0.0, 0, 0, 0, 0, 0, 0, -0.20547904074192047, -2.436274290084839, -0.1631718873977661
12880, -0.07921335101127625, -0.036243218928575516, -0.0041342126205563545, -0.2909398674964905, 0.160134956240654, 0.025626888498663902, -0.002111290115863085, -0.006848020013421774, 0.999636709690094, -0.20581145584583282, -2.4410769939422607, -0.16349686682224274, 0.0, 0.0, 0.0, 0, 0, 0, 0, 0, 0, -0.20581145584583282, -2.4410769939422607, -0.16349686682224274
12890, -0.07850238680839539, -0.03544703871011734, -0.0046744742430746555, 0.04598110541701317, -0.040863774716854095, 0.004646969959139824, -0.0024214384611696005, -0.005200798623263836, 0.9989942312240601, -0.206145241856575, -2.4458858966827393, -0.16382326185703278, 0.0, 0.0, 0.0, 0, 0, 0, 0, 0, 0, -0.206145241856575, -2.4458858966827393, -0.16382326185703278
12900, -0.07865728437900543, -0.03455446660518646, -0.003989305347204208, -0.02591485157608986, -0.19715666770935059, 0.0790419727563858, -0.001976577565073967, -0.004563846625387669, 0.9999816417694092, -0.20648057758808136, -2.4506993293762207, -0.164150208234787, 0.0, 0.0, 0.0, 0, 0, 0, 0, 0, 0, -0.20648057758808136, -2.4506993293762207, -0.164150208234787
12910, -0.07936260849237442, -0.03492681309580803, -0.0045349691063165665, -0.19169826805591583, 0.13607925176620483, -2.0789675545529462e-05, -0.00020576965471263975, -0.006667844019830227, 0.999809980392456, -0.2068174034357071, -2.4555163383483887, -0.16447745263576508, 0.0, 0.0, 0.0, 0, 0, 0, 0, 0, 0, -0.2068174034357071, -2.4555163383483887, -0.16447745263576508
12920, -0.07972823083400726, -0.037277769297361374, -0.005025367718189955, -0.06967836618423462, 0.1607305258512497, 0.09320767223834991, 1.1368351806595456e-05, -0.008007177151739597, 1.0004632472991943, -0.20715469121932983, -2.4603378772735596, -0.1648048311471939, 0.0, 0.0, 0.0, 0, 0, 0, 0, 0, 0, -0.20715469121932983, -2.4603378772735596, -0.1648048311471939
12930, -0.08115644007921219, -0.038340725004673004, -0.005145128816366196, -0.1620911806821823, -0.02311243675649166, 0.04143655300140381, -0.0005257558077573776, -0.005510835908353329, 0.9987983107566833, -0.20749153196811676, -2.465165376663208, -0.16513226926326752, 0.0, 0.0, 0.0, 0, 0, 0, 0, 0, 0, -0.20749153196811676, -2.465165376663208, -0.16513226926326752
12940, -0.08175487071275711, -0.03695313632488251, -0.006182688754051924, -0.021012241020798683, -0.21758168935775757, -0.23651902377605438, -0.0012973466655239463, -0.007298784330487251, 0.9995213747024536, -0.2078281044960022, -2.4699981212615967, -0.1654602289199829, 0.0, 0.0, 0.0, 0, 0, 0, 0, 0, 0, -0.2078281044960022, -2.4699981212615967, -0.1654602289199829
12950, -0.08172527700662613, -0.03880014643073082, -0.006616003345698118, -0.060883477330207825, 0.24830414354801178, -0.06170453503727913, -0.0009994759457185864, -0.005978261586278677, 1.0005556344985962, -0.20816485583782196, -2.4748356342315674, -0.16578899323940277, 0.0, 0.0, 0.0, 0, 0, 0, 0, 0, 0, -0.20816485583782196, -2.4748356342315674, -0.16578899323940277
12960, -0.08178409188985825, -0.034404244273900986, -0.007226603105664253, -0.02560817450284958, -0.5917870998382568, -0.13677549362182617, -0.0006672471645288169, -0.003604724071919918, 1.0006788969039917, -0.20850197970867157, -2.47967791557312, -0.1661178022623062, 0.0, 0.0, 0.0, 0, 0, 0, 0, 0, 0, -0.20850197970867157, -2.47967791557312, -0.1661178022623062
12970, -0.08052519708871841, -0.03559672459959984, -0.007930559106171131, 0.1588156372308731, 0.1780880093574524, -0.040424514561891556, -0.0006328657036647201, -0.004202187992632389, 1.0011115074157715, -0.20883914828300476, -2.484523296356201, -0.16644597053527832, 0.0, 0.0, 0.0, 0, 0, 0, 0, 0, 0, -0.20883914828300476, -2.484523296356201, -0.16644597053527832
12980, -0.08208960294723511, -0.03207416087388992, -0.008523172698915005, -0.3827454149723053, -0.3484364449977875, -0.1994793713092804, -0.0019656987860798836, -0.007693324238061905, 0.99937504529953, -0.20917633175849915, -2.4893715381622314, -0.1667732298374176, 0.0, 0.0, 0.0, 0, 0, 0, 0, 0, 0, -0.20917633175849915, -2.4893715381622314, -0.1667732298374176
12990, -0.08198460191488266, -0.03282035142183304, -0.008300947025418282, -0.09634320437908173, 0.19248726963996887, 0.07237930595874786, -5.5342101404676214e-05, -0.006858448497951031, 0.9984307289123535, -0.20951418578624725, -2.4942243099212646, -0.16710029542446136, 0.0, 0.0, 0.0, 0, 0, 0, 0, 0, 0, -0.20951418578624725, -2.4942243099212646, -0.16710029542446136
13000, -0.08207940310239792, -0.03350004926323891, -0.010179053992033005, 0.043790560215711594, -0.003215826814994216, -0.2612409293651581, -0.0021363655105233192, -0.005709678865969181, 0.9996694326400757, -0.20985248684883118, -2.499082565307617, -0.16742819547653198, 0.0, 0.0, 0.0, 0, 0, 0, 0, 0, 0, -0.20985248684883118, -2.499082565307617, -0.16742819547653198
13010, -0.08219115436077118, -0.033938515931367874, -0.010089353658258915, 0.05377752706408501, -0.09678123891353607, 0.0329069159924984, -0.0016726682661101222, -0.006019767839461565, 1.0022430419921875, -0.21019135415554047, -2.5039455890655518, -0.16775675117969513, 0.0, 0.0, 0.0, 0, 0, 0, 0, 0, 0, -0.21019135415554047, -2.5039455890655518, -0.16775675117969513
13020, -0.08255093544721603, -0.03432074561715126, -0.010355038568377495, -0.012465684674680233, 0.13210821151733398, 0.02751109190285206, -0.0016884782817214727, -0.005322097335010767, 1.0007169246673584, -0.21053139865398407, -2.50881290435791, -0.16808442771434784, 0.0, 0.0, 0.0, 0, 0, 0, 0, 0, 0, -0.21053139865398407, -2.50881290435791, -0.16808442771434784
13030, -0.08222348988056183, -0.03342682123184204, -0.01090125273913145, -0.026078106835484505, -0.04546352103352547, -0.02628389373421669, -0.00222088024020195, -0.005671277642250061, 0.9999234080314636, -0.210872620344162, -2.5136842727661133, -0.1684107631444931, 0.0, 0.0, 0.0, 0, 0, 0, 0, 0, 0, -0.210872620344162, -2.5136842727661133, -0.1684107631444931
13040, -0.08365986496210098, -0.035226862877607346, -0.010732694528996944, -0.22584863007068634, 0.25629985332489014, -0.22281505167484283, -0.0002744155062828213, -0.003435075283050537, 1.0003732442855835, -0.21121519804000854, -2.518559455871582, -0.16873669624328613, 0.0, 0.0, 0.0, 0, 0, 0, 0, 0, 0, -0.21121519804000854, -2.518559455871582, -0.16873669624328613
13050, -0.08309848606586456, -0.03588269278407097, -0.010084080509841442, -1.0231217856926378e-05, -0.09687202423810959, -0.06442399322986603, -0.0009000045829452574, -0.004915900062769651, 0.9999392032623291, -0.21155838668346405, -2.523437976837158, -0.16906240582466125, 0.0, 0.0, 0.0, 0, 0, 0, 0, 0, 0, -0.21155838668346405, -2.523437976837158, -0.16906240582466125
13060, -0.08255530893802643, -0.03635266423225403, -0.009212421253323555, 0.18203726410865784, 0.010561622679233551, 0.14178726077079773, -0.0020280475728213787, -0.009237153455615044, 0.9981787204742432, -0.21190162003040314, -2.5283195972442627, -0.16938810050487518, 0.0, 0.0, 0.0, 0, 0, 0, 0, 0, 0, -0.21190162003040314, -2.5283195972442627, -0.16938810050487518
13070, -0.08247409015893936, -0.034624289721250534, -0.00941372662782669, 0.02393246628344059, -0.1248985081911087, -0.1740795373916626, -0.0010879309847950935, -0.006998701486736536, 1.0006340742111206, -0.21224558353424072, -2.5332067012786865, -0.16971455514431, 0.0, 0.0, 0.0, 0, 0, 0, 0, 0, 0, -0.21224558353424072, -2.5332067012786865, -0.16971455514431
13080, -0.08269722759723663, -0.03363354876637459, -0.008145871572196484, -0.05591363459825516, -0.11104179173707962, 0.19277699291706085, -0.002399957040324807, -0.005552766844630241, 0.998670220375061, -0.21259059011936188, -2.538100004196167, -0.17004148662090302, 0.0, 0.0, 0.0, 0, 0, 0, 0, 0, 0, -0.21259059011936188, -2.538100004196167, -0.17004148662090302
13090, -0.08300108462572098, -0.03355250880122185, -0.00820085871964693, -0.10589780658483505, 0.0907583013176918, -0.0042247409000992775, -0.0011232674587517977, -0.0026860330253839493, 1.0006791353225708, -0.21293692290782928, -2.5429980754852295, -0.17036879062652588, 0.0, 0.0, 0.0, 0, 0, 0, 0, 0, 0, -0.21293692290782928, -2.5429980754852295, -0.17036879062652588
13100, -0.08434796333312988, -0.034943293780088425, -0.008096102625131607, -0.1918575018644333, 0.10589507967233658, -0.022205498069524765, 0.0009586522355675697, -0.005664899479597807, 0.9998577237129211, -0.21328426897525787, -2.547898769378662, -0.17069636285305023, 0.0, 0.0, 0.0, 0, 0, 0, 0, 0, 0, -0.21328426897525787, -2.547898769378662, -0.17069636285305023
13110, -0.08411585539579391, -0.033805832266807556, -0.007100211456418037, 0.05822589993476868, -0.024794742465019226, 0.2850302755832672, 0.001092473859898746, -0.007944715209305286, 0.9981906414031982, -0.2136310338973999, -2.552802562713623, -0.17102378606796265, 0.0, 0.0, 0.0, 0, 0, 0, 0, 0, 0, -0.2136310338973999, -2.552802562713623, -0.17102378606796265
13120, -0.08422525227069855, -0.033945679664611816, -0.008099392056465149, 0.04394933208823204, 0.3140721321105957, -0.11718098819255829, -0.002064975444227457, -0.006486667785793543, 1.0006394386291504, -0.21397630870342255, -2.557711601257324, -0.17135190963745117, 0.0, 0.0, 0.0, 0, 0, 0, 0, 0, 0, -0.21397630870342255, -2.557711601257324, -0.17135190963745117
13130, -0.08496544510126114, -0.03418062627315521, -0.007539576385170221, -0.18319284915924072, -0.05611821636557579, 0.12023040652275085, -0.0014527708990499377, -0.005905613303184509, 0.9978020191192627, -0.21432127058506012, -2.5626261234283447, -0.1716805398464203, 0.0, 0.0, 0.0, 0, 0, 0, 0, 0, 0, -0.21432127058506012, -2.5626261234283447, -0.1716805398464203
13140, -0.08480491489171982, -0.034168317914009094, -0.007860627956688404, 0.06145384535193443, -0.11674655973911285, -0.058484047651290894, -0.0011303229257464409, -0.005906668491661549, 0.9989493489265442, -0.2146671563386917, -2.567545175552368, -0.1720101237297058, 0.0, 0.0, 0.0, 0, 0, 0, 0, 0, 0, -0.2146671563386917, -2.567545175552368, -0.1720101237297058
13150, -0.08465757966041565, -0.03595674782991409, -0.007980061694979668, -0.048875946551561356, 0.20881590247154236, 0.13921847939491272, 0.0006222656229510903, -0.0038129438180476427, 1.0027896165847778, -0.21501371264457703, -2.5724682807922363, -0.17234139144420624, 0.0, 0.0, 0.0, 0, 0, 0, 0, 0, 0, -0.21501371264457703, -2.5724682807922363, -0.17234139144420624
13160, -0.08455978333950043, -0.03526991978287697, -0.00835498608648777, -0.07506659626960754, -0.037276316434144974, 0.02930494397878647, 0.0004910050774924457, -0.00406642584130168, 0.9995534420013428, -0.21535994112491608, -2.577394485473633, -0.172672301530838, 0.0, 0.0, 0.0, 0, 0, 0, 0, 0, 0, -0.21535994112491608, -2.577394485473633, -0.172672301530838
13170, -0.08365845680236816, -0.03558222949504852, -0.009090320207178593, 0.02391223795711994, 0.11809883266687393, -0.0011504031717777252, 0.00037827398045919836, -0.0038513182662427425, 0.9981387853622437, -0.21570515632629395, -2.5823230743408203, -0.1730024218559265, 0.0, 0.0, 0.0, 0, 0, 0, 0, 0, 0, -0.21570515632629395, -2.5823230743408203, -0.1730024218559265
13180, -0.08384090662002563, -0.036230988800525665, -0.009139234200119972, -0.10717587918043137, 0.2249152809381485, 0.10386984050273895, 0.0009333780035376549, -0.004382518120110035, 1.000808596611023, -0.21604950726032257, -2.587254047393799, -0.17333351075649261, 0.0, 0.0, 0.0, 0, 0, 0, 0, 0, 0, -0.21604950726032257, -2.587254047393799, -0.17333351075649261
13190, -0.08443406224250793, -0.03564651682972908, -0.009581650607287884, -0.12912292778491974, -0.034350186586380005, -0.13082776963710785, 3.015064066858031e-05, -0.0053619337268173695, 1.0010443925857544, -0.21639268100261688, -2.5921874046325684, -0.17366504669189453, 0.0, 0.0, 0.0, 0, 0, 0, 0, 0, 0, -0.21639268100261688, -2.5921874046325684, -0.17366504669189453
13200, -0.08482346683740616, -0.03861169517040253, -0.009917279705405235, -0.03369995579123497, 0.2525637447834015, 0.0064319223165512085, -0.0007522222003899515, -0.006492605432868004, 0.9998051524162292, -0.21673473715782166, -2.597123861312866, -0.17399586737155914, 0.0, 0.0, 0.0, 0, 0, 0, 0, 0, 0, -0.21673473715782166, -2.597123861312866, -0.17399586737155914
13210, -0.08529608696699142, -0.03876102715730667, -0.010142700746655464, -0.06998557597398758, -0.005422954447567463, 0.07270485907793045, -0.0011973578948527575, -0.0065618823282420635, 0.999725878238678, -0.21707651019096375, -2.602064609527588, -0.1743263155221939, 0.0, 0.0, 0.0, 0, 0, 0, 0, 0, 0, -0.21707651019096375, -2.602064609527588, -0.1743263155221939
13220, -0.085633784532547, -0.03876124694943428, -0.009921072982251644, -0.19486458599567413, -0.1004977747797966, 0.01572505384683609, -0.0029309417586773634, -0.006070982664823532, 0.9984002709388733, -0.21741873025894165, -2.6070103645324707, -0.1746569573879242, 0.0, 0.0, 0.0, 0, 0, 0, 0, 0, 0, -0.21741873025894165, -2.6070103645324707, -0.1746569573879242
13230, -0.0845331996679306, -0.038841184228658676, -0.008263209834694862, 0.0630442351102829, 0.00396794592961669, 0.08369998633861542, -0.0010581965325400233, -0.006961083970963955, 0.998088538646698, -0.21776220202445984, -2.6119611263275146, -0.17498864233493805, 0.0, 0.0, 0.0, 0, 0, 0, 0, 0, 0, -0.21776220202445984, -2.6119611263275146, -0.17498864233493805
13240, -0.08426617085933685, -0.039392706006765366, -0.008010612800717354, 0.08783318847417831, 0.12661957740783691, -0.05854515731334686, 0.00020720760221593082, -0.008525448851287365, 0.9990483522415161, -0.2181067019701004, -2.6169168949127197, -0.17532199621200562, 0.0, 0.0, 0.0, 0, 0, 0, 0, 0, 0, -0.2181067019701004, -2.6169168949127197, -0.17532199621200562
13250, -0.08380663394927979, -0.03807559981942177, -0.009527950547635555, 0.07761020213365555, -0.2475203424692154, -0.10339698940515518, -0.00017666452913545072, -0.007196453399956226, 0.9979795217514038, -0.2184509038925171, -2.6218786239624023, -0.17565658688545227, 0.0, 0.0, 0.0, 0, 0, 0, 0, 0, 0, -0.2184509038925171, -2.6218786239624023, -0.17565658688545227
13260, -0.08369825035333633, -0.03854804113507271, -0.0087848836556077, 0.04215908795595169, 0.0914386585354805, 0.16688933968544006, -0.0011874260380864143, -0.007644775789231062, 0.9981561303138733, -0.21879445016384125, -2.6268463134765625, -0.17599253356456757, 0.0, 0.0, 0.0, 0, 0, 0, 0, 0, 0, -0.21879445016384125, -2.6268463134765625, -0.17599253356456757
13270, -0.08384895324707031, -0.0384666845202446, -0.0084800124168396, 0.002653634874150157, 0.02734830230474472, 0.14084109663963318, -0.0024577102158218622, -0.006662281230092049, 0.9981420040130615, -0.21913808584213257, -2.631819725036621, -0.17633022367954254, 0.0, 0.0, 0.0, 0, 0, 0, 0, 0, 0, -0.21913808584213257, -2.631819725036621, -0.17633022367954254
13280, -0.0843939259648323, -0.036990515887737274, -0.010406841523945332, -0.21163147687911987, -0.13757729530334473, -0.27604004740715027, -0.0010571145685389638, -0.005435046274214983, 0.9990976452827454, -0.21948277950286865, -2.63679838180542, -0.17666958272457123, 0.0, 0.0, 0.0, 0, 0, 0, 0, 0, 0, -0.21948277950286865, -2.63679838180542, -0.17666958272457123
13290, -0.08481541275978088, -0.03676434978842735, -0.012178028002381325, -0.003855200484395027, -0.03181125223636627, -0.23151619732379913, -0.00043201231164857745, -0.005338430870324373, 0.9976541996002197, -0.21982823312282562, -2.6417815685272217, -0.17701032757759094, 0.0, 0.0, 0.0, 0, 0, 0, 0, 0, 0, -0.21982823312282562, -2.6417815685272217, -0.17701032757759094
13300, -0.08510273694992065, -0.037415165454149246, -0.012255935929715633, -0.19955402612686157, 0.06340088695287704, -0.006696195341646671, -0.001230650581419468, -0.00676193181425333, 0.9989567399024963, -0.22017362713813782, -2.64676833152771, -0.17735271155834198, 0.0, 0.0, 0.0, 0, 0, 0, 0, 0, 0, -0.22017362713813782, -2.64676833152771, -0.17735271155834198
13310, -0.08519311249256134, -0.038969576358795166, -0.010971758514642715, -0.03988729044795036, 0.22460751235485077, 0.17250333726406097, -0.00022143985552247614, -0.009547918103635311, 0.9991269111633301, -0.2205190658569336, -2.651759624481201, -0.17769664525985718, 0.0, 0.0, 0.0, 0, 0, 0, 0, 0, 0, -0.2205190658569336, -2.651759624481201, -0.17769664525985718
13320, -0.08481734246015549, -0.03704836219549179, -0.012517920695245266, 0.09616046398878098, -0.2250639647245407, -0.2900658845901489, 0.0023314645513892174, -0.00613519549369812, 1.000367283821106, -0.2208641916513443, -2.656757116317749, -0.17804135382175446, 0.0, 0.0, 0.0, 0, 0, 0, 0, 0, 0, -0.2208641916513443, -2.656757116317749, -0.17804135382175446
13330, -0.08503257483243942, -0.035048775374889374, -0.01375918835401535, -0.1662280559539795, -0.33712896704673767, -0.11384069919586182, 0.0009969033999368548, -0.005111606325954199, 0.9983820915222168, -0.22120743989944458, -2.6617608070373535, -0.17838631570339203, 0.0, 0.0, 0.0, 0, 0, 0, 0, 0, 0, -0.22120743989944458, -2.6617608070373535, -0.17838631570339203
13340, -0.08535951375961304, -0.03558028116822243, -0.013332515023648739, 0.018733195960521698, 0.08681441098451614, 0.09695327281951904, -0.0001286533661186695, -0.004475460387766361, 0.9989188313484192, -0.22154851257801056, -2.6667685508728027, -0.17873196303844452, 0.0, 0.0, 0.0, 0, 0, 0, 0, 0, 0, -0.22154851257801056, -2.6667685508728027, -0.17873196303844452
13350, -0.08556314557790756, -0.03567808121442795, -0.013821134343743324, -0.02552773617208004, -0.010058915242552757, -0.037350866943597794, 0.001577698509208858, -0.002030628966167569, 1.0004738569259644, -0.22188857197761536, -2.6717793941497803, -0.17907890677452087, 0.0, 0.0, 0.0, 0, 0, 0, 0, 0, 0, -0.22188857197761536, -2.6717793941497803, -0.17907890677452087
13360, -0.08588918298482895, -0.03682271018624306, -0.012713010422885418, 0.0399889275431633, 0.20839086174964905, 0.2546193599700928, -0.0018781417747959495, -0.005018407944589853, 1.0006344318389893, -0.22222751379013062, -2.6767921447753906, -0.1794261485338211, 0.0, 0.0, 0.0, 0, 0, 0, 0, 0, 0, -0.22222751379013062, -2.6767921447753906, -0.1794261485338211
13370, -0.08710251748561859, -0.036285292357206345, -0.013549044728279114, -0.1388726383447647, 0.0497223436832428, -0.1421976089477539, -0.0012067328207194805, -0.008101467974483967, 0.99885094165802, -0.2225661277770996, -2.681807041168213, -0.17977288365364075, 0.0, 0.0, 0.0, 0, 0, 0, 0, 0, 0, -0.2225661277770996, -2.681807041168213, -0.17977288365364075
13380, -0.0874398872256279, -0.03634466230869293, -0.012527450919151306, -0.0802033543586731, 0.10481064021587372, 0.28049129247665405, -0.001395437982864678, -0.006833290681242943, 0.9990199208259583, -0.22290556132793427, -2.6868269443511963, -0.18011993169784546, 0.0, 0.0, 0.0, 0, 0, 0, 0, 0, 0, -0.22290556132793427, -2.6868269443511963, -0.18011993169784546
13390, -0.08827369660139084, -0.034856248646974564, -0.011866675689816475, -0.11115019768476486, 0.10370012372732162, 0.05551457405090332, -0.002554898615926504, -0.006452386267483234, 1.000776767730713, -0.22324568033218384, -2.691852569580078, -0.18046797811985016, 0.0, 0.0, 0.0, 0, 0, 0, 0, 0, 0, -0.22324568033218384, -2.691852569580078, -0.18046797811985016
13400, -0.08855702728033066, -0.03335317224264145, -0.01296488381922245, -0.14336645603179932, -0.23951472342014313, -0.14742152392864227, -0.0017884633271023631, -0.00602385587990284, 1.0024367570877075, -0.22358690202236176, -2.696883201599121, -0.1808159500360489, 0.0, 0.0, 0.0, 0, 0, 0, 0, 0, 0, -0.22358690202236176, -2.696883201599121, -0.1808159500360489
13410, -0.0887729674577713, -0.033088430762290955, -0.011349826119840145, -0.058356672525405884, 0.02740304544568062, 0.2613815367221832, 0.00010748598288046196, -0.006818301044404507, 1.0006848573684692, -0.2239292711019516, -2.701918601989746, -0.18116234242916107, 0.0, 0.0, 0.0, 0, 0, 0, 0, 0, 0, -0.2239292711019516, -2.701918601989746, -0.18116234242916107
13420, -0.08880914747714996, -0.033100735396146774, -0.010370686650276184, -0.18346482515335083, 0.15959104895591736, 0.11853262037038803, 0.0022653648629784584, -0.0055779884569346905, 0.9997566938400269, -0.22427155077457428, -2.706958532333374, -0.18150730431079865, 0.0, 0.0, 0.0, 0, 0, 0, 0, 0, 0, -0.22427155077457428, -2.706958532333374, -0.18150730431079865
13430, -0.08858839422464371, -0.03322126716375351, -0.009729183278977871, -0.15834476053714752, 0.23567025363445282, 0.13076835870742798, -0.001591705484315753, -0.005291902460157871, 0.999247133731842, -0.22461223602294922, -2.712002992630005, -0.18185216188430786, 0.0, 0.0, 0.0, 0, 0, 0, 0, 0, 0, -0.22461223602294922, -2.712002992630005, -0.18185216188430786
13440, -0.08735791593790054, -0.03365723416209221, -0.009422390721738338, 0.1640206277370453, 0.1749366670846939, 0.09460397064685822, -0.00105759606231004, -0.00822982843965292, 0.9996888637542725, -0.22495220601558685, -2.7170515060424805, -0.18219764530658722, 0.0, 0.0, 0.0, 0, 0, 0, 0, 0, 0, -0.22495220601558685, -2.7170515060424805, -0.18219764530658722
13450, -0.08842425048351288, -0.032529011368751526, -0.010362302884459496, -0.15486837923526764, -0.2775595188140869, -0.04724409803748131, -0.000450598745374009, -0.007329973857849836, 1.0003489255905151, -0.22529271245002747, -2.7221052646636963, -0.18254363536834717, 0.0, 0.0, 0.0, 0, 0, 0, 0, 0, 0, -0.22529271245002747, -2.7221052646636963, -0.18254363536834717
13460, -0.0901118740439415, -0.034089572727680206, -0.009023820981383324, -0.2734973728656769, 0.13633936643600464, 0.056496478617191315, -0.0027252405416220427, -0.00714099919423461, 0.9981586933135986, -0.22563335299491882, -2.7271649837493896, -0.18288983404636383, 0.0, 0.0, 0.0, 0, 0, 0, 0, 0, 0, -0.22563335299491882, -2.7271649837493896, -0.18288983404636383
13470, -0.08990513533353806, -0.03558376431465149, -0.00943063199520111, -0.08146967738866806, 0.07937612384557724, -0.20230339467525482, -0.00035747134825214744, -0.005927255842834711, 1.0001951456069946, -0.22597484290599823, -2.7322301864624023, -0.183236762881279, 0.0, 0.0, 0.0, 0, 0, 0, 0, 0, 0, -0.22597484290599823, -2.7322301864624023, -0.183236762881279
13480, -0.09020119160413742, -0.035947687923908234, -0.009404899552464485, -0.04543111473321915, 0.15211065113544464, 0.032035574316978455, -0.00010663155990187079, -0.003373470390215516, 1.0006093978881836, -0.22631710767745972, -2.737299919128418, -0.18358436226844788, 0.0, 0.0, 0.0, 0, 0, 0, 0, 0, 0, -0.22631710767745972, -2.737299919128418, -0.18358436226844788
13490, -0.08997364342212677, -0.03379575163125992, -0.009372280910611153, -0.007115973625332117, -0.2563948333263397, -0.0011276574805378914, -0.0011263428023084998, -0.007152413949370384, 1.0010944604873657, -0.22665910422801971, -2.742372751235962, -0.18393166363239288, 0.0, 0.0, 0.0, 0, 0, 0, 0, 0, 0, -0.22665910422801971, -2.742372751235962, -0.18393166363239288
13500, -0.08978908509016037, -0.03436411917209625, -0.009414803236722946, 0.009738979861140251, -0.03757930174469948, -0.022606631740927696, -0.0024430870544165373, -0.004624449647963047, 1.0026792287826538, -0.2270011305809021, -2.7474489212036133, -0.1842779666185379, 0.0, 0.0, 0.0, 0, 0, 0, 0, 0, 0, -0.2270011305809021, -2.7474489212036133, -0.1842779666185379
13510, -0.08933398127555847, -0.032282162457704544, -0.00851564109325409, 0.060096073895692825, -0.24777445197105408, 0.0819450318813324, -0.002005101880058646, -0.005426432006061077, 1.0001583099365234, -0.2273443192243576, -2.7525291442871094, -0.18462245166301727, 0.0, 0.0, 0.0, 0, 0, 0, 0, 0, 0, -0.2273443192243576, -2.7525291442871094, -0.18462245166301727
13520, -0.0885615274310112, -0.033295609056949615, -0.007964219897985458, 0.1583540290594101, 0.14416740834712982, 0.10500089824199677, -0.0006363355787470937, -0.005571009125560522, 1.0021584033966064, -0.22768919169902802, -2.757612705230713, -0.1849656105041504, 0.0, 0.0, 0.0, 0, 0, 0, 0, 0, 0, -0.22768919169902802, -2.757612705230713, -0.1849656105041504
13530, -0.08904275298118591, -0.03428887575864792, -0.006757266819477081, -0.14496523141860962, 0.16744935512542725, 0.1788758486509323, -0.00196579797193408, -0.005458151455968618, 1.0002508163452148, -0.22803500294685364, -2.762700319290161, -0.1853076070547104, 0.0, 0.0, 0.0, 0, 0, 0, 0, 0, 0, -0.22803500294685364, -2.762700319290161, -0.1853076070547104
13540, -0.08844999969005585, -0.03469172120094299, -0.006744018290191889, 0.13251346349716187, 0.16044378280639648, -0.11194437742233276, -0.001180417719297111, -0.00605413131415844, 0.9996913075447083, -0.22838155925273895, -2.767791748046875, -0.1856486052274704, 0.0, 0.0, 0.0, 0, 0, 0, 0, 0, 0, -0.22838155925273895, -2.767791748046875, -0.1856486052274704
13550, -0.08816767483949661, -0.0348391979932785, -0.007086714264005423, -0.0010361666791141033, 0.021684955805540085, -0.07290858775377274, 0.00018393139180261642, -0.006082047708332539, 1.0017610788345337, -0.2287289947271347, -2.7728869915008545, -0.18598976731300354, 0.0, 0.0, 0.0, 0, 0, 0, 0, 0, 0, -0.2287289947271347, -2.7728869915008545, -0.18598976731300354
13560, -0.0888616070151329, -0.035723309963941574, -0.007463559508323669, -0.16004912555217743, -0.01589144580066204, 0.05434730648994446, 0.0012233755551278591, -0.004711334593594074, 1.0006259679794312, -0.22907654941082, -2.777987003326416, -0.18633051216602325, 0.0, 0.0, 0.0, 0, 0, 0, 0, 0, 0, -0.22907654941082, -2.777987003326416, -0.18633051216602325
13570, -0.08915801346302032, -0.03810644522309303, -0.006464495789259672, -0.15222705900669098, 0.34249740839004517, 0.17821986973285675, 0.00021441778517328203, -0.0035734823904931545, 1.000377893447876, -0.22942303121089935, -2.783090829849243, -0.18667007982730865, 0.0, 0.0, 0.0, 0, 0, 0, 0, 0, 0, -0.22942303121089935, -2.783090829849243, -0.18667007982730865
13580, -0.08979379385709763, -0.0373864509165287, -0.006759099196642637, -0.05860036984086037, -0.24562498927116394, 0.08097739517688751, -0.0024031130596995354, -0.005729200784116983, 0.9976567029953003, -0.22976811230182648, -2.7881972789764404, -0.1870090812444687, 0.0, 0.0, 0.0, 0, 0, 0, 0, 0, 0, -0.22976811230182648, -2.7881972789764404, -0.1870090812444687
13590, -0.08967198431491852, -0.03671606630086899, -0.0075535899959504604, 0.1106826588511467, -0.057179179042577744, 0.07061298936605453, -0.0017755177104845643, -0.005283400882035494, 0.9962422847747803, -0.2301134318113327, -2.793306589126587, -0.18734917044639587, 0.0, 0.0, 0.0, 0, 0, 0, 0, 0, 0, -0.2301134318113327, -2.793306589126587, -0.18734917044639587
13600, -0.08886145055294037, -0.03952677175402641, -0.006228472106158733, 0.09220635145902634, 0.22666524350643158, 0.12144742161035538, -0.0004186577571090311, -0.0054512619972229, 0.9987825155258179, -0.230460062623024, -2.79841947555542, -0.18769200146198273, 0.0, 0.0, 0.0, 0, 0, 0, 0, 0, 0, -0.230460062623024, -2.79841947555542, -0.18769200146198273
13610, -0.08772560954093933, -0.041749559342861176, -0.0063355350866913795, 0.1896715760231018, 0.21972918510437012, -0.056467559188604355, -0.0003230137808714062, -0.007244462613016367, 0.9974474310874939, -0.23080720007419586, -2.8035361766815186, -0.1880372017621994, 0.0, 0.0, 0.0, 0, 0, 0, 0, 0, 0, -0.23080720007419586, -2.8035361766815186, -0.1880372017621994
13620, -0.0883498266339302, -0.04223266616463661, -0.006711900699883699, -0.041283898055553436, 0.030341986566781998, -0.004300238564610481, -0.0008222369360737503, -0.004733389243483543, 0.9999657869338989, -0.23115421831607819, -2.808657646179199, -0.1883843094110489, 0.0, 0.0, 0.0, 0, 0, 0, 0, 0, 0, -0.23115421831607819, -2.808657646179199, -0.1883843094110489
13630, -0.0887654647231102, -0.04347585141658783, -0.006365746259689331, -0.0752984806895256, 0.35168835520744324, 0.029100405052304268, -0.002273175399750471, -0.004803050309419632, 1.0002707242965698, -0.23150129616260529, -2.8137834072113037, -0.18873268365859985, 0.0, 0.0, 0.0, 0, 0, 0, 0, 0, 0, -0.23150129616260529, -2.8137834072113037, -0.18873268365859985
13640, -0.08947156369686127, -0.04344408959150314, -0.007713704369962215, -0.06785476952791214, 0.020137973129749298, -0.08355212211608887, -0.0007300600409507751, -0.005866406951099634, 1.0001602172851562, -0.23184919357299805, -2.8189125061035156, -0.18908096849918365, 0.0, 0.0, 0.0, 0, 0, 0, 0, 0, 0, -0.23184919357299805, -2.8189125061035156, -0.18908096849918365
13650, -0.09049361199140549, -0.04134676232933998, -0.00754890963435173, -0.05155598744750023, -0.3570627272129059, 0.2360570728778839, 0.0008202767930924892, -0.0063429931178689, 1.0037775039672852, -0.23219768702983856, -2.824045419692993, -0.18942871689796448, 0.0, 0.0, 0.0, 0, 0, 0, 0, 0, 0, -0.23219768702983856, -2.824045419692993, -0.18942871689796448
13660, -0.09036431461572647, -0.03970681130886078, -0.007175638806074858, -0.0366944782435894, -0.260555624961853, 0.09606039524078369, -0.000997711904346943, -0.006676204968243837, 0.9982592463493347, -0.23254550993442535, -2.8291828632354736, -0.18977482616901398, 0.0, 0.0, 0.0, 0, 0, 0, 0, 0, 0, -0.23254550993442535, -2.8291828632354736, -0.18977482616901398
13670, -0.08982393890619278, -0.03847498819231987, -0.008381709456443787, 0.03408438712358475, -0.18307964503765106, -0.12189895659685135, -0.0016764865722507238, -0.006906304974108934, 1.001302719116211, -0.2328929901123047, -2.834325075149536, -0.19012007117271423, 0.0, 0.0, 0.0, 0, 0, 0, 0, 0, 0, -0.2328929901123047, -2.834325075149536, -0.19012007117271423
13680, -0.08999117463827133, -0.03765188902616501, -0.007435319013893604, -0.03941749408841133, 0.005360433831810951, 0.11343114078044891, -0.002119525568559766, -0.007631094194948673, 0.9993628263473511, -0.23324134945869446, -2.8394722938537598, -0.1904653012752533, 0.0, 0.0, 0.0, 0, 0, 0, 0, 0, 0, -0.23324134945869446, -2.8394722938537598, -0.1904653012752533
13690, -0.09026192873716354, -0.037345971912145615, -0.007427674252539873, -0.18629953265190125, -0.1309148222208023, -0.06296339631080627, -0.0023753440473228693, -0.007588045205920935, 0.9997707605361938, -0.23359109461307526, -2.844625234603882, -0.19081009924411774, 0.0, 0.0, 0.0, 0, 0, 0, 0, 0, 0, -0.23359109461307526, -2.844625234603882, -0.19081009924411774
13700, -0.0896604135632515, -0.040107570588588715, -0.005537965800613165, 0.009026623331010342, 0.4712086617946625, 0.2053004801273346, -0.002256611129269004, -0.0066188666969537735, 1.0009766817092896, -0.23394238948822021, -2.8497841358184814, -0.19115495681762695, 0.0, 0.0, 0.0, 0, 0, 0, 0, 0, 0, -0.23394238948822021, -2.8497841358184814, -0.19115495681762695
13710, -0.08997843414545059, -0.03971288725733757, -0.006619320251047611, -0.09740474820137024, -0.11911234259605408, -0.05134420841932297, -0.0020161715801805258, -0.006231193896383047, 0.9990389943122864, -0.23429514467716217, -2.8549485206604004, -0.1914994865655899, 0.0, 0.0, 0.0, 0, 0, 0, 0, 0, 0, -0.23429514467716217, -2.8549485206604004, -0.1914994865655899
13720, -0.09019450098276138, -0.04067220538854599, -0.006347489543259144, -0.04278702288866043, 0.05975160002708435, -0.04635718837380409, -0.001616035238839686, -0.006169842556118965, 0.9977192282676697, -0.23464913666248322, -2.8601179122924805, -0.1918441653251648, 0.0, 0.0, 0.0, 0, 0, 0, 0, 0, 0, -0.23464913666248322, -2.8601179122924805, -0.1918441653251648
13730, -0.09021610021591187, -0.040922921150922775, -0.004945654422044754, -0.038456808775663376, 0.04659580439329147, 0.19956360757350922, -0.000259286054642871, -0.007670352701097727, 0.9982926845550537, -0.2350042313337326, -2.8652918338775635, -0.1921904981136322, 0.0, 0.0, 0.0, 0, 0, 0, 0, 0, 0, -0.2350042313337326, -2.8652918338775635, -0.1921904981136322
13740, -0.08985324949026108, -0.03829757869243622, -0.004528761375695467, 0.03675706684589386, -0.22511610388755798, 0.0431881919503212, 0.0008270307444036007, -0.00724328588694334, 0.9986540079116821, -0.23535963892936707, -2.870471239089966, -0.19253884255886078, 0.0, 0.0, 0.0, 0, 0, 0, 0, 0, 0, -0.23535963892936707, -2.870471239089966, -0.19253884255886078
13750, -0.08940497785806656, -0.036994967609643936, -0.005348559003323317, 0.09011934697628021, -0.05241438373923302, 0.012088018469512463, -0.00046191594447009265, -0.007166323717683554, 1.0006195306777954, -0.2357141673564911, -2.8756561279296875, -0.19288846850395203, 0.0, 0.0, 0.0, 0, 0, 0, 0, 0, 0, -0.2357141673564911, -2.8756561279296875, -0.19288846850395203
13760, -0.08982227742671967, -0.0372360423207283, -0.005097901448607445, -0.060387466102838516, 0.1108800396323204, 0.07548153400421143, 0.00024130546080414206, -0.006237443070858717, 0.9997985363006592, -0.23606780171394348, -2.8808462619781494, -0.1932382732629776, 0.0, 0.0, 0.0, 0, 0, 0, 0, 0, 0, -0.23606780171394348, -2.8808462619781494, -0.1932382732629776
13770, -0.08923688530921936, -0.034466467797756195, -0.004812831990420818, 0.09927751123905182, -0.29746130108833313, -0.13750611245632172, -0.0009646163671277463, -0.006074679084122181, 1.0004799365997314, -0.23642085492610931, -2.8860414028167725, -0.19358786940574646, 0.0, 0.0, 0.0, 0, 0, 0, 0, 0, 0, -0.23642085492610931, -2.8860414028167725, -0.19358786940574646
13780, -0.09003061801195145, -0.034895963966846466, -0.005686883814632893, -0.141413614153862, -0.10689983516931534, -0.17540550231933594, -0.00028431782266125083, -0.006425227504223585, 1.0006643533706665, -0.23677361011505127, -2.8912410736083984, -0.19393734633922577, 0.0, 0.0, 0.0, 0, 0, 0, 0, 0, 0, -0.23677361011505127, -2.8912410736083984, -0.19393734633922577
13790, -0.08774876594543457, -0.035185012966394424, -0.003947204444557428, 0.2950889766216278, 0.06636074185371399, 0.06662479043006897, 4.790647653862834e-05, -0.0064120423048734665, 0.9995993971824646, -0.2371261864900589, -2.8964452743530273, -0.19428645074367523, 0.0, 0.0, 0.0, 0, 0, 0, 0, 0, 0, -0.2371261864900589, -2.8964452743530273, -0.19428645074367523
13800, -0.08887945860624313, -0.03523225709795952, -0.005278755910694599, -0.08529116213321686, 0.11335036903619766, -0.03196697682142258, -0.001582467695698142, -0.004122202750295401, 1.000345230102539, -0.23747816681861877, -2.9016542434692383, -0.1946355253458023, 0.0, 0.0, 0.0, 0, 0, 0, 0, 0, 0, -0.23747816681861877, -2.9016542434692383, -0.1946355253458023
13810, -0.08964905142784119, -0.03524089977145195, -0.005940214730799198, -0.14186513423919678, -0.05644085258245468, -0.16008010506629944, -0.00014173689123708755, -0.005761174485087395, 0.9992531538009644, -0.23782989382743835, -2.9068667888641357, -0.19498471915721893, 0.0, 0.0, 0.0, 0, 0, 0, 0, 0, 0, -0.23782989382743835, -2.9068667888641357, -0.19498471915721893
13820, -0.08803345263004303, -0.03422795981168747, -0.005720369052141905, 0.08977790921926498, -0.1977178007364273, -0.09830260276794434, -0.0023118460085242987, -0.006628291215747595, 0.9996214509010315, -0.23818154633045197, -2.9120826721191406, -0.1953342854976654, 0.0, 0.0, 0.0, 0, 0, 0, 0, 0, 0, -0.23818154633045197, -2.9120826721191406, -0.1953342854976654
13830, -0.0884886384010315, -0.0339982733130455, -0.005758673883974552, -0.17237012088298798, -0.06049263849854469, 0.06986695528030396, -0.0018650639103725553, -0.006173882633447647, 0.9994499683380127, -0.23853379487991333, -2.9173030853271484, -0.1956845223903656, 0.0, 0.0, 0.0, 0, 0, 0, 0, 0, 0, -0.23853379487991333, -2.9173030853271484, -0.1956845223903656
13840, -0.08851690590381622, -0.03118487447500229, -0.006633337587118149, 0.02190502919256687, -0.13130737841129303, -0.1952536255121231, -0.001626033103093505, -0.005666427314281464, 0.9995114207267761, -0.23888756334781647, -2.922528028488159, -0.1960352510213852, 0.0, 0.0, 0.0, 0, 0, 0, 0, 0, 0, -0.23888756334781647, -2.922528028488159, -0.1960352510213852
13850, -0.08751139789819717, -0.03269490227103233, -0.0063406904228031635, 0.0996108278632164, 0.33744528889656067, 0.12292049080133438, -0.0026616931427270174, -0.006521244067698717, 1.0009934902191162, -0.2392427772283554, -2.927757501602173, -0.1963864266872406, 0.0, 0.0, 0.0, 0, 0, 0, 0, 0, 0, -0.2392427772283554, -2.927757501602173, -0.1963864266872406
13860, -0.08776381611824036, -0.03186999261379242, -0.005858990829437971, 0.03538533300161362, -0.09856977313756943, 0.10689880698919296, -0.0007463378715328872, -0.0070444922894239426, 1.001934289932251, -0.23959951102733612, -2.9329912662506104, -0.1967373639345169, 0.0, 0.0, 0.0, 0, 0, 0, 0, 0, 0, -0.23959951102733612, -2.9329912662506104, -0.1967373639345169
13870, -0.0879279151558876, -0.03096894733607769, -0.007028868887573481, -0.03511959686875343, 0.022763436660170555, -0.3018001616001129, -0.0009609642438590527, -0.006145753897726536, 0.9990992546081543, -0.23995709419250488, -2.93822979927063, -0.19708701968193054, 0.0, 0.0, 0.0, 0, 0, 0, 0, 0, 0, -0.23995709419250488, -2.93822979927063, -0.19708701968193054
13880, -0.08845183998346329, -0.02999815158545971, -0.005170752760022879, -0.03484473377466202, -0.09267531335353851, 0.2870839834213257, -0.0007650633342564106, -0.006636544596403837, 0.9960923790931702, -0.24031496047973633, -2.9434731006622314, -0.19743648171424866, 0.0, 0.0, 0.0, 0, 0, 0, 0, 0, 0, -0.24031496047973633, -2.9434731006622314, -0.19743648171424866
13890, -0.08847572654485703, -0.026212619617581367, -0.005710388068109751, 0.07490547001361847, -0.47582805156707764, -0.12518693506717682, 0.00032503934926353395, -0.007326195016503334, 1.000485897064209, -0.24067319929599762, -2.948721170425415, -0.19778817892074585, 0.0, 0.0, 0.0, 0, 0, 0, 0, 0, 0, -0.24067319929599762, -2.948721170425415, -0.19778817892074585
13900, -0.08786814659833908, -0.024254873394966125, -0.005286582745611668, 0.060748469084501266, -0.18206585943698883, 0.08344122022390366, -0.0005281835328787565, -0.006319690495729446, 0.9990903735160828, -0.24103128910064697, -2.953974723815918, -0.1981414556503296, 0.0, 0.0, 0.0, 0, 0, 0, 0, 0, 0, -0.24103128910064697, -2.953974723815918, -0.1981414556503296
13910, -0.08790197223424911, -0.025071822106838226, -0.004974104464054108, -0.06183039769530296, 0.20997247099876404, 0.04188055917620659, -0.0007548919529654086, -0.007254327181726694, 0.9991764426231384, -0.2413891851902008, -2.959233283996582, -0.19849517941474915, 0.0, 0.0, 0.0, 0, 0, 0, 0, 0, 0, -0.2413891851902008, -2.959233283996582, -0.19849517941474915
13920, -0.08756662905216217, -0.02622377872467041, -0.005453560501337051, 0.12394344806671143, 0.14025405049324036, 0.002828384516760707, -0.002490905113518238, -0.006786102429032326, 1.000968098640442, -0.24174737930297852, -2.9644970893859863, -0.1988496631383896, 0.0, 0.0, 0.0, 0, 0, 0, 0, 0, 0, -0.24174737930297852, -2.9644970893859863, -0.1988496631383896
13930, -0.08840135484933853, -0.024787697941064835, -0.005177746992558241, -0.19742509722709656, -0.0413828045129776, 0.10292349755764008, -0.0022283755242824554, -0.006333228200674057, 1.0000392198562622, -0.2421068251132965, -2.969766139984131, -0.19920411705970764, 0.0, 0.0, 0.0, 0, 0, 0, 0, 0, 0, -0.2421068251132965, -2.969766139984131, -0.19920411705970764
13940, -0.08790890872478485, -0.02385333552956581, -0.006345957983285189, 0.15904635190963745, -0.05343865975737572, -0.02778259851038456, -0.0012524781050160527, -0.006626139860600233, 0.9985433220863342, -0.24246817827224731, -2.9750397205352783, -0.19955821335315704, 0.0, 0.0, 0.0, 0, 0, 0, 0, 0, 0, -0.24246817827224731, -2.9750397205352783, -0.19955821335315704
13950, -0.08864807337522507, -0.02247256599366665, -0.005695919971913099, -0.16259174048900604, -0.11166279762983322, 0.1692739576101303, -0.0015510263619944453, -0.005657251924276352, 1.000044584274292, -0.24283084273338318, -2.980318069458008, -0.19991284608840942, 0.0, 0.0, 0.0, 0, 0, 0, 0, 0, 0, -0.24283084273338318, -2.980318069458008, -0.19991284608840942
13960, -0.08938098698854446, -0.019877979531884193, -0.007678271736949682, -0.11711722612380981, -0.1439211517572403, -0.09274797886610031, -0.002080086851492524, -0.004881765227764845, 0.9986937642097473, -0.24319449067115784, -2.9856009483337402, -0.20026808977127075, 0.0, 0.0, 0.0, 0, 0, 0, 0, 0, 0, -0.24319449067115784, -2.9856009483337402, -0.20026808977127075
13970, -0.08965003490447998, -0.021153293550014496, -0.00793505646288395, -0.02872498519718647, 0.1377246379852295, 0.12250691652297974, -0.0017519250977784395, -0.007382773328572512, 0.9974966049194336, -0.24355962872505188, -2.9908876419067383, -0.20062409341335297, 0.0, 0.0, 0.0, 0, 0, 0, 0, 0, 0, -0.24355962872505188, -2.9908876419067383, -0.20062409341335297
13980, -0.09027254581451416, -0.019603177905082703, -0.009410719387233257, -0.18300560116767883, -0.16969454288482666, -0.11655468493700027, 0.00055290712043643, -0.005128316581249237, 0.9998686909675598, -0.2439262717962265, -2.9961788654327393, -0.20098187029361725, 0.0, 0.0, 0.0, 0, 0, 0, 0, 0, 0, -0.2439262717962265, -2.9961788654327393, -0.20098187029361725
13990, -0.09089196473360062, -0.020759200677275658, -0.00842162873595953, 0.0364086776971817, 0.2581503093242645, 0.17902320623397827, -0.0017276800936087966, -0.00659977039322257, 0.9962339401245117, -0.2442931979894638, -3.001474618911743, -0.20134107768535614, 0.0, 0.0, 0.0, 0, 0, 0, 0, 0, 0, -0.2442931979894638, -3.001474618911743, -0.20134107768535614
14000, -0.09157731384038925, -0.01883118599653244, -0.008267982862889767, -0.03542068228125572, -0.3566972017288208, 0.12649479508399963, -0.0010760468430817127, -0.005570529028773308, 1.0009905099868774, -0.24466043710708618, -3.00677490234375, -0.2017022669315338, 0.0, 0.0, 0.0, 0, 0, 0, 0, 0, 0, -0.24466043710708618, -3.00677490234375, -0.2017022669315338
14010, -0.0915118157863617, -0.017748301848769188, -0.007227581925690174, -0.07751206308603287, -0.1227894276380539, 0.07015307247638702, -0.00025407929206267, -0.0033799889497458935, 1.0017753839492798, -0.24502862989902496, -3.0120797157287598, -0.20206473767757416, 0.0, 0.0, 0.0, 0, 0, 0, 0, 0, 0, -0.24502862989902496, -3.0120797157287598, -0.20206473767757416
14020, -0.09100093692541122, -0.01716068759560585, -0.007150483783334494, 0.0658826231956482, 0.045220520347356796, -0.022797435522079468, 0.0023791519924998283, -0.004571662284433842, 1.001482367515564, -0.2453969419002533, -3.0173871517181396, -0.20242588222026825, 0.0, 0.0, 0.0, 0, 0, 0, 0, 0, 0, -0.2453969419002533, -3.0173871517181396, -0.20242588222026825
14030, -0.09159597754478455, -0.01537911407649517, -0.0076918331906199455, -0.16012798249721527, -0.05405894294381142, -0.1934627890586853, -0.00020673515973612666, -0.00525613222271204, 0.9993590712547302, -0.2457638382911682, -3.0226969718933105, -0.2027854323387146, 0.0, 0.0, 0.0, 0, 0, 0, 0, 0, 0, -0.2457638382911682, -3.0226969718933105, -0.2027854323387146
14040, -0.09130670875310898, -0.014239899814128876, -0.005826273467391729, 0.03256473317742348, -0.154199481010437, -0.09631349891424179, 0.0008180629811249673, -0.004587280098348856, 0.998153805732727, -0.24612928926944733, -3.0280098915100098, -0.20314456522464752, 0.0, 0.0, 0.0, 0, 0, 0, 0, 0, 0, -0.24612928926944733, -3.0280098915100098, -0.20314456522464752
14050, -0.09166525304317474, -0.014439274556934834, -0.005257860757410526, -0.13985209167003632, 0.22819030284881592, 0.20488984882831573, -0.0010920839849859476, -0.001999617787078023, 0.9996897578239441, -0.24649402499198914, -3.0333259105682373, -0.20350459218025208, 0.0, 0.0, 0.0, 0, 0, 0, 0, 0, 0, -0.24649402499198914, -3.0333259105682373, -0.20350459218025208
14060, -0.0916396975517273, -0.01536532025784254, -0.0056394594721496105, 0.14106306433677673, 0.13024303317070007, -0.06828973442316055, -0.0022567398846149445, -0.005176496226340532, 0.9977343678474426, -0.2468586415052414, -3.0386435985565186, -0.2038656771183014, 0.0, 0.0, 0.0, 0, 0, 0, 0, 0, 0, -0.2468586415052414, -3.0386435985565186, -0.2038656771183014
14070, -0.09268290549516678, -0.014756090939044952, -0.0055524124763906, -0.1676339954137802, -0.0008010868332348764, -0.03840284422039986, -0.003580376971513033, -0.004618778824806213, 1.0000340938568115, -0.2472245693206787, -3.0439634323120117, -0.20422811806201935, 0.0, 0.0, 0.0, 0, 0, 0, 0, 0, 0, -0.2472245693206787, -3.0439634323120117, -0.20422811806201935
14080, -0.09270775318145752, -0.013615330681204796, -0.004498166032135487, -0.046158768236637115, -0.037812840193510056, 0.13064095377922058, -0.002316015074029565, -0.005129182245582342, 0.9980774521827698, -0.24759316444396973, -3.049286365509033, -0.20459160208702087, 0.0, 0.0, 0.0, 0, 0, 0, 0, 0, 0, -0.24759316444396973, -3.049286365509033, -0.20459160208702087
14090, -0.09177015721797943, -0.014840696007013321, -0.005768274888396263, 0.13734689354896545, 0.07654240727424622, -0.13191622495651245, -0.0005259175668470562, -0.004394174553453922, 0.9964312314987183, -0.24796439707279205, -3.054612398147583, -0.20495599508285522, 0.0, 0.0, 0.0, 0, 0, 0, 0, 0, 0, -0.24796439707279205, -3.054612398147583, -0.20495599508285522
14100, -0.09116998314857483, -0.014546927995979786, -0.005902532953768969, -0.0739862471818924, -0.03452165424823761, -0.06893191486597061, -0.0005683447816409171, -0.0034526153467595577, 0.9984447360038757, -0.24833662807941437, -3.059941291809082, -0.20532286167144775, 0.0, 0.0, 0.0, 0, 0, 0, 0, 0, 0, -0.24833662807941437, -3.059941291809082, -0.20532286167144775
14110, -0.09074275195598602, -0.01262995321303606, -0.005588516592979431, 0.05814100801944733, -0.151809424161911, -0.09897211194038391, -0.0012996577424928546, -0.004722846671938896, 0.9987344741821289, -0.24870899319648743, -3.065272569656372, -0.20569215714931488, 0.0, 0.0, 0.0, 0, 0, 0, 0, 0, 0, -0.24870899319648743, -3.065272569656372, -0.20569215714931488
14120, -0.09119565784931183, -0.012563764117658138, -0.0058253007009625435, -0.016080224886536598, -0.014800122939050198, -0.07671826332807541, -0.0005346909747458994, -0.007682128343731165, 0.9997029900550842, -0.2490818351507187, -3.0706064701080322, -0.2060626745223999, 0.0, 0.0, 0.0, 0, 0, 0, 0, 0, 0, -0.2490818351507187, -3.0706064701080322, -0.2060626745223999
14130, -0.09244727343320847, -0.012129987590014935, -0.006536675617098808, -0.13668666779994965, -0.3052569031715393, -0.20890085399150848, -0.0005964133306406438, -0.005870709661394358, 0.9996461272239685, -0.24945522844791412, -3.0759451389312744, -0.2064337283372879, 0.0, 0.0, 0.0, 0, 0, 0, 0, 0, 0, -0.24945522844791412, -3.0759451389312744, -0.2064337283372879
14140, -0.09162592142820358, -0.01465929951518774, -0.005738383624702692, 0.06806088238954544, 0.4746135473251343, 0.09266218543052673, -0.0013741913717240095, -0.006783630233258009, 0.999086856842041, -0.2498289942741394, -3.0812888145446777, -0.2068050354719162, 0.0, 0.0, 0.0, 0, 0, 0, 0, 0, 0, -0.2498289942741394, -3.0812888145446777, -0.2068050354719162
14150, -0.0910910964012146, -0.015071658417582512, -0.005825461354106665, 0.054044272750616074, 0.195540189743042, -0.05205792561173439, -0.0023227259516716003, -0.005494318436831236, 0.9994074702262878, -0.2502036392688751, -3.086637258529663, -0.207177072763443, 0.0, 0.0, 0.0, 0, 0, 0, 0, 0, 0, -0.2502036392688751, -3.086637258529663, -0.207177072763443
