timeTick, roll, pitch, yaw, gyroX, gyroY, gyroZ, accX, accY, accZ, stateX, stateY, stateZ, target_x, target_y, target_z, otX, otY, otZ, otRoll, otPitch, otYaw, kalX, kalY, kalZ
15483, 0.020403705537319183, -0.2755106985569, -0.1066897064447403, 0, 0, 0, 0, 0, 0, 0, 0, 0, 0, 0, 0, 0, 0, 0, 0, 0, 0, 0, 0, 0
15493, 0.019678648561239243, -0.27762293815612793, -0.10633336752653122, -0.0474969707429409, 0.4032287001609802, 0.12340270727872849, -0.0004169036401435733, -0.006020982749760151, 1.0010490417480469, 0.6267911791801453, -4.120543479919434, -0.09047476202249527, 0.0, 0.0, 0.0, 0, 0, 0, 0, 0, 0, 0.6267911791801453, -4.120543479919434, -0.09047476202249527
15503, 0.020075540989637375, -0.2788282036781311, -0.105446457862854, 0.150530144572258, 0.028288623318076134, 0.05703972652554512, -0.0014508762396872044, -0.004373841919004917, 1.0030772686004639, 0.6288349032402039, -4.127261638641357, -0.090665303170681, 0.0, 0.0, 0.0, 0, 0, 0, 0, 0, 0, 0.6288349032402039, -4.127261638641357, -0.090665303170681
15513, 0.020153485238552094, -0.2781694233417511, -0.10616158694028854, -0.1696544587612152, -0.19651588797569275, -0.06273631006479263, -0.0010130166774615645, -0.005375575739890337, 1.0010625123977661, 0.6308820843696594, -4.1339850425720215, -0.09085403382778168, 0.0, 0.0, 0.0, 0, 0, 0, 0, 0, 0, 0.6308820843696594, -4.1339850425720215, -0.09085403382778168
15523, 0.02060333825647831, -0.2779252827167511, -0.10563351213932037, 0.27443376183509827, 0.036776088178157806, 0.1874992996454239, -0.0010640394175425172, -0.004501014482229948, 0.9978107810020447, 0.6329329609870911, -4.140713691711426, -0.09104154258966446, 0.0, 0.0, 0.0, 0, 0, 0, 0, 0, 0, 0.6329329609870911, -4.140713691711426, -0.09104154258966446
15533, 0.02029515616595745, -0.27789315581321716, -0.10667508095502853, 0.039746079593896866, 0.21921931207180023, 0.013769722543656826, -0.0011168941855430603, -0.005093695130199194, 1.0004379749298096, 0.6349875330924988, -4.14744758605957, -0.09122979640960693, 0.0, 0.0, 0.0, 0, 0, 0, 0, 0, 0, 0.6349875330924988, -4.14744758605957, -0.09122979640960693
15543, 0.020453613251447678, -0.27921169996261597, -0.10567675530910492, -0.06174154207110405, -0.0023364622611552477, 0.009516781195998192, -9.481726010562852e-05, -0.005836882162839174, 0.9987594485282898, 0.6370458602905273, -4.154186725616455, -0.09141911566257477, 0.0, 0.0, 0.0, 0, 0, 0, 0, 0, 0, 0.6370458602905273, -4.154186725616455, -0.09141911566257477
15553, 0.0192459374666214, -0.2798892855644226, -0.10565842688083649, -0.037560220807790756, 0.4423466622829437, 0.060752660036087036, 0.0026299364399164915, -0.004173956345766783, 1.0003715753555298, 0.6391090154647827, -4.160931587219238, -0.09160877019166946, 0.0, 0.0, 0.0, 0, 0, 0, 0, 0, 0, 0.6391090154647827, -4.160931587219238, -0.09160877019166946
15563, 0.018989523872733116, -0.28042981028556824, -0.10539740324020386, -0.11945627629756927, -0.18192005157470703, 0.10910800099372864, -0.0002151288208551705, -0.004922835621982813, 0.9985586404800415, 0.6411782503128052, -4.167681694030762, -0.09179902821779251, 0.0, 0.0, 0.0, 0, 0, 0, 0, 0, 0, 0.6411782503128052, -4.167681694030762, -0.09179902821779251
15573, 0.018673932179808617, -0.28009748458862305, -0.10452290624380112, 0.017895987257361412, 0.2619727849960327, 0.010044042021036148, -0.0007988186553120613, -0.0046636126935482025, 0.998695969581604, 0.6432528495788574, -4.174436569213867, -0.0919901579618454, 0.0, 0.0, 0.0, 0, 0, 0, 0, 0, 0, 0.6432528495788574, -4.174436569213867, -0.0919901579618454
15583, 0.019374150782823563, -0.28071218729019165, -0.10559647530317307, -0.0504617765545845, -0.30264198780059814, -0.10545498132705688, -0.0010779716540127993, -0.006260688416659832, 0.9990273714065552, 0.6453315615653992, -4.181196689605713, -0.09218249469995499, 0.0, 0.0, 0.0, 0, 0, 0, 0, 0, 0, 0.6453315615653992, -4.181196689605713, -0.09218249469995499
15593, 0.020230107009410858, -0.2786734402179718, -0.1047363355755806, 0.0969383716583252, -0.19906263053417206, -0.00954347476363182, -0.004008525982499123, -0.0054153562523424625, 0.9982613325119019, 0.6474137306213379, -4.187962532043457, -0.09237582981586456, 0.0, 0.0, 0.0, 0, 0, 0, 0, 0, 0, 0.6474137306213379, -4.187962532043457, -0.09237582981586456
15603, 0.020865531638264656, -0.2776543200016022, -0.10405533015727997, 0.044134579598903656, 0.07968053966760635, 0.038843926042318344, -0.002209051512181759, -0.005291569512337446, 1.0007025003433228, 0.6494978070259094, -4.194734573364258, -0.0925699844956398, 0.0, 0.0, 0.0, 0, 0, 0, 0, 0, 0, 0.6494978070259094, -4.194734573364258, -0.0925699844956398
15613, 0.02075977623462677, -0.27852609753608704, -0.10423421114683151, 0.014087218791246414, -0.06913857907056808, 0.24974839389324188, -0.0019492064602673054, -0.005223835818469524, 0.9995392560958862, 0.6515836119651794, -4.201511859893799, -0.09276439249515533, 0.0, 0.0, 0.0, 0, 0, 0, 0, 0, 0, 0.6515836119651794, -4.201511859893799, -0.09276439249515533
15623, 0.020534168928861618, -0.27612605690956116, -0.1034981980919838, 0.0631294846534729, -0.20555338263511658, 0.04275326803326607, -0.000496170308906585, -0.004196574911475182, 0.9979957342147827, 0.653672456741333, -4.208294868469238, -0.09295883774757385, 0.0, 0.0, 0.0, 0, 0, 0, 0, 0, 0, 0.653672456741333, -4.208294868469238, -0.09295883774757385
15633, 0.02123430371284485, -0.27388647198677063, -0.10263948142528534, -0.10995565354824066, -0.17651481926441193, 0.05691910907626152, -0.0016646012663841248, -0.005208724178373814, 0.9992452263832092, 0.6557649970054626, -4.215083122253418, -0.09315469861030579, 0.0, 0.0, 0.0, 0, 0, 0, 0, 0, 0, 0.6557649970054626, -4.215083122253418, -0.09315469861030579
15643, 0.021545754745602608, -0.27365121245384216, -0.10253111273050308, 0.13247661292552948, 0.13019058108329773, 0.06591503322124481, -0.0028872760012745857, -0.005504061933606863, 0.9999335408210754, 0.6578607559204102, -4.22187614440918, -0.09335190802812576, 0.0, 0.0, 0.0, 0, 0, 0, 0, 0, 0, 0.6578607559204102, -4.22187614440918, -0.09335190802812576
15653, 0.02166091278195381, -0.2729870676994324, -0.10233734548091888, 0.16478727757930756, 0.3924684226512909, 0.03684846684336662, -0.0008764482336118817, -0.006188726518303156, 0.9998003840446472, 0.6599591374397278, -4.22867488861084, -0.09354919195175171, 0.0, 0.0, 0.0, 0, 0, 0, 0, 0, 0, 0.6599591374397278, -4.22867488861084, -0.09354919195175171
15663, 0.022624798119068146, -0.2757478356361389, -0.10137222707271576, 0.06717190146446228, 0.29101794958114624, 0.18636322021484375, -0.002314566168934107, -0.005914522800594568, 0.9983716011047363, 0.6620603799819946, -4.235479831695557, -0.0937471091747284, 0.0, 0.0, 0.0, 0, 0, 0, 0, 0, 0, 0.6620603799819946, -4.235479831695557, -0.0937471091747284
15673, 0.022836951538920403, -0.27690619230270386, -0.10194792598485947, -0.15471889078617096, 0.4627363383769989, -0.12163187563419342, 3.3598364097997546e-05, -0.004068395122885704, 1.0005829334259033, 0.6641644239425659, -4.24229097366333, -0.0939459502696991, 0.0, 0.0, 0.0, 0, 0, 0, 0, 0, 0, 0.6641644239425659, -4.24229097366333, -0.0939459502696991
15683, 0.02217329479753971, -0.2781325876712799, -0.10201843827962875, -0.11361570656299591, 0.03911646455526352, 0.10157586634159088, 0.00035449821734800935, -0.005688992794603109, 0.9989134073257446, 0.6662724614143372, -4.249107360839844, -0.09414497017860413, 0.0, 0.0, 0.0, 0, 0, 0, 0, 0, 0, 0.6662724614143372, -4.249107360839844, -0.09414497017860413
15693, 0.02288273721933365, -0.2780621349811554, -0.10179270803928375, 0.07456718385219574, 0.033279549330472946, -0.048087865114212036, -0.000526921299751848, -0.006720023229718208, 0.9960933923721313, 0.6683855652809143, -4.255929470062256, -0.09434504806995392, 0.0, 0.0, 0.0, 0, 0, 0, 0, 0, 0, 0.6683855652809143, -4.255929470062256, -0.09434504806995392
15703, 0.022322198376059532, -0.27812644839286804, -0.10162639617919922, -0.014925118535757065, 0.00758329825475812, -0.08071664720773697, -0.0010860488982871175, -0.004984680563211441, 0.9969502687454224, 0.6705029010772705, -4.262758255004883, -0.09454786032438278, 0.0, 0.0, 0.0, 0, 0, 0, 0, 0, 0, 0.6705029010772705, -4.262758255004883, -0.09454786032438278
15713, 0.022530920803546906, -0.2783331274986267, -0.1027790904045105, -0.22433732450008392, 0.07566460222005844, -0.02697731927037239, -0.002170192077755928, -0.005763248074799776, 1.001201868057251, 0.6726235151290894, -4.269592761993408, -0.09475315362215042, 0.0, 0.0, 0.0, 0, 0, 0, 0, 0, 0, 0.6726235151290894, -4.269592761993408, -0.09475315362215042
15723, 0.022601213306188583, -0.27712327241897583, -0.10332755744457245, 0.29515546560287476, -0.01929301954805851, 0.06787469983100891, 0.0009086086647585034, -0.005833907052874565, 1.0004853010177612, 0.67474764585495, -4.276432991027832, -0.09495849162340164, 0.0, 0.0, 0.0, 0, 0, 0, 0, 0, 0, 0.67474764585495, -4.276432991027832, -0.09495849162340164
15733, 0.022289013490080833, -0.27612802386283875, -0.102850541472435, 0.046620022505521774, 0.14447703957557678, 0.029607942327857018, 0.00034818710992112756, -0.005006464198231697, 0.9985244870185852, 0.6768765449523926, -4.2832794189453125, -0.09516359120607376, 0.0, 0.0, 0.0, 0, 0, 0, 0, 0, 0, 0.6768765449523926, -4.2832794189453125, -0.09516359120607376
15743, 0.022621022537350655, -0.2779063880443573, -0.10259035974740982, -0.1581844836473465, 0.2049262821674347, -0.1661723256111145, -0.0013900817139074206, -0.005194985773414373, 0.9987178444862366, 0.679010272026062, -4.290131568908691, -0.09536981582641602, 0.0, 0.0, 0.0, 0, 0, 0, 0, 0, 0, 0.679010272026062, -4.290131568908691, -0.09536981582641602
15753, 0.02041100524365902, -0.2786356806755066, -0.10378807038068771, -0.04762496426701546, 0.22549964487552643, -0.07886916399002075, -0.002599412342533469, -0.003916156943887472, 1.0003408193588257, 0.6811473369598389, -4.2969889640808105, -0.09557699412107468, 0.0, 0.0, 0.0, 0, 0, 0, 0, 0, 0, 0.6811473369598389, -4.2969889640808105, -0.09557699412107468
15763, 0.020892402157187462, -0.27948737144470215, -0.10223360359668732, 0.00017725711222738028, 0.30463725328445435, 0.01933194510638714, -0.0009978283196687698, -0.00424524862319231, 1.0009050369262695, 0.6832873225212097, -4.303851127624512, -0.09578431397676468, 0.0, 0.0, 0.0, 0, 0, 0, 0, 0, 0, 0.6832873225212097, -4.303851127624512, -0.09578431397676468
15773, 0.021271394565701485, -0.2799493968486786, -0.10228495299816132, 0.20133933424949646, -0.2801581621170044, 0.04597771540284157, 0.0004416171577759087, -0.00548528041690588, 0.9994891285896301, 0.6854308843612671, -4.310717582702637, -0.09599091112613678, 0.0, 0.0, 0.0, 0, 0, 0, 0, 0, 0, 0.6854308843612671, -4.310717582702637, -0.09599091112613678
15783, 0.02129926159977913, -0.278827965259552, -0.1020025685429573, -0.149245947599411, 0.16391031444072723, 0.09204503893852234, -0.0002226825599791482, -0.00588617380708456, 0.9983757138252258, 0.6875789761543274, -4.31758975982666, -0.0961979478597641, 0.0, 0.0, 0.0, 0, 0, 0, 0, 0, 0, 0.6875789761543274, -4.31758975982666, -0.0961979478597641
15793, 0.021727630868554115, -0.2813190817832947, -0.10249942541122437, -0.03536844998598099, 0.1743273288011551, -0.292755663394928, -0.0006282872054725885, -0.006261962465941906, 0.9977108240127563, 0.6897315382957458, -4.32446813583374, -0.09640645235776901, 0.0, 0.0, 0.0, 0, 0, 0, 0, 0, 0, 0.6897315382957458, -4.32446813583374, -0.09640645235776901
15803, 0.021392937749624252, -0.28104716539382935, -0.10115799307823181, 0.06561793386936188, 0.25276800990104675, -0.10944663733243942, -0.0015178980538621545, -0.006788683123886585, 1.000037431716919, 0.6918882727622986, -4.331352710723877, -0.09661631286144257, 0.0, 0.0, 0.0, 0, 0, 0, 0, 0, 0, 0.6918882727622986, -4.331352710723877, -0.09661631286144257
15813, 0.021502438932657242, -0.2803632915019989, -0.10224399715662003, -0.10400083661079407, -0.07062910497188568, -0.05541692674160004, 0.0006615862948819995, -0.002913440577685833, 0.9992204308509827, 0.6940491199493408, -4.33824348449707, -0.09682738035917282, 0.0, 0.0, 0.0, 0, 0, 0, 0, 0, 0, 0.6940491199493408, -4.33824348449707, -0.09682738035917282
15823, 0.021264085546135902, -0.27985259890556335, -0.10186029225587845, 0.2625390589237213, -0.2300138771533966, 0.18176588416099548, -0.0007379940361715853, -0.004977528937160969, 1.0012547969818115, 0.6962140798568726, -4.345139026641846, -0.09703868627548218, 0.0, 0.0, 0.0, 0, 0, 0, 0, 0, 0, 0.6962140798568726, -4.345139026641846, -0.09703868627548218
15833, 0.021822743117809296, -0.27873140573501587, -0.10258854925632477, -0.000588556460570544, -0.24234923720359802, -0.22405429184436798, -0.0010232554050162435, -0.0047364202328026295, 1.0017117261886597, 0.6983832716941833, -4.352039337158203, -0.09724937379360199, 0.0, 0.0, 0.0, 0, 0, 0, 0, 0, 0, 0.6983832716941833, -4.352039337158203, -0.09724937379360199
15843, 0.02287609688937664, -0.2782055139541626, -0.10232961922883987, 0.14753927290439606, -0.2634986937046051, 0.08881271630525589, -0.0006937655271030962, -0.004166666883975267, 0.9990959167480469, 0.7005561590194702, -4.358944416046143, -0.09745895117521286, 0.0, 0.0, 0.0, 0, 0, 0, 0, 0, 0, 0.7005561590194702, -4.358944416046143, -0.09745895117521286
15853, 0.021862991154193878, -0.27629074454307556, -0.10287506878376007, -0.007759820204228163, -0.1457345336675644, 0.24664461612701416, -0.00046166888205334544, -0.004761076066643, 1.0005476474761963, 0.7027329206466675, -4.365854263305664, -0.09766817092895508, 0.0, 0.0, 0.0, 0, 0, 0, 0, 0, 0, 0.7027329206466675, -4.365854263305664, -0.09766817092895508
15863, 0.02122541330754757, -0.2756272852420807, -0.10327920317649841, -0.1057521253824234, -0.11480770260095596, -0.14910782873630524, -0.003139543579891324, -0.004371502436697483, 0.9982788562774658, 0.7049137353897095, -4.372768878936768, -0.09787772595882416, 0.0, 0.0, 0.0, 0, 0, 0, 0, 0, 0, 0.7049137353897095, -4.372768878936768, -0.09787772595882416
15873, 0.020801609382033348, -0.2743114233016968, -0.10328321158885956, 0.15713384747505188, 0.20429812371730804, 0.15768100321292877, -0.0019667998421937227, -0.0035166400484740734, 1.000100016593933, 0.7070972919464111, -4.379688262939453, -0.09808757156133652, 0.0, 0.0, 0.0, 0, 0, 0, 0, 0, 0, 0.7070972919464111, -4.379688262939453, -0.09808757156133652
15883, 0.021690094843506813, -0.2743452191352844, -0.10246607661247253, -0.04369034618139267, -0.09887918084859848, 0.18490725755691528, -0.001549975830130279, -0.004522546194493771, 0.9996759295463562, 0.7092835307121277, -4.3866119384765625, -0.09829770773649216, 0.0, 0.0, 0.0, 0, 0, 0, 0, 0, 0, 0.7092835307121277, -4.3866119384765625, -0.09829770773649216
15893, 0.021012641489505768, -0.27357399463653564, -0.10304757207632065, -0.016720980405807495, 0.025895241647958755, -0.14394068717956543, -0.0021165162324905396, -0.004434602800756693, 0.9993401765823364, 0.7114731669425964, -4.393540382385254, -0.09850815683603287, 0.0, 0.0, 0.0, 0, 0, 0, 0, 0, 0, 0.7114731669425964, -4.393540382385254, -0.09850815683603287
15903, 0.02029825747013092, -0.2751076817512512, -0.1015249639749527, -0.004031147342175245, 0.20391832292079926, 0.0700826421380043, -0.0011957206297665834, -0.0038300296291708946, 1.0013909339904785, 0.7136659026145935, -4.400473594665527, -0.09871847927570343, 0.0, 0.0, 0.0, 0, 0, 0, 0, 0, 0, 0.7136659026145935, -4.400473594665527, -0.09871847927570343
15913, 0.019986528903245926, -0.2758629024028778, -0.10141433775424957, 0.06383389234542847, 0.14092424511909485, 0.03780495002865791, -0.0017387671396136284, -0.004711776506155729, 1.001224398612976, 0.7158616781234741, -4.407411098480225, -0.09892787784337997, 0.0, 0.0, 0.0, 0, 0, 0, 0, 0, 0, 0.7158616781234741, -4.407411098480225, -0.09892787784337997
15923, 0.02014852501451969, -0.2747393250465393, -0.10269386321306229, 0.1309148073196411, -0.09108075499534607, -0.12341492623090744, 0.001615568995475769, -0.006177058909088373, 0.9995712637901306, 0.7180616855621338, -4.414353847503662, -0.09913625568151474, 0.0, 0.0, 0.0, 0, 0, 0, 0, 0, 0, 0.7180616855621338, -4.414353847503662, -0.09913625568151474
15933, 0.0212178323417902, -0.27444323897361755, -0.10134000331163406, -0.027271589264273643, 0.13138554990291595, -0.08669836819171906, -0.0014412706950679421, -0.006784032564610243, 1.0038684606552124, 0.7202666997909546, -4.421302795410156, -0.09934422373771667, 0.0, 0.0, 0.0, 0, 0, 0, 0, 0, 0, 0.7202666997909546, -4.421302795410156, -0.09934422373771667
15943, 0.0216547641903162, -0.2735480070114136, -0.10328121483325958, -0.05029169097542763, 0.17490065097808838, 0.034618232399225235, -0.0025947848334908485, -0.005231484770774841, 0.9995434284210205, 0.7224755883216858, -4.428258419036865, -0.09955064207315445, 0.0, 0.0, 0.0, 0, 0, 0, 0, 0, 0, 0.7224755883216858, -4.428258419036865, -0.09955064207315445
15953, 0.022373823449015617, -0.27542442083358765, -0.10209328681230545, 0.17096877098083496, 0.10322804749011993, -0.04498123750090599, -0.00039501921855844557, -0.004492024891078472, 0.999294638633728, 0.7246872782707214, -4.435219764709473, -0.09975592792034149, 0.0, 0.0, 0.0, 0, 0, 0, 0, 0, 0, 0.7246872782707214, -4.435219764709473, -0.09975592792034149
15963, 0.02129109762609005, -0.2753075957298279, -0.10326327383518219, 0.05453311279416084, 0.011675935238599777, -0.030043285340070724, -0.00014521405682899058, -0.005494610872119665, 0.9993467330932617, 0.7269024848937988, -4.4421868324279785, -0.09996238350868225, 0.0, 0.0, 0.0, 0, 0, 0, 0, 0, 0, 0.7269024848937988, -4.4421868324279785, -0.09996238350868225
15973, 0.02208366058766842, -0.275957852602005, -0.10248584300279617, 0.07932992279529572, 0.03678559884428978, 0.09199295938014984, 0.0006966982618905604, -0.006201831623911858, 0.999159038066864, 0.7291222810745239, -4.449159622192383, -0.10016964375972748, 0.0, 0.0, 0.0, 0, 0, 0, 0, 0, 0, 0.7291222810745239, -4.449159622192383, -0.10016964375972748
15983, 0.02286972850561142, -0.2734057307243347, -0.10239169746637344, 0.026451649144291878, -0.19988161325454712, 0.18688227236270905, -0.0012267361162230372, -0.006504884921014309, 1.0010498762130737, 0.7313469648361206, -4.456138610839844, -0.10037719458341599, 0.0, 0.0, 0.0, 0, 0, 0, 0, 0, 0, 0.7313469648361206, -4.456138610839844, -0.10037719458341599
15993, 0.02213956229388714, -0.2752287983894348, -0.1016983911395073, -0.19039978086948395, 0.3713461756706238, 0.02510092407464981, -0.001965988427400589, -0.007243557833135128, 1.001062035560608, 0.7335757613182068, -4.463123798370361, -0.1005844846367836, 0.0, 0.0, 0.0, 0, 0, 0, 0, 0, 0, 0.7335757613182068, -4.463123798370361, -0.1005844846367836
16003, 0.020727690309286118, -0.27462002635002136, -0.10186616331338882, 0.195241779088974, 0.0887502133846283, -0.00689998222514987, -0.0012125951470807195, -0.00619469303637743, 1.000734806060791, 0.735807478427887, -4.470116138458252, -0.10079067200422287, 0.0, 0.0, 0.0, 0, 0, 0, 0, 0, 0, 0.735807478427887, -4.470116138458252, -0.10079067200422287
16013, 0.022075999528169632, -0.27679863572120667, -0.10178883373737335, -0.0890306830406189, -0.1679539680480957, 0.09936727583408356, 0.0018395900260657072, -0.004874550737440586, 1.0008975267410278, 0.7380427122116089, -4.477115154266357, -0.10099616646766663, 0.0, 0.0, 0.0, 0, 0, 0, 0, 0, 0, 0.7380427122116089, -4.477115154266357, -0.10099616646766663
16023, 0.022343546152114868, -0.2758563756942749, -0.10015194118022919, 0.3705997169017792, -0.0037704957649111748, 0.1556752473115921, 0.00027931315707974136, -0.005416774190962315, 0.997077226638794, 0.7402833700180054, -4.484119415283203, -0.10120127350091934, 0.0, 0.0, 0.0, 0, 0, 0, 0, 0, 0, 0.7402833700180054, -4.484119415283203, -0.10120127350091934
16033, 0.022098103538155556, -0.2753138244152069, -0.10028152912855148, -0.1613020896911621, 0.1084277331829071, 0.24160251021385193, -0.001992319943383336, -0.004194583743810654, 1.0016846656799316, 0.7427541613578796, -4.491830348968506, -0.10142792761325836, 0.0, 0.0, 0.0, 0, 0, 0, 0, 0, 0, 0.7427541613578796, -4.491830348968506, -0.10142792761325836
16043, 0.022694196552038193, -0.2771826982498169, -0.09756246209144592, 0.11883457750082016, -0.0353061817586422, 0.16087375581264496, -0.0018955664709210396, -0.003943054936826229, 1.0020525455474854, 0.7450039982795715, -4.49884557723999, -0.10163402557373047, 0.0, 0.0, 0.0, 0, 0, 0, 0, 0, 0, 0.7450039982795715, -4.49884557723999, -0.10163402557373047
16053, 0.02324187383055687, -0.2764526307582855, -0.09892402589321136, 0.1447135955095291, 0.09090705960988998, -0.17710334062576294, -0.0019120931392535567, -0.006108440924435854, 1.0005487203598022, 0.7472565174102783, -4.505865097045898, -0.10183824598789215, 0.0, 0.0, 0.0, 0, 0, 0, 0, 0, 0, 0.7472565174102783, -4.505865097045898, -0.10183824598789215
16063, 0.02333632856607437, -0.27402010560035706, -0.10071049630641937, 0.03391502797603607, -0.23537954688072205, 0.0029710305389016867, -0.0011130600469186902, -0.006024698726832867, 0.9990036487579346, 0.7495120167732239, -4.512890338897705, -0.10204195976257324, 0.0, 0.0, 0.0, 0, 0, 0, 0, 0, 0, 0.7495120167732239, -4.512890338897705, -0.10204195976257324
16073, 0.023146959021687508, -0.2741735279560089, -0.10019519925117493, 0.0686173066496849, -0.21194913983345032, -0.03750286251306534, -0.0012017228873446584, -0.005921559873968363, 0.9992527961730957, 0.7517709136009216, -4.519921779632568, -0.10224615037441254, 0.0, 0.0, 0.0, 0, 0, 0, 0, 0, 0, 0.7517709136009216, -4.519921779632568, -0.10224615037441254
16083, 0.024236952885985374, -0.2737796902656555, -0.1004452258348465, 0.034029386937618256, 0.07931825518608093, 0.22221148014068604, -0.0015714031178504229, -0.004968165419995785, 1.0022300481796265, 0.7540333867073059, -4.526959419250488, -0.10245057940483093, 0.0, 0.0, 0.0, 0, 0, 0, 0, 0, 0, 0.7540333867073059, -4.526959419250488, -0.10245057940483093
16093, 0.02408357337117195, -0.2759486734867096, -0.09999004006385803, -0.04363672807812691, 0.18852019309997559, -0.03274765983223915, -0.001924487529322505, -0.0049566710367798805, 1.0011481046676636, 0.7562989592552185, -4.534002780914307, -0.10265397280454636, 0.0, 0.0, 0.0, 0, 0, 0, 0, 0, 0, 0.7562989592552185, -4.534002780914307, -0.10265397280454636
16103, 0.024130376055836678, -0.27605757117271423, -0.10050229728221893, 0.06594330817461014, 0.09334181994199753, -0.12751510739326477, -0.0010718817356973886, -0.0034071230329573154, 1.0003752708435059, 0.7585676312446594, -4.541051387786865, -0.1028558611869812, 0.0, 0.0, 0.0, 0, 0, 0, 0, 0, 0, 0.7585676312446594, -4.541051387786865, -0.1028558611869812
16113, 0.024293353781104088, -0.2774822413921356, -0.10127739608287811, -0.251033216714859, 0.11080633103847504, 0.0744553729891777, -0.0017363312654197216, -0.004068040754646063, 0.9959951043128967, 0.7608395218849182, -4.548104286193848, -0.1030580922961235, 0.0, 0.0, 0.0, 0, 0, 0, 0, 0, 0, 0.7608395218849182, -4.548104286193848, -0.1030580922961235
16123, 0.023450536653399467, -0.27787235379219055, -0.10087782889604568, 0.08251185715198517, -0.10373064875602722, -0.13296090066432953, -0.0019429466919973493, -0.006019740365445614, 0.9979813694953918, 0.763114333152771, -4.555161952972412, -0.10326238721609116, 0.0, 0.0, 0.0, 0, 0, 0, 0, 0, 0, 0.763114333152771, -4.555161952972412, -0.10326238721609116
16133, 0.02404879406094551, -0.2771453261375427, -0.1009230688214302, 0.09133818745613098, -0.08769858628511429, 0.10641660541296005, 0.0016721937572583556, -0.005357882007956505, 1.0002890825271606, 0.765392541885376, -4.562224864959717, -0.10346872359514236, 0.0, 0.0, 0.0, 0, 0, 0, 0, 0, 0, 0.765392541885376, -4.562224864959717, -0.10346872359514236
16143, 0.023946674540638924, -0.2783065736293793, -0.10070101916790009, -0.12233603745698929, 0.3394045829772949, -0.14212508499622345, 0.0007102733943611383, -0.007292625028640032, 0.9998565316200256, 0.767676055431366, -4.569294452667236, -0.10367579758167267, 0.0, 0.0, 0.0, 0, 0, 0, 0, 0, 0, 0.767676055431366, -4.569294452667236, -0.10367579758167267
16153, 0.023503631353378296, -0.2783683240413666, -0.10063206404447556, -0.05718139186501503, 0.20333974063396454, -0.09375515580177307, -0.004203466232866049, -0.00507845776155591, 1.0007950067520142, 0.7699645161628723, -4.5763702392578125, -0.1038823127746582, 0.0, 0.0, 0.0, 0, 0, 0, 0, 0, 0, 0.7699645161628723, -4.5763702392578125, -0.1038823127746582
16163, 0.02258082665503025, -0.2790199816226959, -0.10072124004364014, 0.11365648359060287, 0.17847341299057007, 0.010361118242144585, -0.0011087761959061027, -0.005458602216094732, 0.9992757439613342, 0.7722553014755249, -4.583452224731445, -0.10408846288919449, 0.0, 0.0, 0.0, 0, 0, 0, 0, 0, 0, 0.7722553014755249, -4.583452224731445, -0.10408846288919449
16173, 0.02296300232410431, -0.28116658329963684, -0.10031965374946594, 0.0809091180562973, 0.24647405743598938, -0.10706683993339539, -0.0003173384757246822, -0.004290676210075617, 0.9991032481193542, 0.7745491862297058, -4.590539455413818, -0.1042950227856636, 0.0, 0.0, 0.0, 0, 0, 0, 0, 0, 0, 0.7745491862297058, -4.590539455413818, -0.1042950227856636
16183, 0.02249862439930439, -0.27904564142227173, -0.10104981809854507, -0.030776843428611755, -0.03541739657521248, 0.08131763339042664, -0.001305480138398707, -0.0053673735819756985, 1.0009167194366455, 0.776847243309021, -4.597631931304932, -0.10450232028961182, 0.0, 0.0, 0.0, 0, 0, 0, 0, 0, 0, 0.776847243309021, -4.597631931304932, -0.10450232028961182
16193, 0.022513292729854584, -0.27918076515197754, -0.10070423781871796, -0.0660608783364296, -0.07366636395454407, -0.03413226827979088, -0.0037803759332746267, -0.006151145789772272, 0.9989880919456482, 0.779148280620575, -4.604729652404785, -0.10470977425575256, 0.0, 0.0, 0.0, 0, 0, 0, 0, 0, 0, 0.779148280620575, -4.604729652404785, -0.10470977425575256
16203, 0.02191423811018467, -0.28076162934303284, -0.1013803482055664, -0.21237023174762726, 0.271713525056839, -0.0841277614235878, -0.0019129827851429582, -0.00556099833920598, 1.002108097076416, 0.7814512252807617, -4.611833572387695, -0.10491675138473511, 0.0, 0.0, 0.0, 0, 0, 0, 0, 0, 0, 0.7814512252807617, -4.611833572387695, -0.10491675138473511
16213, 0.02145012468099594, -0.28268831968307495, -0.10135725885629654, -0.013976013287901878, 0.4503798186779022, -0.03982982039451599, -0.002261872636154294, -0.0060821836814284325, 0.9989336729049683, 0.7837563753128052, -4.618943691253662, -0.10512343049049377, 0.0, 0.0, 0.0, 0, 0, 0, 0, 0, 0, 0.7837563753128052, -4.618943691253662, -0.10512343049049377
16223, 0.02097334899008274, -0.28278493881225586, -0.10218437016010284, 0.03425830230116844, -0.0921049490571022, -0.049080558121204376, -0.002921208506450057, -0.0056005981750786304, 0.9993977546691895, 0.7860643863677979, -4.6260600090026855, -0.10533016920089722, 0.0, 0.0, 0.0, 0, 0, 0, 0, 0, 0, 0.7860643863677979, -4.6260600090026855, -0.10533016920089722
16233, 0.02067248523235321, -0.2840976119041443, -0.10187532752752304, 0.0010379087179899216, 0.008332968689501286, 0.019256118685007095, -0.0006224863464012742, -0.006093138363212347, 1.000637173652649, 0.7883751392364502, -4.633182048797607, -0.10553734004497528, 0.0, 0.0, 0.0, 0, 0, 0, 0, 0, 0, 0.7883751392364502, -4.633182048797607, -0.10553734004497528
16243, 0.021002132445573807, -0.28527453541755676, -0.10139798372983932, -0.10211722552776337, 0.16697323322296143, 0.02543976902961731, 0.0007970056030899286, -0.005585068836808205, 0.9983168840408325, 0.7906895875930786, -4.640310287475586, -0.1057448610663414, 0.0, 0.0, 0.0, 0, 0, 0, 0, 0, 0, 0.7906895875930786, -4.640310287475586, -0.1057448610663414
16253, 0.020135769620537758, -0.28661876916885376, -0.10218437016010284, -0.1043417751789093, 0.18151067197322845, -0.09134451299905777, 0.0001198396785184741, -0.004024422727525234, 1.0005515813827515, 0.7930094599723816, -4.647443771362305, -0.1059526801109314, 0.0, 0.0, 0.0, 0, 0, 0, 0, 0, 0, 0.7930094599723816, -4.647443771362305, -0.1059526801109314
16263, 0.01907522976398468, -0.28649967908859253, -0.10384344309568405, 0.10965870320796967, -0.09618759155273438, -0.12205833941698074, -0.0006509045488201082, -0.0029585009906440973, 1.0007507801055908, 0.7953346371650696, -4.654581546783447, -0.10616064816713333, 0.0, 0.0, 0.0, 0, 0, 0, 0, 0, 0, 0.7953346371650696, -4.654581546783447, -0.10616064816713333
16273, 0.020458431914448738, -0.2864757180213928, -0.1026148647069931, 0.030933953821659088, 0.014348414726555347, -0.12733888626098633, -0.0026763121131807566, -0.005830975715070963, 1.001787781715393, 0.7976637482643127, -4.6617231369018555, -0.10636777430772781, 0.0, 0.0, 0.0, 0, 0, 0, 0, 0, 0, 0.7976637482643127, -4.6617231369018555, -0.10636777430772781
16283, 0.02039608173072338, -0.2878586947917938, -0.10277018696069717, -0.029378317296504974, 0.2046339362859726, -0.11395703256130219, -0.0014486074214801192, -0.005668128374963999, 0.9999498128890991, 0.7999955415725708, -4.668869972229004, -0.10657378286123276, 0.0, 0.0, 0.0, 0, 0, 0, 0, 0, 0, 0.7999955415725708, -4.668869972229004, -0.10657378286123276
16293, 0.020396366715431213, -0.28867119550704956, -0.10358661413192749, 0.014571421779692173, 0.12082938849925995, -0.03777642175555229, -0.0019713749643415213, -0.006590741220861673, 1.0002466440200806, 0.8023303747177124, -4.676023006439209, -0.10677935928106308, 0.0, 0.0, 0.0, 0, 0, 0, 0, 0, 0, 0.8023303747177124, -4.676023006439209, -0.10677935928106308
16303, 0.02015710063278675, -0.2866150140762329, -0.10411819070577621, -0.07848245650529861, -0.1537502408027649, -0.013384639285504818, -0.0007706859614700079, -0.005771370604634285, 1.0001615285873413, 0.8046687841415405, -4.683182716369629, -0.1069847121834755, 0.0, 0.0, 0.0, 0, 0, 0, 0, 0, 0, 0.8046687841415405, -4.683182716369629, -0.1069847121834755
16313, 0.02066102623939514, -0.2858349084854126, -0.1048378124833107, -0.06735306233167648, -0.33636248111724854, -0.06017553433775902, -0.0004889967967756093, -0.004258179571479559, 1.0017755031585693, 0.8070110082626343, -4.690348148345947, -0.10718970745801926, 0.0, 0.0, 0.0, 0, 0, 0, 0, 0, 0, 0.8070110082626343, -4.690348148345947, -0.10718970745801926
16323, 0.020533205941319466, -0.2855059802532196, -0.10479775071144104, 0.03970785811543465, -0.09178882837295532, -0.0490880012512207, -0.0015162014169618487, -0.004210213664919138, 0.9988618493080139, 0.8093574047088623, -4.697518348693848, -0.10739360749721527, 0.0, 0.0, 0.0, 0, 0, 0, 0, 0, 0, 0.8093574047088623, -4.697518348693848, -0.10739360749721527
16333, 0.021103790029883385, -0.28315216302871704, -0.10551979392766953, -0.09851646423339844, -0.08906932920217514, 0.06026534363627434, -0.0009560863836668432, -0.00406584981828928, 1.0000978708267212, 0.8117075562477112, -4.70469331741333, -0.10759738087654114, 0.0, 0.0, 0.0, 0, 0, 0, 0, 0, 0, 0.8117075562477112, -4.70469331741333, -0.10759738087654114
16343, 0.020881984382867813, -0.2832232713699341, -0.10558512061834335, -0.05144094303250313, -0.04764091223478317, -0.18545672297477722, -0.0015351073816418648, -0.002411493333056569, 1.001191258430481, 0.8140612244606018, -4.711872100830078, -0.10780156403779984, 0.0, 0.0, 0.0, 0, 0, 0, 0, 0, 0, 0.8140612244606018, -4.711872100830078, -0.10780156403779984
16353, 0.020137615501880646, -0.2833513021469116, -0.10612815618515015, -0.16518951952457428, 0.278564989566803, 0.1416105329990387, -0.0018419827101752162, -0.0038180958945304155, 0.9999256134033203, 0.8164182305335999, -4.719054222106934, -0.10800478607416153, 0.0, 0.0, 0.0, 0, 0, 0, 0, 0, 0, 0.8164182305335999, -4.719054222106934, -0.10800478607416153
16363, 0.019572043791413307, -0.2844153046607971, -0.10593380779027939, -0.2510603368282318, 0.03546266630291939, -0.030198682099580765, -0.0007539463113062084, -0.0026004028040915728, 0.9999667406082153, 0.8187786340713501, -4.726240158081055, -0.10820800065994263, 0.0, 0.0, 0.0, 0, 0, 0, 0, 0, 0, 0.8187786340713501, -4.726240158081055, -0.10820800065994263
16373, 0.020565126091241837, -0.2850232720375061, -0.10588225722312927, -0.013014664873480797, 0.23786629736423492, 0.14833541214466095, -0.0005232993862591684, -0.0034053875133395195, 1.0001193284988403, 0.8211429119110107, -4.733429431915283, -0.10841144621372223, 0.0, 0.0, 0.0, 0, 0, 0, 0, 0, 0, 0.8211429119110107, -4.733429431915283, -0.10841144621372223
16383, 0.019717447459697723, -0.285183846950531, -0.10418757051229477, 0.05747930705547333, -0.11219518631696701, -0.04416162520647049, -0.001500725862570107, -0.00595393031835556, 0.9979416131973267, 0.8235113620758057, -4.7406229972839355, -0.10861516743898392, 0.0, 0.0, 0.0, 0, 0, 0, 0, 0, 0, 0.8235113620758057, -4.7406229972839355, -0.10861516743898392
16393, 0.019808726385235786, -0.2860846519470215, -0.10398294031620026, 0.003975689876824617, 0.0727132111787796, 0.10227558016777039, -0.0017839692300185561, -0.008748493157327175, 0.9972690343856812, 0.825883150100708, -4.7478227615356445, -0.1088205873966217, 0.0, 0.0, 0.0, 0, 0, 0, 0, 0, 0, 0.825883150100708, -4.7478227615356445, -0.1088205873966217
16403, 0.01972883939743042, -0.2867830693721771, -0.10369408130645752, -0.008164864964783192, 0.27659350633621216, -0.15919171273708344, -0.002108626998960972, -0.00545130530372262, 1.0008339881896973, 0.82825767993927, -4.755029678344727, -0.10902772843837738, 0.0, 0.0, 0.0, 0, 0, 0, 0, 0, 0, 0.82825767993927, -4.755029678344727, -0.10902772843837738
16413, 0.02028597891330719, -0.28635385632514954, -0.10342991352081299, 0.08983783423900604, -0.12693622708320618, 0.009633509442210197, -0.0021543793845921755, -0.008031676523387432, 0.999417245388031, 0.8306348323822021, -4.76224422454834, -0.10923530906438828, 0.0, 0.0, 0.0, 0, 0, 0, 0, 0, 0, 0.8306348323822021, -4.76224422454834, -0.10923530906438828
16423, 0.02022472396492958, -0.28704366087913513, -0.10330077260732651, 0.07519388943910599, 0.3257104158401489, -0.06928153336048126, 2.020711690420285e-05, -0.008018613792955875, 0.9978089332580566, 0.8330152034759521, -4.769466400146484, -0.10944296419620514, 0.0, 0.0, 0.0, 0, 0, 0, 0, 0, 0, 0.8330152034759521, -4.769466400146484, -0.10944296419620514
16433, 0.019702862948179245, -0.2892276346683502, -0.10224556922912598, 0.07310530543327332, -0.036179255694150925, -0.014884276315569878, -0.001643966999836266, -0.008153089322149754, 1.0004453659057617, 0.835399866104126, -4.776697158813477, -0.10965170711278915, 0.0, 0.0, 0.0, 0, 0, 0, 0, 0, 0, 0.835399866104126, -4.776697158813477, -0.10965170711278915
16443, 0.02212613821029663, -0.2903088331222534, -0.10197111964225769, 0.08264734596014023, 0.17783966660499573, 0.08444542437791824, -0.00354062975384295, -0.007188260555267334, 0.9979565143585205, 0.8377881646156311, -4.783936023712158, -0.10986141860485077, 0.0, 0.0, 0.0, 0, 0, 0, 0, 0, 0, 0.8377881646156311, -4.783936023712158, -0.10986141860485077
16453, 0.02194898948073387, -0.2887648642063141, -0.10373411327600479, 0.13972513377666473, -0.2017090618610382, -0.11141787469387054, -0.00424734503030777, -0.005389196798205376, 1.0000239610671997, 0.8401780724525452, -4.791182518005371, -0.11007168143987656, 0.0, 0.0, 0.0, 0, 0, 0, 0, 0, 0, 0.8401780724525452, -4.791182518005371, -0.11007168143987656
16463, 0.02219492942094803, -0.2898472547531128, -0.10237917304039001, -0.21560683846473694, 0.15746350586414337, 0.024306315928697586, -0.001563551602885127, -0.005181940272450447, 0.9990940690040588, 0.8425691723823547, -4.798434734344482, -0.11028261482715607, 0.0, 0.0, 0.0, 0, 0, 0, 0, 0, 0, 0.8425691723823547, -4.798434734344482, -0.11028261482715607
16473, 0.022487124428153038, -0.29068586230278015, -0.10318849980831146, 0.003904322860762477, 0.07382933795452118, -0.3733021914958954, -0.0010066182585433125, -0.006717570126056671, 1.0010459423065186, 0.8449630737304688, -4.805692672729492, -0.11049367487430573, 0.0, 0.0, 0.0, 0, 0, 0, 0, 0, 0, 0.8449630737304688, -4.805692672729492, -0.11049367487430573
16483, 0.02332128770649433, -0.2896422743797302, -0.10300509631633759, 0.00487528508529067, 0.024065222591161728, 0.016847241669893265, -0.0018583318451419473, -0.006466821767389774, 0.9992963671684265, 0.8473607301712036, -4.812957286834717, -0.11070448905229568, 0.0, 0.0, 0.0, 0, 0, 0, 0, 0, 0, 0.8473607301712036, -4.812957286834717, -0.11070448905229568
16493, 0.02374119684100151, -0.2911018133163452, -0.10337119549512863, 0.06281086802482605, 0.06279008090496063, -0.0952901542186737, -0.0014955347869545221, -0.00628198217600584, 0.9983891844749451, 0.849761962890625, -4.8202290534973145, -0.11091579496860504, 0.0, 0.0, 0.0, 0, 0, 0, 0, 0, 0, 0.849761962890625, -4.8202290534973145, -0.11091579496860504
16503, 0.023649491369724274, -0.290696382522583, -0.10302691906690598, -0.027072977274656296, 0.0923420637845993, -0.06507674604654312, -0.0009031625231727958, -0.006022714078426361, 1.001441240310669, 0.8521667718887329, -4.827507495880127, -0.11112789064645767, 0.0, 0.0, 0.0, 0, 0, 0, 0, 0, 0, 0.8521667718887329, -4.827507495880127, -0.11112789064645767
16513, 0.023500729352235794, -0.2918403148651123, -0.10520549863576889, -0.03837468847632408, -0.19521202147006989, -0.22045718133449554, 0.00048409466398879886, -0.004458442330360413, 1.000685453414917, 0.8545756936073303, -4.834791660308838, -0.11133991926908493, 0.0, 0.0, 0.0, 0, 0, 0, 0, 0, 0, 0.8545756936073303, -4.834791660308838, -0.11133991926908493
16523, 0.02376970462501049, -0.2903158962726593, -0.10560932010412216, 0.09366904944181442, -0.2544904947280884, 0.015200529247522354, -0.0003634827444329858, -0.0031281476840376854, 1.0003178119659424, 0.8569895625114441, -4.842080593109131, -0.11155092716217041, 0.0, 0.0, 0.0, 0, 0, 0, 0, 0, 0, 0.8569895625114441, -4.842080593109131, -0.11155092716217041
16533, 0.023153550922870636, -0.29102233052253723, -0.1053985208272934, -0.06489016115665436, -0.05296889692544937, 0.03289690986275673, -0.0009873530361801386, -0.006640328094363213, 1.0003584623336792, 0.8594082593917847, -4.849373817443848, -0.11176121234893799, 0.0, 0.0, 0.0, 0, 0, 0, 0, 0, 0, 0.8594082593917847, -4.849373817443848, -0.11176121234893799
16543, 0.023444565013051033, -0.2897847592830658, -0.1045675128698349, 0.009110912680625916, 0.20777170360088348, 0.12216592580080032, -0.0008844640688039362, -0.0038801138289272785, 0.9987747669219971, 0.8618309497833252, -4.856672763824463, -0.1119716539978981, 0.0, 0.0, 0.0, 0, 0, 0, 0, 0, 0, 0.8618309497833252, -4.856672763824463, -0.1119716539978981
16553, 0.02267218939960003, -0.29063835740089417, -0.10349138081073761, -0.1733221411705017, 0.15128053724765778, -0.012689885683357716, -0.0019089881097897887, -0.0036702833604067564, 0.9985823631286621, 0.8642575144767761, -4.86397647857666, -0.11218288540840149, 0.0, 0.0, 0.0, 0, 0, 0, 0, 0, 0, 0.8642575144767761, -4.86397647857666, -0.11218288540840149
16563, 0.022904090583324432, -0.29053449630737305, -0.10379326343536377, -0.12676142156124115, 0.041869621723890305, -0.0584593191742897, -0.0017570385243743658, -0.006027804221957922, 1.0009431838989258, 0.8666873574256897, -4.871284484863281, -0.11239516735076904, 0.0, 0.0, 0.0, 0, 0, 0, 0, 0, 0, 0.8666873574256897, -4.871284484863281, -0.11239516735076904
16573, 0.022519951686263084, -0.2893417775630951, -0.10478165000677109, 0.2422916144132614, -0.24977098405361176, 0.04017910361289978, -0.0009939437732100487, -0.004748060833662748, 1.0022600889205933, 0.8691205978393555, -4.878598213195801, -0.1126069650053978, 0.0, 0.0, 0.0, 0, 0, 0, 0, 0, 0, 0.8691205978393555, -4.878598213195801, -0.1126069650053978
16583, 0.02280580811202526, -0.2897326350212097, -0.10353764146566391, -0.298033744096756, 0.11399823427200317, 0.061050351709127426, -0.0016949810087680817, -0.007459033280611038, 0.9999725222587585, 0.8715572357177734, -4.885918617248535, -0.11281745880842209, 0.0, 0.0, 0.0, 0, 0, 0, 0, 0, 0, 0.8715572357177734, -4.885918617248535, -0.11281745880842209
16593, 0.022395433858036995, -0.29003146290779114, -0.10400761663913727, 0.20253050327301025, -0.09809177368879318, -0.14216341078281403, -0.0003012801753357053, -0.004751770757138729, 0.9986358880996704, 0.8739975094795227, -4.893245220184326, -0.11302755773067474, 0.0, 0.0, 0.0, 0, 0, 0, 0, 0, 0, 0.8739975094795227, -4.893245220184326, -0.11302755773067474
16603, 0.022327616810798645, -0.28804928064346313, -0.10268376767635345, 0.1323269009590149, -0.051786523312330246, 0.15263631939888, 0.0007584150298498571, -0.004221556708216667, 1.0001755952835083, 0.8764423727989197, -4.900578022003174, -0.11323811113834381, 0.0, 0.0, 0.0, 0, 0, 0, 0, 0, 0, 0.8764423727989197, -4.900578022003174, -0.11323811113834381
16613, 0.02192823961377144, -0.29004883766174316, -0.10276961326599121, -0.2208833545446396, 0.061210598796606064, -0.20451922714710236, -3.745326102944091e-05, -0.0039363824762403965, 0.9995399713516235, 0.8788924217224121, -4.9079155921936035, -0.11344928294420242, 0.0, 0.0, 0.0, 0, 0, 0, 0, 0, 0, 0.8788924217224121, -4.9079155921936035, -0.11344928294420242
16623, 0.019983507692813873, -0.28929588198661804, -0.10355459153652191, -0.04394063353538513, 0.21237894892692566, 0.04670846462249756, -0.001228776411153376, -0.006997269112616777, 1.000571846961975, 0.88134765625, -4.915257930755615, -0.11366023868322372, 0.0, 0.0, 0.0, 0, 0, 0, 0, 0, 0, 0.88134765625, -4.915257930755615, -0.11366023868322372
16633, 0.020320279523730278, -0.2867378890514374, -0.10435204952955246, -0.07350797951221466, 0.07967625558376312, 0.048105377703905106, -0.0008267940138466656, -0.004468344617635012, 1.000018835067749, 0.8838071227073669, -4.922606468200684, -0.1138707846403122, 0.0, 0.0, 0.0, 0, 0, 0, 0, 0, 0, 0.8838071227073669, -4.922606468200684, -0.1138707846403122
16643, 0.021285271272063255, -0.28719156980514526, -0.10335828363895416, 0.2269287407398224, 0.015350639820098877, 0.16356851160526276, -0.00044585124123841524, -0.005342394579201937, 0.9961215853691101, 0.8862708806991577, -4.929960250854492, -0.11408217996358871, 0.0, 0.0, 0.0, 0, 0, 0, 0, 0, 0, 0.8862708806991577, -4.929960250854492, -0.11408217996358871
16653, 0.02084954082965851, -0.2866469621658325, -0.10252036154270172, 0.035773538053035736, -0.04513038322329521, -0.07808008044958115, -0.0018698006169870496, -0.004255890846252441, 0.9989681839942932, 0.888738751411438, -4.937319278717041, -0.11429595947265625, 0.0, 0.0, 0.0, 0, 0, 0, 0, 0, 0, 0.888738751411438, -4.937319278717041, -0.11429595947265625
16663, 0.021351179108023643, -0.2868223190307617, -0.10331764817237854, 0.1032111719250679, 0.02583029866218567, 0.03624628484249115, -0.0010327007621526718, -0.0033301482908427715, 0.9989508986473083, 0.8912103772163391, -4.944683074951172, -0.11451170593500137, 0.0, 0.0, 0.0, 0, 0, 0, 0, 0, 0, 0.8912103772163391, -4.944683074951172, -0.11451170593500137
16673, 0.021018696948885918, -0.2887374460697174, -0.10437234491109848, 0.16440095007419586, -0.029116930440068245, -0.1866774559020996, -0.001356449443846941, -0.005330038256943226, 1.0001845359802246, 0.8936858773231506, -4.952051162719727, -0.11472813040018082, 0.0, 0.0, 0.0, 0, 0, 0, 0, 0, 0, 0.8936858773231506, -4.952051162719727, -0.11472813040018082
16683, 0.020793769508600235, -0.2886284589767456, -0.10455280542373657, -0.0019021464977413416, 0.059103015810251236, 0.011173387058079243, -0.00023183220764622092, -0.005670848768204451, 1.0013108253479004, 0.8961653113365173, -4.95942497253418, -0.11494467407464981, 0.0, 0.0, 0.0, 0, 0, 0, 0, 0, 0, 0.8961653113365173, -4.95942497253418, -0.11494467407464981
16693, 0.021092530339956284, -0.28793373703956604, -0.10370855033397675, -0.09377194941043854, -0.17645935714244843, -0.0375128798186779, -4.952721610607114e-06, -0.0052657900378108025, 0.9992991089820862, 0.8986493349075317, -4.966804504394531, -0.11516056954860687, 0.0, 0.0, 0.0, 0, 0, 0, 0, 0, 0, 0.8986493349075317, -4.966804504394531, -0.11516056954860687
16703, 0.021407803520560265, -0.2869620621204376, -0.10502725094556808, 0.14520736038684845, -0.09817811846733093, -0.052163269370794296, -0.0015641992213204503, -0.00539420498535037, 0.9997907876968384, 0.9011378288269043, -4.974189758300781, -0.11537634581327438, 0.0, 0.0, 0.0, 0, 0, 0, 0, 0, 0, 0.9011378288269043, -4.974189758300781, -0.11537634581327438
16713, 0.020804330706596375, -0.2882425785064697, -0.10346216708421707, -0.17151886224746704, 0.06182337924838066, 0.0588218979537487, -0.0006041862652637064, -0.004379782825708389, 1.0003743171691895, 0.9036303162574768, -4.9815802574157715, -0.11559262871742249, 0.0, 0.0, 0.0, 0, 0, 0, 0, 0, 0, 0.9036303162574768, -4.9815802574157715, -0.11559262871742249
16723, 0.020367931574583054, -0.2898990213871002, -0.10415929555892944, 0.001331231789663434, 0.26526299118995667, 0.10906209796667099, -0.0003357024397701025, -0.004800279159098864, 1.0007288455963135, 0.9061270952224731, -4.988976001739502, -0.11580850183963776, 0.0, 0.0, 0.0, 0, 0, 0, 0, 0, 0, 0.9061270952224731, -4.988976001739502, -0.11580850183963776
16733, 0.021179204806685448, -0.28975996375083923, -0.10331540554761887, 0.04021432250738144, -0.16373467445373535, -0.04268775135278702, -0.0005981265567243099, -0.004201424773782492, 1.0014283657073975, 0.9086284041404724, -4.9963765144348145, -0.11602359265089035, 0.0, 0.0, 0.0, 0, 0, 0, 0, 0, 0, 0.9086284041404724, -4.9963765144348145, -0.11602359265089035
16743, 0.021998759359121323, -0.2893706262111664, -0.10483892261981964, -0.030604979023337364, 0.1088201031088829, -0.16432251036167145, 0.0016086404211819172, -0.004802541341632605, 0.9998500347137451, 0.9111345410346985, -5.003781795501709, -0.11623767763376236, 0.0, 0.0, 0.0, 0, 0, 0, 0, 0, 0, 0.9111345410346985, -5.003781795501709, -0.11623767763376236
16753, 0.02199641428887844, -0.289584219455719, -0.10548723489046097, 0.11583687365055084, 0.18295322358608246, 0.021640175953507423, -0.0003386751050129533, -0.00618853559717536, 1.0003365278244019, 0.913646399974823, -5.011192321777344, -0.1164509728550911, 0.0, 0.0, 0.0, 0, 0, 0, 0, 0, 0, 0.913646399974823, -5.011192321777344, -0.1164509728550911
16763, 0.022318899631500244, -0.29059845209121704, -0.10580483824014664, 0.07869680225849152, 0.21291908621788025, 0.22978396713733673, -0.001263163867406547, -0.004743747413158417, 0.9989379644393921, 0.9161631464958191, -5.018608570098877, -0.11666424572467804, 0.0, 0.0, 0.0, 0, 0, 0, 0, 0, 0, 0.9161631464958191, -5.018608570098877, -0.11666424572467804
16773, 0.02277030237019062, -0.2903282046318054, -0.10442358255386353, 0.18562562763690948, 0.09330112487077713, 0.14852780103683472, -0.00019140435324516147, -0.004521798342466354, 1.000627875328064, 0.9186837077140808, -5.02603006362915, -0.11687745153903961, 0.0, 0.0, 0.0, 0, 0, 0, 0, 0, 0, 0.9186837077140808, -5.02603006362915, -0.11687745153903961
16783, 0.02241171896457672, -0.2890811562538147, -0.10441558063030243, -0.15791739523410797, -0.03231305256485939, 0.024348599836230278, -0.00016666387091390789, -0.003907735925167799, 1.0016980171203613, 0.9212089776992798, -5.033455848693848, -0.11709028482437134, 0.0, 0.0, 0.0, 0, 0, 0, 0, 0, 0, 0.9212089776992798, -5.033455848693848, -0.11709028482437134
16793, 0.022956645116209984, -0.29168832302093506, -0.10505756735801697, 0.11524827778339386, 0.19365616142749786, -0.08573048561811447, -0.0005821008235216141, -0.0058084456250071526, 1.0020033121109009, 0.9237391352653503, -5.040886878967285, -0.11730191856622696, 0.0, 0.0, 0.0, 0, 0, 0, 0, 0, 0, 0.9237391352653503, -5.040886878967285, -0.11730191856622696
16803, 0.02253752574324608, -0.2935972809791565, -0.10510576516389847, -0.10745003819465637, 0.0010857089655473828, -0.17359600961208344, -0.0005726172821596265, -0.0066855656914412975, 1.0028589963912964, 0.9262739419937134, -5.048323631286621, -0.11751148849725723, 0.0, 0.0, 0.0, 0, 0, 0, 0, 0, 0, 0.9262739419937134, -5.048323631286621, -0.11751148849725723
16813, 0.021758468821644783, -0.2928193509578705, -0.10589560121297836, -0.054640717804431915, -0.11664633452892303, 0.07359863817691803, -0.0023574682418257, -0.006747323088347912, 1.001861810684204, 0.9288129210472107, -5.05576753616333, -0.11771898716688156, 0.0, 0.0, 0.0, 0, 0, 0, 0, 0, 0, 0.9288129210472107, -5.05576753616333, -0.11771898716688156
16823, 0.02134115621447563, -0.2918678820133209, -0.10570254921913147, 0.12615205347537994, 0.03306702896952629, -0.09327289462089539, -0.002380932681262493, -0.0028576403856277466, 1.0009275674819946, 0.9313549399375916, -5.063217639923096, -0.11792425066232681, 0.0, 0.0, 0.0, 0, 0, 0, 0, 0, 0, 0.9313549399375916, -5.063217639923096, -0.11792425066232681
16833, 0.021519595757126808, -0.28997093439102173, -0.1057085320353508, -0.002972465008497238, 0.088223397731781, -0.3048396110534668, -0.0010730279609560966, -0.004667909350246191, 0.9999610185623169, 0.9338997602462769, -5.070672512054443, -0.1181282252073288, 0.0, 0.0, 0.0, 0, 0, 0, 0, 0, 0, 0.9338997602462769, -5.070672512054443, -0.1181282252073288
16843, 0.02143845707178116, -0.2923969030380249, -0.10689128935337067, 0.03789754584431648, 0.12720583379268646, 0.2722094655036926, -0.00025974385789595544, -0.00453806621953845, 0.9987642168998718, 0.9364482760429382, -5.078131675720215, -0.11833232641220093, 0.0, 0.0, 0.0, 0, 0, 0, 0, 0, 0, 0.9364482760429382, -5.078131675720215, -0.11833232641220093
16853, 0.02073090150952339, -0.2925930321216583, -0.10509634763002396, 0.09705847501754761, -0.1451052874326706, -0.130161851644516, -0.0007219885010272264, -0.004610829055309296, 1.0026273727416992, 0.9390013813972473, -5.085596084594727, -0.11853634566068649, 0.0, 0.0, 0.0, 0, 0, 0, 0, 0, 0, 0.9390013813972473, -5.085596084594727, -0.11853634566068649
16863, 0.021758554503321648, -0.2918524444103241, -0.10472674667835236, -0.007900699973106384, -0.07729434967041016, 0.013487095013260841, -0.0015628180699422956, -0.0058916001580655575, 1.0003776550292969, 0.941558837890625, -5.09306526184082, -0.11873936653137207, 0.0, 0.0, 0.0, 0, 0, 0, 0, 0, 0, 0.941558837890625, -5.09306526184082, -0.11873936653137207
16873, 0.02126394771039486, -0.2907148599624634, -0.10461082309484482, 0.10480360686779022, -0.03882850334048271, 0.01101058628410101, -0.0007626496371813118, -0.00446311105042696, 0.9983303546905518, 0.9441201686859131, -5.1005401611328125, -0.11894170939922333, 0.0, 0.0, 0.0, 0, 0, 0, 0, 0, 0, 0.9441201686859131, -5.1005401611328125, -0.11894170939922333
16883, 0.021306360140442848, -0.29069167375564575, -0.10499105602502823, -0.1514432281255722, 0.2012772560119629, -0.061615850776433945, 0.0009688505670055747, -0.005615180358290672, 0.999789297580719, 0.9466862082481384, -5.108020305633545, -0.1191449761390686, 0.0, 0.0, 0.0, 0, 0, 0, 0, 0, 0, 0.9466862082481384, -5.108020305633545, -0.1191449761390686
16893, 0.021979086101055145, -0.29197990894317627, -0.10372184962034225, 0.00020310345280449837, -0.013814825564622879, -0.0727614313364029, -0.00040178230847232044, -0.006952513474971056, 0.9994171857833862, 0.9492577314376831, -5.115506172180176, -0.11934912949800491, 0.0, 0.0, 0.0, 0, 0, 0, 0, 0, 0, 0.9492577314376831, -5.115506172180176, -0.11934912949800491
16903, 0.022105973213911057, -0.2924725115299225, -0.10467398911714554, 0.02416869066655636, 0.01717788726091385, -0.1492648422718048, -0.0022316263057291508, -0.00413011759519577, 1.0020452737808228, 0.9518339037895203, -5.1229987144470215, -0.11955320835113525, 0.0, 0.0, 0.0, 0, 0, 0, 0, 0, 0, 0.9518339037895203, -5.1229987144470215, -0.11955320835113525
16913, 0.022234614938497543, -0.2927824854850769, -0.1050126850605011, -0.11323389410972595, -0.024892833083868027, 0.06647458672523499, -0.0022556912153959274, -0.0024628369137644768, 1.0006316900253296, 0.9518339037895203, -5.1229987144470215, -0.11955320835113525, 0.0, 0.0, 0.0, 0, 0, 0, 0, 0, 0, 0.9546713829040527, -5.131246089935303, -0.11977668851613998
16923, 0.02306174300611019, -0.2922608256340027, -0.10424157232046127, 0.15219342708587646, 0.16659055650234222, 0.11658357083797455, -0.002117202850058675, -0.005392883904278278, 0.9985039234161377, 0.9546713829040527, -5.131246089935303, -0.11977668851613998, 0.0, 0.0, 0.0, 0, 0, 0, 0, 0, 0, 0.9572538733482361, -5.138747692108154, -0.11997923254966736
16933, 0.023108655586838722, -0.29174020886421204, -0.10463003814220428, -0.17025068402290344, -0.14718037843704224, -0.14480090141296387, -0.0004876003076788038, -0.006330378353595734, 0.9976433515548706, 0.9572538733482361, -5.138747692108154, -0.11997923254966736, 0.0, 0.0, 0.0, 0, 0, 0, 0, 0, 0, 0.9600986242294312, -5.147005558013916, -0.12020348012447357
16943, 0.02302875556051731, -0.29254433512687683, -0.10568594932556152, 0.050186414271593094, -0.1412259191274643, -0.03059721551835537, -0.001226705964654684, -0.006392710376530886, 0.998831570148468, 0.9600986242294312, -5.147005558013916, -0.12020348012447357, 0.0, 0.0, 0.0, 0, 0, 0, 0, 0, 0, 0.9626888632774353, -5.154520034790039, -0.12040949612855911
16953, 0.022746628150343895, -0.2922757565975189, -0.10678300261497498, -0.05572020262479782, 0.18136951327323914, -0.09871038049459457, 0.0006048675277270377, -0.006434175651520491, 1.0002788305282593, 0.9626888632774353, -5.154520034790039, -0.12040949612855911, 0.0, 0.0, 0.0, 0, 0, 0, 0, 0, 0, 0.9652835130691528, -5.162041187286377, -0.1206163689494133
16963, 0.023069607093930244, -0.2916961908340454, -0.10636480152606964, -0.07169569283723831, -0.12126851826906204, 0.07432347536087036, -0.0013893373543396592, -0.006013123784214258, 0.9996429085731506, 0.9652835130691528, -5.162041187286377, -0.1206163689494133, 0.0, 0.0, 0.0, 0, 0, 0, 0, 0, 0, 0.9678826928138733, -5.1695685386657715, -0.12082322686910629
16973, 0.022769860923290253, -0.29279059171676636, -0.10621944814920425, 0.058917488902807236, 0.16761459410190582, -0.0018975610146299005, -0.003681493690237403, -0.004807658493518829, 0.9999722242355347, 0.9678826928138733, -5.1695685386657715, -0.12082322686910629, 0.0, 0.0, 0.0, 0, 0, 0, 0, 0, 0, 0.9704850316047668, -5.177102088928223, -0.121030293405056
16983, 0.022629065439105034, -0.2917841076850891, -0.10631899535655975, -0.10602666437625885, 0.01675560511648655, -0.04262780025601387, -0.0021330376621335745, -0.007136205211281776, 0.9995749592781067, 0.9704850316047668, -5.177102088928223, -0.121030293405056, 0.0, 0.0, 0.0, 0, 0, 0, 0, 0, 0, 0.9730896353721619, -5.1846418380737305, -0.12123774737119675
16993, 0.02319369651377201, -0.29201599955558777, -0.10654708743095398, 0.09597045183181763, -0.20707222819328308, -0.4189775586128235, -0.0007689043995924294, -0.006673636846244335, 1.0003790855407715, 0.9730896353721619, -5.1846418380737305, -0.12123774737119675, 0.0, 0.0, 0.0, 0, 0, 0, 0, 0, 0, 0.97569739818573, -5.192188739776611, -0.1214451938867569
17003, 0.023343853652477264, -0.29096946120262146, -0.10889667272567749, 0.002820666180923581, -0.12536819279193878, -0.3962171971797943, -0.00011342496873112395, -0.0032884138636291027, 1.000372290611267, 0.97569739818573, -5.192188739776611, -0.1214451938867569, 0.0, 0.0, 0.0, 0, 0, 0, 0, 0, 0, 0.9783092737197876, -5.199741840362549, -0.12165234237909317
17013, 0.02382650412619114, -0.28983181715011597, -0.11078529804944992, 0.08249913156032562, -0.11878005415201187, -0.02441222593188286, -0.0017149694031104445, -0.005798737984150648, 0.9995208382606506, 0.9783092737197876, -5.199741840362549, -0.12165234237909317, 0.0, 0.0, 0.0, 0, 0, 0, 0, 0, 0, 0.9809253811836243, -5.207299709320068, -0.12185980379581451
17023, 0.02444397285580635, -0.28713202476501465, -0.11142916977405548, 0.15092183649539948, -0.39716485142707825, -0.08557236194610596, -0.002150465501472354, -0.0066338493488729, 1.0000848770141602, 0.9809253811836243, -5.207299709320068, -0.12185980379581451, 0.0, 0.0, 0.0, 0, 0, 0, 0, 0, 0, 0.9835450053215027, -5.214863300323486, -0.12206745892763138
17033, 0.02360105887055397, -0.28868645429611206, -0.11083539575338364, -0.09345914423465729, 0.14819219708442688, 0.01755473203957081, -0.001881346688605845, -0.004134361632168293, 1.0011634826660156, 0.9835450053215027, -5.214863300323486, -0.12206745892763138, 0.0, 0.0, 0.0, 0, 0, 0, 0, 0, 0, 0.9861675500869751, -5.222433090209961, -0.12227492779493332
17043, 0.023365821689367294, -0.2895990312099457, -0.1112574115395546, -0.0764424279332161, 0.12481150776147842, -0.15810276567935944, -0.0004780981980729848, -0.006368919741362333, 0.9975422620773315, 0.9861675500869751, -5.222433090209961, -0.12227492779493332, 0.0, 0.0, 0.0, 0, 0, 0, 0, 0, 0, 0.9887937307357788, -5.230008602142334, -0.1224822998046875
17053, 0.023297889158129692, -0.2896420955657959, -0.1111539676785469, 0.05552617087960243, 0.20595258474349976, -0.02111353538930416, -0.002119152806699276, -0.00714597012847662, 0.9989321827888489, 0.9887937307357788, -5.230008602142334, -0.1224822998046875, 0.0, 0.0, 0.0, 0, 0, 0, 0, 0, 0, 0.9914238452911377, -5.237590789794922, -0.12269067764282227
17063, 0.023575488477945328, -0.2892173230648041, -0.11070647090673447, 0.036835722625255585, -0.12444105744361877, 0.12004424631595612, -0.0024004564620554447, -0.004297848790884018, 0.99821937084198, 0.9914238452911377, -5.237590789794922, -0.12269067764282227, 0.0, 0.0, 0.0, 0, 0, 0, 0, 0, 0, 0.9940569400787354, -5.245179653167725, -0.12290078401565552
17073, 0.023001469671726227, -0.29077789187431335, -0.1101817712187767, 0.1273038387298584, 0.27478668093681335, 0.04156719148159027, -0.001990851480513811, -0.004875200800597668, 0.9997329115867615, 0.9940569400787354, -5.245179653167725, -0.12290078401565552, 0.0, 0.0, 0.0, 0, 0, 0, 0, 0, 0, 0.9966927766799927, -5.252773761749268, -0.12311171740293503
17083, 0.024240154772996902, -0.29237717390060425, -0.1100422590970993, 0.17697681486606598, -0.05331730842590332, 0.026021085679531097, -0.003138326806947589, -0.005189098417758942, 0.9996718168258667, 0.9966927766799927, -5.252773761749268, -0.12311171740293503, 0.0, 0.0, 0.0, 0, 0, 0, 0, 0, 0, 0.9993314743041992, -5.260373115539551, -0.12332326173782349
17093, 0.024742236360907555, -0.2922404408454895, -0.10976900160312653, -0.04001852497458458, -0.11074522882699966, -0.10203974694013596, -0.0021061841398477554, -0.006015317980200052, 0.9995988011360168, 0.9993314743041992, -5.260373115539551, -0.12332326173782349, 0.0, 0.0, 0.0, 0, 0, 0, 0, 0, 0, 1.0019726753234863, -5.267978191375732, -0.12353524565696716
17103, 0.024969028308987617, -0.2932102382183075, -0.10920747369527817, 0.16049239039421082, 0.1318259835243225, 0.08767176419496536, -0.0011956311063840985, -0.0056600673124194145, 1.0017200708389282, 1.0019726753234863, -5.267978191375732, -0.12353524565696716, 0.0, 0.0, 0.0, 0, 0, 0, 0, 0, 0, 1.0046167373657227, -5.275589466094971, -0.12374681979417801
17113, 0.02553577348589897, -0.29131007194519043, -0.11011263728141785, -0.12635965645313263, -0.28731101751327515, -0.033054105937480927, -0.0016804380575194955, -0.005483648274093866, 1.0000156164169312, 1.0046167373657227, -5.275589466094971, -0.12374681979417801, 0.0, 0.0, 0.0, 0, 0, 0, 0, 0, 0, 1.0072643756866455, -5.283206462860107, -0.1239577904343605
17123, 0.02601741999387741, -0.29201045632362366, -0.11040771007537842, -0.019978584721684456, 0.30324527621269226, 0.026975257322192192, -0.0005280912155285478, -0.005592591129243374, 0.9992797374725342, 1.0072643756866455, -5.283206462860107, -0.1239577904343605, 0.0, 0.0, 0.0, 0, 0, 0, 0, 0, 0, 1.009915828704834, -5.290829658508301, -0.1241685301065445
17133, 0.02493021823465824, -0.2921137511730194, -0.10990532487630844, -0.0781664177775383, 0.028376448899507523, 0.09584289789199829, -0.0004446890961844474, -0.004028638359159231, 0.9978649616241455, 1.009915828704834, -5.290829658508301, -0.1241685301065445, 0.0, 0.0, 0.0, 0, 0, 0, 0, 0, 0, 1.0125716924667358, -5.298459053039551, -0.1243804320693016
17143, 0.02576150745153427, -0.29399046301841736, -0.10828695446252823, 0.1281605362892151, 0.2972413897514343, 0.08770324289798737, -0.0003397290129214525, -0.00529378280043602, 0.9996238946914673, 1.0125716924667358, -5.298459053039551, -0.1243804320693016, 0.0, 0.0, 0.0, 0, 0, 0, 0, 0, 0, 1.0152322053909302, -5.306093215942383, -0.12459403276443481
