timeTick, roll, pitch, yaw, gyroX, gyroY, gyroZ, accX, accY, accZ, stateX, stateY, stateZ, target_x, target_y, target_z, otX, otY, otZ, otRoll, otPitch, otYaw, kalX, kalY, kalZ
11036, 0.034246399998664856, -0.1968482881784439, 0.011169488541781902, 0, 0, 0, 0, 0, 0, 0, 0, 0, 0, 0, 0, 0, 0, 0, 0, 0, 0, 0, 0, 0
11046, 0.03366328403353691, -0.19861027598381042, 0.011216712184250355, -0.06163973733782768, -0.0020322997588664293, -0.008492239750921726, 0.014040478505194187, 0.0019757202826440334, 1.0024328231811523, 4.686350345611572, 1.0306209325790405, -0.08388922363519669, 0.0, 0.0, 0.0, 0, 0, 0, 0, 0, 0, 4.69835090637207, 1.0332515239715576, -0.08399628847837448
11056, 0.03271617740392685, -0.1976037472486496, 0.010865984484553337, -0.07989118248224258, -0.14710633456707, -0.0221251193434, 0.014249772764742374, 0.004976766183972359, 0.9979553818702698, 4.69835090637207, 1.0332515239715576, -0.08399628847837448, 0.0, 0.0, 0.0, 0, 0, 0, 0, 0, 0, 4.710368633270264, 1.0358846187591553, -0.08410225808620453
11066, 0.03244398906826973, -0.1966027021408081, 0.010757332667708397, -0.07075989246368408, -0.19121472537517548, 0.031306810677051544, 0.01230977475643158, 0.004238867666572332, 0.9981405138969421, 4.710368633270264, 1.0358846187591553, -0.08410225808620453, 0.0, 0.0, 0.0, 0, 0, 0, 0, 0, 0, 4.722403526306152, 1.0385215282440186, -0.08420977741479874
11076, 0.03202499449253082, -0.19646427035331726, 0.010122180916368961, -0.08931628614664078, 0.05762435495853424, 0.02967177703976631, 0.008994338102638721, 0.005448094569146633, 1.0008147954940796, 4.722403526306152, 1.0385215282440186, -0.08420977741479874, 0.0, 0.0, 0.0, 0, 0, 0, 0, 0, 0, 4.734452724456787, 1.0411626100540161, -0.08431815356016159
11086, 0.03212946653366089, -0.1953519880771637, 0.00917944684624672, 0.08079975098371506, -0.22722356021404266, -0.171457901597023, 0.01110910065472126, 0.0054215360432863235, 0.9986851215362549, 4.734452724456787, 1.0411626100540161, -0.08431815356016159, 0.0, 0.0, 0.0, 0, 0, 0, 0, 0, 0, 4.746515274047852, 1.0438083410263062, -0.08442670851945877
11096, 0.03275496885180473, -0.19577792286872864, 0.008343472145497799, 0.05345330759882927, 0.03641307353973389, -0.07094807922840118, 0.013177446089684963, 0.006586689036339521, 1.0000053644180298, 4.746515274047852, 1.0438083410263062, -0.08442670851945877, 0.0, 0.0, 0.0, 0, 0, 0, 0, 0, 0, 4.75859260559082, 1.046459436416626, -0.08453588932752609
11106, 0.032165754586458206, -0.1972934752702713, 0.007929683662950993, -0.20182396471500397, 0.2458532452583313, -0.10547969490289688, 0.013666234910488129, 0.0034523014910519123, 1.000844955444336, 4.75859260559082, 1.046459436416626, -0.08453588932752609, 0.0, 0.0, 0.0, 0, 0, 0, 0, 0, 0, 4.770686149597168, 1.0491153001785278, -0.0846448615193367
11116, 0.031879208981990814, -0.1972980499267578, 0.007067546248435974, 0.014512336812913418, 0.0035439636558294296, 0.037347786128520966, 0.013553778640925884, 0.002172027016058564, 1.0010316371917725, 4.770686149597168, 1.0491153001785278, -0.0846448615193367, 0.0, 0.0, 0.0, 0, 0, 0, 0, 0, 0, 4.782796382904053, 1.0517735481262207, -0.08475307375192642
11126, 0.033362265676259995, -0.1986895054578781, 0.007876458577811718, 0.2825523614883423, 0.09080521762371063, 0.1544526219367981, 0.013457739725708961, 0.004611556883901358, 0.9996165037155151, 4.782796382904053, 1.0517735481262207, -0.08475307375192642, 0.0, 0.0, 0.0, 0, 0, 0, 0, 0, 0, 4.794923305511475, 1.0544344186782837, -0.08486105501651764
11136, 0.0335707888007164, -0.19871337711811066, 0.008241867646574974, 0.013135861605405807, -0.0769554078578949, 0.10811974853277206, 0.015330269001424313, 0.003758716396987438, 0.9984661936759949, 4.794923305511475, 1.0544344186782837, -0.08486105501651764, 0.0, 0.0, 0.0, 0, 0, 0, 0, 0, 0, 4.807067394256592, 1.0570988655090332, -0.08496947586536407
11146, 0.033885542303323746, -0.1977282464504242, 0.0083227613940835, -0.014521476812660694, -0.03176551312208176, -0.13168230652809143, 0.01334691233932972, 0.0030714813619852066, 0.9979155659675598, 4.807067394256592, 1.0570988655090332, -0.08496947586536407, 0.0, 0.0, 0.0, 0, 0, 0, 0, 0, 0, 4.8192291259765625, 1.059766173362732, -0.08507920056581497
11156, 0.03354649245738983, -0.19803565740585327, 0.007743148598819971, 0.03419830650091171, 0.05643372982740402, -0.06833697855472565, 0.013483166694641113, 0.003714399179443717, 0.9999812841415405, 4.8192291259765625, 1.059766173362732, -0.08507920056581497, 0.0, 0.0, 0.0, 0, 0, 0, 0, 0, 0, 4.83140754699707, 1.0624361038208008, -0.08519019186496735
11166, 0.032912611961364746, -0.1984279900789261, 0.008029908873140812, -0.09952064603567123, -0.11229736357927322, 0.09557225555181503, 0.013251115567982197, 0.004056346137076616, 0.9996067881584167, 4.83140754699707, 1.0624361038208008, -0.08519019186496735, 0.0, 0.0, 0.0, 0, 0, 0, 0, 0, 0, 4.843602180480957, 1.065109133720398, -0.08530155569314957
11176, 0.03279726207256317, -0.2004411816596985, 0.007591690868139267, -0.0787380188703537, 0.33183231949806213, -0.20695215463638306, 0.014141585677862167, 0.0022143549285829067, 1.0008004903793335, 4.843602180480957, 1.065109133720398, -0.08530155569314957, 0.0, 0.0, 0.0, 0, 0, 0, 0, 0, 0, 4.855813503265381, 1.0677851438522339, -0.08541279286146164
11186, 0.0332014337182045, -0.20219257473945618, 0.007739419117569923, 0.1127660870552063, 0.23425914347171783, 0.19715936481952667, 0.012977302074432373, 0.0030823885463178158, 1.0001723766326904, 4.855813503265381, 1.0677851438522339, -0.08541279286146164, 0.0, 0.0, 0.0, 0, 0, 0, 0, 0, 0, 4.868041515350342, 1.0704632997512817, -0.0855235680937767
11196, 0.033350784331560135, -0.2025880664587021, 0.007249641697853804, 0.03957322612404823, -0.00946755986660719, 0.056235410273075104, 0.012089152820408344, 0.004438946954905987, 1.000633955001831, 4.868041515350342, 1.0704632997512817, -0.0855235680937767, 0.0, 0.0, 0.0, 0, 0, 0, 0, 0, 0, 4.880285739898682, 1.0731443166732788, -0.08563407510519028
11206, 0.032787539064884186, -0.1996116191148758, 0.005891941487789154, 0.004239045083522797, -0.18831704556941986, -0.11843286454677582, 0.012063726782798767, 0.00514950742945075, 1.0031388998031616, 4.880285739898682, 1.0731443166732788, -0.08563407510519028, 0.0, 0.0, 0.0, 0, 0, 0, 0, 0, 0, 4.892545700073242, 1.0758295059204102, -0.08574318140745163
11216, 0.03236807510256767, -0.19978532195091248, 0.005808770190924406, -0.16315314173698425, 0.1718965470790863, -0.09317002445459366, 0.013757196255028248, 0.004807792138308287, 1.0007646083831787, 4.892545700073242, 1.0758295059204102, -0.08574318140745163, 0.0, 0.0, 0.0, 0, 0, 0, 0, 0, 0, 4.904821395874023, 1.0785189867019653, -0.08585012704133987
11226, 0.03164372593164444, -0.19848521053791046, 0.005164685193449259, -0.014165724627673626, -0.14179790019989014, -0.22069790959358215, 0.015835775062441826, 0.006021554581820965, 1.0002918243408203, 4.904821395874023, 1.0785189867019653, -0.08585012704133987, 0.0, 0.0, 0.0, 0, 0, 0, 0, 0, 0, 4.9171142578125, 1.0812129974365234, -0.08595623821020126
11236, 0.030404815450310707, -0.19858284294605255, 0.005596397444605827, -0.18894395232200623, 0.17044410109519958, 0.11330237239599228, 0.014088278636336327, 0.005491174757480621, 1.0018972158432007, 4.9171142578125, 1.0812129974365234, -0.08595623821020126, 0.0, 0.0, 0.0, 0, 0, 0, 0, 0, 0, 4.929425239562988, 1.0839117765426636, -0.08606147766113281
11246, 0.03136923909187317, -0.20097194612026215, 0.006574340630322695, 0.06004878133535385, 0.1458730250597, 0.28452783823013306, 0.013942648656666279, 0.0024545793421566486, 1.0003695487976074, 4.929425239562988, 1.0839117765426636, -0.08606147766113281, 0.0, 0.0, 0.0, 0, 0, 0, 0, 0, 0, 4.94175386428833, 1.0866143703460693, -0.08616553246974945
11256, 0.03166684880852699, -0.20276759564876556, 0.006997594144195318, -0.08149122446775436, 0.31261903047561646, 0.33210256695747375, 0.012634030543267727, 0.005488989874720573, 1.000466227531433, 4.94175386428833, 1.0866143703460693, -0.08616553246974945, 0.0, 0.0, 0.0, 0, 0, 0, 0, 0, 0, 4.954099178314209, 1.0893205404281616, -0.08626899123191833
11266, 0.0333835631608963, -0.20279362797737122, 0.007027532905340195, 0.1845540553331375, 0.05758229270577431, -0.04469785839319229, 0.012086951173841953, 0.0054584708996117115, 0.9980736970901489, 4.954099178314209, 1.0893205404281616, -0.08626899123191833, 0.0, 0.0, 0.0, 0, 0, 0, 0, 0, 0, 4.966460227966309, 1.0920310020446777, -0.08637306839227676
11276, 0.03417796269059181, -0.20048999786376953, 0.006565805058926344, 0.07152111828327179, -0.3136540651321411, -0.017066292464733124, 0.014293605461716652, 0.004294384270906448, 0.9994274377822876, 4.966460227966309, 1.0920310020446777, -0.08637306839227676, 0.0, 0.0, 0.0, 0, 0, 0, 0, 0, 0, 4.978837490081787, 1.0947458744049072, -0.08647867292165756
11286, 0.034596022218465805, -0.2022668868303299, 0.008275849744677544, 0.028509188443422318, 0.15068334341049194, 0.04949179291725159, 0.014218653552234173, 0.0037982237990945578, 1.0003961324691772, 4.978837490081787, 1.0947458744049072, -0.08647867292165756, 0.0, 0.0, 0.0, 0, 0, 0, 0, 0, 0, 4.991231918334961, 1.0974642038345337, -0.08658470958471298
11296, 0.03378672897815704, -0.20390987396240234, 0.009061697870492935, -0.1419341266155243, 0.13382820785045624, 0.06762629747390747, 0.013508198782801628, 0.0037518723402172327, 1.0007688999176025, 4.991231918334961, 1.0974642038345337, -0.08658470958471298, 0.0, 0.0, 0.0, 0, 0, 0, 0, 0, 0, 5.00364351272583, 1.1001858711242676, -0.0866902619600296
11306, 0.03427305072546005, -0.20401285588741302, 0.010001692920923233, 0.08327284455299377, -0.07884301245212555, 0.08978908509016037, 0.0140554653480649, 0.005353251937776804, 1.0009403228759766, 5.00364351272583, 1.1001858711242676, -0.0866902619600296, 0.0, 0.0, 0.0, 0, 0, 0, 0, 0, 0, 5.016071796417236, 1.102911353111267, -0.08679519593715668
11316, 0.03332604095339775, -0.20363877713680267, 0.008078278042376041, -0.19545753300189972, 0.0017001022351905704, -0.3094850778579712, 0.012275328859686852, 0.003232131013646722, 1.0011504888534546, 5.016071796417236, 1.102911353111267, -0.08679519593715668, 0.0, 0.0, 0.0, 0, 0, 0, 0, 0, 0, 5.02851676940918, 1.1056405305862427, -0.08689937740564346
11326, 0.033189769834280014, -0.2035735696554184, 0.007881121709942818, 0.06745479255914688, -0.00456742150709033, -0.008148888126015663, 0.012810886837542057, 0.0047906250692903996, 0.9983463883399963, 5.02851676940918, 1.1056405305862427, -0.08689937740564346, 0.0, 0.0, 0.0, 0, 0, 0, 0, 0, 0, 5.040977954864502, 1.1083731651306152, -0.08700335770845413
11336, 0.03283141180872917, -0.20427997410297394, 0.0070867077447474, -0.17658916115760803, 0.14133405685424805, -0.2105642557144165, 0.01349876169115305, 0.006927799433469772, 0.9971466660499573, 5.040977954864502, 1.1083731651306152, -0.08700335770845413, 0.0, 0.0, 0.0, 0, 0, 0, 0, 0, 0, 5.053455352783203, 1.1111104488372803, -0.08710895478725433
11346, 0.033090196549892426, -0.2061966508626938, 0.007242694962769747, 0.0014017962384968996, 0.18781615793704987, 0.16451871395111084, 0.011677924543619156, 0.007155771367251873, 0.9988591074943542, 5.053455352783203, 1.1111104488372803, -0.08710895478725433, 0.0, 0.0, 0.0, 0, 0, 0, 0, 0, 0, 5.065948963165283, 1.1138538122177124, -0.08721653372049332
11356, 0.03257941082119942, -0.20625193417072296, 0.007090901490300894, 0.013117712922394276, -0.13251571357250214, 0.005123810842633247, 0.013552848249673843, 0.004705470521003008, 0.9979010820388794, 5.065948963165283, 1.1138538122177124, -0.08721653372049332, 0.0, 0.0, 0.0, 0, 0, 0, 0, 0, 0, 5.078458309173584, 1.116602897644043, -0.0873255804181099
11366, 0.03349902480840683, -0.20815154910087585, 0.009575075469911098, 0.17136798799037933, 0.22714641690254211, 0.36205124855041504, 0.017286552116274834, 0.004504460375756025, 1.0015228986740112, 5.078458309173584, 1.116602897644043, -0.0873255804181099, 0.0, 0.0, 0.0, 0, 0, 0, 0, 0, 0, 5.090985298156738, 1.1193561553955078, -0.08743534982204437
11376, 0.03280135989189148, -0.2085137963294983, 0.009890716522932053, -0.08308085054159164, 0.0968497097492218, 0.0670333132147789, 0.014672748744487762, 0.002501570386812091, 1.0001598596572876, 5.090985298156738, 1.1193561553955078, -0.08743534982204437, 0.0, 0.0, 0.0, 0, 0, 0, 0, 0, 0, 5.103531360626221, 1.12211275100708, -0.08754458278417587
11386, 0.03327678516507149, -0.20823632180690765, 0.010068989358842373, -0.05638004094362259, 0.08968367427587509, 0.09115438908338547, 0.013408592902123928, 0.0029305173084139824, 0.9990730881690979, 5.103531360626221, 1.12211275100708, -0.08754458278417587, 0.0, 0.0, 0.0, 0, 0, 0, 0, 0, 0, 5.116095066070557, 1.1248719692230225, -0.08765389770269394
11396, 0.03386254236102104, -0.20739145576953888, 0.00978709477931261, 0.07132965326309204, 0.025140443816781044, -0.030988125130534172, 0.014957666397094727, 0.005656389053910971, 1.0009697675704956, 5.116095066070557, 1.1248719692230225, -0.08765389770269394, 0.0, 0.0, 0.0, 0, 0, 0, 0, 0, 0, 5.128675937652588, 1.1276341676712036, -0.08776327222585678
11406, 0.03321103751659393, -0.2067338228225708, 0.01077469065785408, -0.010833708569407463, -0.10451335459947586, 0.11298050731420517, 0.013646038249135017, 0.0031048960518091917, 0.9989539980888367, 5.128675937652588, 1.1276341676712036, -0.08776327222585678, 0.0, 0.0, 0.0, 0, 0, 0, 0, 0, 0, 5.141274452209473, 1.1304000616073608, -0.0878724530339241
11416, 0.03270824998617172, -0.20874722301959991, 0.011015736497938633, -0.11732673645019531, 0.39765214920043945, 0.011983874253928661, 0.012517974711954594, 0.002876873593777418, 0.9983888864517212, 5.141274452209473, 1.1304000616073608, -0.0878724530339241, 0.0, 0.0, 0.0, 0, 0, 0, 0, 0, 0, 5.1538896560668945, 1.1331686973571777, -0.08798256516456604
11426, 0.03285324200987816, -0.20636118948459625, 0.010982323437929153, -0.06359647959470749, -0.22477740049362183, -0.10744776576757431, 0.013330609537661076, 0.004627761896699667, 0.9992084503173828, 5.1538896560668945, 1.1331686973571777, -0.08798256516456604, 0.0, 0.0, 0.0, 0, 0, 0, 0, 0, 0, 5.1665215492248535, 1.1359403133392334, -0.0880938395857811
11436, 0.034078553318977356, -0.20505480468273163, 0.010486273095011711, 0.2916436493396759, -0.09436891227960587, -0.02194911427795887, 0.014116582460701466, 0.003855565097182989, 0.999412477016449, 5.1665215492248535, 1.1359403133392334, -0.0880938395857811, 0.0, 0.0, 0.0, 0, 0, 0, 0, 0, 0, 5.17917013168335, 1.138715386390686, -0.08820577710866928
11446, 0.03300369903445244, -0.20359909534454346, 0.010684216395020485, -0.056474849581718445, -0.2272464781999588, 0.031306393444538116, 0.013890240341424942, 0.0040298993699252605, 0.9976204633712769, 5.17917013168335, 1.138715386390686, -0.08820577710866928, 0.0, 0.0, 0.0, 0, 0, 0, 0, 0, 0, 5.191836357116699, 1.141493797302246, -0.08831913769245148
11456, 0.03327091410756111, -0.20541438460350037, 0.011489562690258026, 0.06883180141448975, 0.2600974142551422, 0.09115730226039886, 0.012414930388331413, 0.005315937101840973, 0.998029351234436, 5.191836357116699, 1.141493797302246, -0.08831913769245148, 0.0, 0.0, 0.0, 0, 0, 0, 0, 0, 0, 5.204518795013428, 1.1442762613296509, -0.088434599339962
11466, 0.03324773535132408, -0.20561206340789795, 0.012763524428009987, -0.12634927034378052, -0.03515922650694847, 0.1389547735452652, 0.013144232332706451, 0.004350993316620588, 0.9998130798339844, 5.204518795013428, 1.1442762613296509, -0.088434599339962, 0.0, 0.0, 0.0, 0, 0, 0, 0, 0, 0, 5.217217445373535, 1.14706289768219, -0.08855126798152924
11476, 0.03339614346623421, -0.20596109330654144, 0.01214313693344593, 0.0005200355662964284, 0.055689193308353424, -0.14505380392074585, 0.013442585244774818, 0.0051050204783678055, 1.0003856420516968, 5.217217445373535, 1.14706289768219, -0.08855126798152924, 0.0, 0.0, 0.0, 0, 0, 0, 0, 0, 0, 5.22993278503418, 1.1498537063598633, -0.08866815268993378
11486, 0.03432903438806534, -0.2047489583492279, 0.01175954844802618, 0.09048663079738617, -0.28212466835975647, -0.13798892498016357, 0.012194245122373104, 0.004396866075694561, 1.0000174045562744, 5.22993278503418, 1.1498537063598633, -0.08866815268993378, 0.0, 0.0, 0.0, 0, 0, 0, 0, 0, 0, 5.242664337158203, 1.15264892578125, -0.08878491818904877
11496, 0.034179363399744034, -0.20428180694580078, 0.01187850534915924, 0.11485449224710464, -0.18184490501880646, -0.0019038483733311296, 0.012277036905288696, 0.0048593757674098015, 1.0011533498764038, 5.242664337158203, 1.15264892578125, -0.08878491818904877, 0.0, 0.0, 0.0, 0, 0, 0, 0, 0, 0, 5.255411624908447, 1.155448317527771, -0.08890129625797272
11506, 0.033863604068756104, -0.20522472262382507, 0.011148348450660706, 0.02363763004541397, 0.26379841566085815, -0.09732405841350555, 0.013607506640255451, 0.0021149911917746067, 1.0005104541778564, 5.255411624908447, 1.155448317527771, -0.08890129625797272, 0.0, 0.0, 0.0, 0, 0, 0, 0, 0, 0, 5.26817512512207, 1.1582509279251099, -0.08901669085025787
11516, 0.03362438082695007, -0.2055548131465912, 0.011237887665629387, -0.16904082894325256, 0.0965418592095375, 0.020325466990470886, 0.013228563591837883, 0.0023595434613525867, 1.0005106925964355, 5.26817512512207, 1.1582509279251099, -0.08901669085025787, 0.0, 0.0, 0.0, 0, 0, 0, 0, 0, 0, 5.280954837799072, 1.161055326461792, -0.08913122117519379
11526, 0.03367717191576958, -0.2044684737920761, 0.01007707230746746, 0.14148728549480438, -0.2968830466270447, -0.08177032321691513, 0.01480307150632143, 0.002974817529320717, 0.9997075796127319, 5.280954837799072, 1.161055326461792, -0.08913122117519379, 0.0, 0.0, 0.0, 0, 0, 0, 0, 0, 0, 5.2937517166137695, 1.1638615131378174, -0.08924544602632523
11536, 0.03282513841986656, -0.20551903545856476, 0.009289355017244816, -0.08468545973300934, -0.019862312823534012, 0.035551704466342926, 0.014097001403570175, 0.004553938750177622, 1.0011839866638184, 5.2937517166137695, 1.1638615131378174, -0.08924544602632523, 0.0, 0.0, 0.0, 0, 0, 0, 0, 0, 0, 5.30656623840332, 1.166670322418213, -0.08935937285423279
11546, 0.03140610456466675, -0.20741862058639526, 0.00936114601790905, -0.21202629804611206, 0.22974878549575806, 0.11130259931087494, 0.013595296069979668, 0.0066616530530154705, 1.0037416219711304, 5.30656623840332, 1.166670322418213, -0.08935937285423279, 0.0, 0.0, 0.0, 0, 0, 0, 0, 0, 0, 5.319397926330566, 1.1694835424423218, -0.08947151154279709
11556, 0.031158316880464554, -0.20887665450572968, 0.00975675880908966, -0.025669896975159645, 0.08441033959388733, 0.07591929286718369, 0.012597514316439629, 0.004666130058467388, 1.0008325576782227, 5.319397926330566, 1.1694835424423218, -0.08947151154279709, 0.0, 0.0, 0.0, 0, 0, 0, 0, 0, 0, 5.33224630355835, 1.1723018884658813, -0.08958115428686142
11566, 0.031747784465551376, -0.20738975703716278, 0.009759343229234219, 0.16220881044864655, -0.327292799949646, -0.007412021514028311, 0.011465857736766338, 0.0045330217108130455, 0.9966639280319214, 5.33224630355835, 1.1723018884658813, -0.08958115428686142, 0.0, 0.0, 0.0, 0, 0, 0, 0, 0, 0, 5.3451104164123535, 1.1751244068145752, -0.08969128131866455
11576, 0.03235948085784912, -0.20518727600574493, 0.008275729604065418, 0.0210452601313591, -0.13092003762722015, -0.1589658111333847, 0.012499538250267506, 0.003963429946452379, 1.0004874467849731, 5.3451104164123535, 1.1751244068145752, -0.08969128131866455, 0.0, 0.0, 0.0, 0, 0, 0, 0, 0, 0, 5.35798978805542, 1.1779505014419556, -0.0898030549287796
11586, 0.03313899785280228, -0.20754721760749817, 0.007196252699941397, 0.06273366510868073, 0.39771926403045654, -0.19491450488567352, 0.01194958109408617, 0.00409306026995182, 1.0014238357543945, 5.35798978805542, 1.1779505014419556, -0.0898030549287796, 0.0, 0.0, 0.0, 0, 0, 0, 0, 0, 0, 5.370884418487549, 1.180780053138733, -0.0899142175912857
11596, 0.033227454870939255, -0.20655709505081177, 0.00658441474661231, -0.012288917787373066, -0.20863410830497742, -0.06637508422136307, 0.013868048787117004, 0.00318543310277164, 1.000770926475525, 5.370884418487549, 1.180780053138733, -0.0899142175912857, 0.0, 0.0, 0.0, 0, 0, 0, 0, 0, 0, 5.383794784545898, 1.1836127042770386, -0.09002401679754257
11606, 0.03390151262283325, -0.20974785089492798, 0.007031717803329229, 0.056610751897096634, 0.257394403219223, -0.0171523354947567, 0.012969977222383022, 0.0027539327275007963, 0.9992710947990417, 5.383794784545898, 1.1836127042770386, -0.09002401679754257, 0.0, 0.0, 0.0, 0, 0, 0, 0, 0, 0, 5.396721839904785, 1.1864477396011353, -0.09013347327709198
11616, 0.03483003377914429, -0.21151255071163177, 0.007621095050126314, 0.07905346155166626, 0.20502246916294098, 0.16152092814445496, 0.013851121068000793, 0.0040763732977211475, 0.9988830089569092, 5.396721839904785, 1.1864477396011353, -0.09013347327709198, 0.0, 0.0, 0.0, 0, 0, 0, 0, 0, 0, 5.409665584564209, 1.1892856359481812, -0.0902436152100563
11626, 0.035301145166158676, -0.2129153311252594, 0.008495001122355461, 0.16900984942913055, 0.2554906904697418, 0.04688607528805733, 0.013971948064863682, 0.002871173433959484, 0.9974524974822998, 5.409665584564209, 1.1892856359481812, -0.0902436152100563, 0.0, 0.0, 0.0, 0, 0, 0, 0, 0, 0, 5.42262601852417, 1.1921263933181763, -0.09035514295101166
11636, 0.034639835357666016, -0.2122141420841217, 0.009360349737107754, -0.27608445286750793, 0.010640237480401993, -0.25145646929740906, 0.010946039110422134, 0.004093043506145477, 0.9967457056045532, 5.42262601852417, 1.1921263933181763, -0.09035514295101166, 0.0, 0.0, 0.0, 0, 0, 0, 0, 0, 0, 5.43560266494751, 1.194969892501831, -0.0904691144824028
11646, 0.033833060413599014, -0.21411336958408356, 0.009349300526082516, -0.04631517827510834, 0.08561603724956512, 0.19495004415512085, 0.010860198177397251, 0.0040632449090480804, 0.9995384216308594, 5.43560266494751, 1.194969892501831, -0.0904691144824028, 0.0, 0.0, 0.0, 0, 0, 0, 0, 0, 0, 5.448594093322754, 1.1978166103363037, -0.09058550745248795
11656, 0.034155476838350296, -0.21584877371788025, 0.007286603096872568, 0.04634939134120941, 0.21177123486995697, -0.282163143157959, 0.010372546501457691, 0.003568297950550914, 0.9997420310974121, 5.448594093322754, 1.1978166103363037, -0.09058550745248795, 0.0, 0.0, 0.0, 0, 0, 0, 0, 0, 0, 5.461599826812744, 1.2006665468215942, -0.0907026082277298
11666, 0.03379872441291809, -0.21457605063915253, 0.006447719410061836, -0.14563678205013275, -0.19894656538963318, 0.05562017858028412, 0.012620062567293644, 0.003346117679029703, 0.9989376664161682, 5.461599826812744, 1.2006665468215942, -0.0907026082277298, 0.0, 0.0, 0.0, 0, 0, 0, 0, 0, 0, 5.4746198654174805, 1.2035191059112549, -0.09081999212503433
11676, 0.03268597647547722, -0.21507684886455536, 0.00742710055783391, -0.039036016911268234, -0.07097454369068146, 0.1917082518339157, 0.013184729963541031, 0.005640622694045305, 0.9987686276435852, 5.4746198654174805, 1.2035191059112549, -0.09081999212503433, 0.0, 0.0, 0.0, 0, 0, 0, 0, 0, 0, 5.4876556396484375, 1.2063748836517334, -0.09093819558620453
11686, 0.032373227179050446, -0.21503163874149323, 0.005724320188164711, -0.17025913298130035, -0.052952446043491364, -0.27054423093795776, 0.013485702686011791, 0.006407369859516621, 1.0004616975784302, 5.4876556396484375, 1.2063748836517334, -0.09093819558620453, 0.0, 0.0, 0.0, 0, 0, 0, 0, 0, 0, 5.500708103179932, 1.209235429763794, -0.0910569503903389
11696, 0.03256124258041382, -0.21499566733837128, 0.005715665407478809, -0.02028494141995907, 0.24728085100650787, 0.11497028917074203, 0.013241508044302464, 0.006056651007384062, 1.0005297660827637, 5.500708103179932, 1.209235429763794, -0.0910569503903389, 0.0, 0.0, 0.0, 0, 0, 0, 0, 0, 0, 5.513777732849121, 1.2121015787124634, -0.09117548167705536
11706, 0.03143632039427757, -0.2140413373708725, 0.006054252851754427, -0.20753102004528046, 0.01981024630367756, 0.2212069183588028, 0.012726936489343643, 0.0050697471015155315, 0.9998874068260193, 5.513777732849121, 1.2121015787124634, -0.09117548167705536, 0.0, 0.0, 0.0, 0, 0, 0, 0, 0, 0, 5.5268635749816895, 1.214972972869873, -0.0912938341498375
11716, 0.032372694462537766, -0.21694345772266388, 0.007190582808107138, 0.055607397109270096, 0.36547020077705383, 0.1930975615978241, 0.010278970934450626, 0.003414524719119072, 0.999713659286499, 5.5268635749816895, 1.214972972869873, -0.0912938341498375, 0.0, 0.0, 0.0, 0, 0, 0, 0, 0, 0, 5.541275978088379, 1.2181364297866821, -0.09142432361841202
11726, 0.032005589455366135, -0.21754203736782074, 0.007557926699519157, -0.06604059785604477, 0.06527961790561676, 0.04231083765625954, 0.01335191261023283, 0.002099966397508979, 0.9985643029212952, 5.541275978088379, 1.2181364297866821, -0.09142432361841202, 0.0, 0.0, 0.0, 0, 0, 0, 0, 0, 0, 5.554394245147705, 1.2210149765014648, -0.09154342859983444
11736, 0.031367331743240356, -0.21830317378044128, 0.0067893145605921745, -0.06068361923098564, 0.23910561203956604, -0.1899181455373764, 0.012703434564173222, 0.0030750432051718235, 0.9991939067840576, 5.554394245147705, 1.2210149765014648, -0.09154342859983444, 0.0, 0.0, 0.0, 0, 0, 0, 0, 0, 0, 5.567529201507568, 1.22389554977417, -0.09166353940963745
11746, 0.03135199472308159, -0.21857966482639313, 0.007755726110190153, -0.07111521065235138, 0.04942277818918228, 0.016971005126833916, 0.01347909402102232, 0.004634280223399401, 1.002809762954712, 5.567529201507568, 1.22389554977417, -0.09166353940963745, 0.0, 0.0, 0.0, 0, 0, 0, 0, 0, 0, 5.580680847167969, 1.2267789840698242, -0.09178335219621658
11756, 0.03077569603919983, -0.21915782988071442, 0.007148991338908672, -0.012908436357975006, 0.1381508708000183, 0.14000700414180756, 0.013265189714729786, 0.005044258665293455, 1.000580072402954, 5.580680847167969, 1.2267789840698242, -0.09178335219621658, 0.0, 0.0, 0.0, 0, 0, 0, 0, 0, 0, 5.593849182128906, 1.2296663522720337, -0.09190158545970917
11766, 0.03003545105457306, -0.219717875123024, 0.006055117584764957, -0.045833978801965714, 0.18065916001796722, -0.08871743828058243, 0.012095375917851925, 0.004243936855345964, 0.999088704586029, 5.593849182128906, 1.2296663522720337, -0.09190158545970917, 0.0, 0.0, 0.0, 0, 0, 0, 0, 0, 0, 5.593849182128906, 1.2296663522720337, -0.09190158545970917
11776, 0.029680514708161354, -0.21870222687721252, 0.005989115685224533, 0.010370914824306965, -0.11669068783521652, 0.05086638405919075, 0.010292204096913338, 0.0062581924721598625, 0.9992585182189941, 5.607034206390381, 1.2325576543807983, -0.09201932698488235, 0.0, 0.0, 0.0, 0, 0, 0, 0, 0, 0, 5.620234489440918, 1.2354533672332764, -0.09213759005069733
11786, 0.02867552638053894, -0.2211507260799408, 0.006513915024697781, -0.02171851135790348, 0.19706083834171295, 0.20285826921463013, 0.011149322614073753, 0.005928785540163517, 1.0000073909759521, 5.620234489440918, 1.2354533672332764, -0.09213759005069733, 0.0, 0.0, 0.0, 0, 0, 0, 0, 0, 0, 5.620234489440918, 1.2354533672332764, -0.09213759005069733
11796, 0.027245135977864265, -0.2231748253107071, 0.005462436471134424, -0.13595005869865417, 0.331694632768631, -0.19180704653263092, 0.014850703999400139, 0.0032669941429048777, 1.0011671781539917, 5.633449077606201, 1.2383544445037842, -0.09225615859031677, 0.0, 0.0, 0.0, 0, 0, 0, 0, 0, 0, 5.633449077606201, 1.2383544445037842, -0.09225615859031677
11806, 0.027284864336252213, -0.22319099307060242, 0.004843532107770443, 0.047619130462408066, -0.04568029195070267, -0.07399971783161163, 0.013034476898610592, 0.004463363438844681, 1.0018702745437622, 5.648003578186035, 1.2415504455566406, -0.09238594025373459, 0.0, 0.0, 0.0, 0, 0, 0, 0, 0, 0, 5.648003578186035, 1.2415504455566406, -0.09238594025373459
11816, 0.026622481644153595, -0.22405876219272614, 0.005449701566249132, -0.048801060765981674, 0.19111819565296173, 0.11877897381782532, 0.014869761653244495, 0.0037862693425267935, 1.001656174659729, 5.661253452301025, 1.2444595098495483, -0.09250246733427048, 0.0, 0.0, 0.0, 0, 0, 0, 0, 0, 0, 5.661253452301025, 1.2444595098495483, -0.09250246733427048
11826, 0.026830609887838364, -0.22382918000221252, 0.00386197492480278, 0.044284772127866745, -0.09824054688215256, -0.22198450565338135, 0.01204395666718483, 0.004698583390563726, 1.0011940002441406, 5.674520969390869, 1.247372031211853, -0.09261733293533325, 0.0, 0.0, 0.0, 0, 0, 0, 0, 0, 0, 5.674520969390869, 1.247372031211853, -0.09261733293533325
11836, 0.027086835354566574, -0.22674910724163055, 0.005532620009034872, 0.07858851552009583, 0.44536054134368896, 0.28680485486984253, 0.012985192239284515, 0.00331478170119226, 1.0009442567825317, 5.687805652618408, 1.2502881288528442, -0.09273085743188858, 0.0, 0.0, 0.0, 0, 0, 0, 0, 0, 0, 5.687805652618408, 1.2502881288528442, -0.09273085743188858
11846, 0.02642066404223442, -0.22609631717205048, 0.004078385420143604, -0.06383442878723145, -0.15827222168445587, -0.09514995664358139, 0.013231816701591015, 0.0025156275369226933, 0.9999852776527405, 5.701106548309326, 1.2532075643539429, -0.09284348040819168, 0.0, 0.0, 0.0, 0, 0, 0, 0, 0, 0, 5.701106548309326, 1.2532075643539429, -0.09284348040819168
11856, 0.025579538196325302, -0.22705411911010742, 0.0036175025161355734, -0.08825819939374924, 0.21774399280548096, -0.009342203848063946, 0.013884929940104485, 0.004343807697296143, 1.0009914636611938, 5.714424133300781, 1.2561297416687012, -0.09295563399791718, 0.0, 0.0, 0.0, 0, 0, 0, 0, 0, 0, 5.714424133300781, 1.2561297416687012, -0.09295563399791718
11866, 0.025128642097115517, -0.229119211435318, 0.004848899785429239, -0.09192731976509094, 0.32507097721099854, -0.07143646478652954, 0.011733976192772388, 0.00389071274548769, 1.001186490058899, 5.727758884429932, 1.2590548992156982, -0.09306720644235611, 0.0, 0.0, 0.0, 0, 0, 0, 0, 0, 0, 5.727758884429932, 1.2590548992156982, -0.09306720644235611
11876, 0.02537624165415764, -0.22783569991588593, 0.005566908046603203, 0.07326263934373856, -0.20432396233081818, -0.015248915180563927, 0.01230611652135849, 0.0053031835705041885, 0.9986960887908936, 5.741110324859619, 1.2619837522506714, -0.09317784011363983, 0.0, 0.0, 0.0, 0, 0, 0, 0, 0, 0, 5.741110324859619, 1.2619837522506714, -0.09317784011363983
11886, 0.02528785541653633, -0.228143110871315, 0.005940264090895653, -0.040528472512960434, 0.06110825762152672, -0.06984720379114151, 0.012612998485565186, 0.0046737054362893105, 0.9998537302017212, 5.754477500915527, 1.2649166584014893, -0.09328843653202057, 0.0, 0.0, 0.0, 0, 0, 0, 0, 0, 0, 5.754477500915527, 1.2649166584014893, -0.09328843653202057
11896, 0.02472561039030552, -0.2278798520565033, 0.005826921202242374, -0.019495952874422073, -0.06264001131057739, -0.00010175416537094861, 0.012300851754844189, 0.0034354275558143854, 1.0000568628311157, 5.767860412597656, 1.26785409450531, -0.09339956194162369, 0.0, 0.0, 0.0, 0, 0, 0, 0, 0, 0, 5.767860412597656, 1.26785409450531, -0.09339956194162369
11906, 0.02563435025513172, -0.22838439047336578, 0.005890707019716501, 0.13190588355064392, 0.1795148104429245, 0.027439914643764496, 0.01230891514569521, 0.0020965333096683025, 0.9998293519020081, 5.781259536743164, 1.2707951068878174, -0.0935106948018074, 0.0, 0.0, 0.0, 0, 0, 0, 0, 0, 0, 5.781259536743164, 1.2707951068878174, -0.0935106948018074
11916, 0.025759318843483925, -0.22880423069000244, 0.00811153743416071, -0.04243796691298485, 0.05604934319853783, 0.34451353549957275, 0.011881749145686626, 0.002062237588688731, 1.001125693321228, 5.794674396514893, 1.2737385034561157, -0.09362177550792694, 0.0, 0.0, 0.0, 0, 0, 0, 0, 0, 0, 5.794674396514893, 1.2737385034561157, -0.09362177550792694
11926, 0.025637956336140633, -0.23028849065303802, 0.01033245399594307, 0.019978052005171776, 0.05611221119761467, 0.30360373854637146, 0.011471809819340706, 0.0010964159155264497, 0.9992713928222656, 5.80810546875, 1.2766833305358887, -0.09373246133327484, 0.0, 0.0, 0.0, 0, 0, 0, 0, 0, 0, 5.80810546875, 1.2766833305358887, -0.09373246133327484
11936, 0.026495182886719704, -0.2308536022901535, 0.011575387790799141, 0.15578307211399078, 0.09411444514989853, 0.09464515745639801, 0.010426715947687626, 0.0024565812200307846, 0.9991332292556763, 5.82155179977417, 1.2796292304992676, -0.09384297579526901, 0.0, 0.0, 0.0, 0, 0, 0, 0, 0, 0, 5.82155179977417, 1.2796292304992676, -0.09384297579526901
11946, 0.02717036008834839, -0.23080725967884064, 0.010071508586406708, 0.12640519440174103, 0.030548011884093285, -0.28445807099342346, 0.01426818035542965, 0.003682888811454177, 1.0008058547973633, 5.835012912750244, 1.2825764417648315, -0.09395425021648407, 0.0, 0.0, 0.0, 0, 0, 0, 0, 0, 0, 5.835012912750244, 1.2825764417648315, -0.09395425021648407
11956, 0.02699912339448929, -0.23078525066375732, 0.009913715533912182, 0.048347193747758865, 0.05340883135795593, -0.15689536929130554, 0.013540077023208141, 0.002976296003907919, 0.9997547268867493, 5.848490238189697, 1.2855263948440552, -0.09406571090221405, 0.0, 0.0, 0.0, 0, 0, 0, 0, 0, 0, 5.848490238189697, 1.2855263948440552, -0.09406571090221405
11966, 0.02752719633281231, -0.22920720279216766, 0.010200987569987774, 0.1507156938314438, -0.3466169834136963, -0.01871088147163391, 0.012833652086555958, 0.00565433781594038, 0.998378574848175, 5.861985206604004, 1.2884793281555176, -0.09417697787284851, 0.0, 0.0, 0.0, 0, 0, 0, 0, 0, 0, 5.861985206604004, 1.2884793281555176, -0.09417697787284851
11976, 0.02791511081159115, -0.22969311475753784, 0.010056770406663418, 0.12592527270317078, 0.15229381620883942, -0.015360877849161625, 0.011025802232325077, 0.004349687602370977, 0.9990093111991882, 5.875496864318848, 1.291435956954956, -0.09428912401199341, 0.0, 0.0, 0.0, 0, 0, 0, 0, 0, 0, 5.875496864318848, 1.291435956954956, -0.09428912401199341
11986, 0.026942068710923195, -0.22924399375915527, 0.011147771961987019, -0.05099203810095787, -0.06932417303323746, 0.15417981147766113, 0.01277327723801136, 0.002926289103925228, 1.0017505884170532, 5.88902473449707, 1.2943968772888184, -0.09440247714519501, 0.0, 0.0, 0.0, 0, 0, 0, 0, 0, 0, 5.88902473449707, 1.2943968772888184, -0.09440247714519501
11996, 0.027669649571180344, -0.22957734763622284, 0.011035109870135784, 0.1294812560081482, -0.09721840918064117, -0.053493864834308624, 0.013506647199392319, 0.004502677358686924, 1.000735878944397, 5.902568340301514, 1.2973610162734985, -0.09451565891504288, 0.0, 0.0, 0.0, 0, 0, 0, 0, 0, 0, 5.902568340301514, 1.2973610162734985, -0.09451565891504288
12006, 0.02860007807612419, -0.22957147657871246, 0.011449717916548252, 0.03271026536822319, 0.06499925255775452, -0.019584087654948235, 0.01176310796290636, 0.0032084628473967314, 0.9983428120613098, 5.916128158569336, 1.3003281354904175, -0.09462800621986389, 0.0, 0.0, 0.0, 0, 0, 0, 0, 0, 0, 5.916128158569336, 1.3003281354904175, -0.09462800621986389
12016, 0.029282130300998688, -0.23081974685192108, 0.009826128371059895, 0.04910033568739891, 0.18090832233428955, -0.21535678207874298, 0.013282384723424911, 0.004075247794389725, 0.9992799758911133, 5.929704666137695, 1.3032983541488647, -0.0947408601641655, 0.0, 0.0, 0.0, 0, 0, 0, 0, 0, 0, 5.929704666137695, 1.3032983541488647, -0.0947408601641655
12026, 0.029386717826128006, -0.23013317584991455, 0.011354239657521248, -0.002219980815425515, -0.05576849356293678, 0.14547497034072876, 0.013299921527504921, 0.004592725541442633, 0.9981489777565002, 5.943297386169434, 1.3062715530395508, -0.09485487639904022, 0.0, 0.0, 0.0, 0, 0, 0, 0, 0, 0, 5.943297386169434, 1.3062715530395508, -0.09485487639904022
12036, 0.02839924767613411, -0.23055657744407654, 0.011586872860789299, -0.24096882343292236, -0.06778267025947571, -0.060018643736839294, 0.013633204624056816, 0.004137233830988407, 1.0005066394805908, 5.956907272338867, 1.3092483282089233, -0.09497008472681046, 0.0, 0.0, 0.0, 0, 0, 0, 0, 0, 0, 5.956907272338867, 1.3092483282089233, -0.09497008472681046
12046, 0.028763508424162865, -0.23264895379543304, 0.01268350426107645, 0.05839937552809715, 0.3097681999206543, 0.061845868825912476, 0.014420024119317532, 0.004611480515450239, 1.0028986930847168, 5.970534324645996, 1.312228798866272, -0.0950857400894165, 0.0, 0.0, 0.0, 0, 0, 0, 0, 0, 0, 5.970534324645996, 1.312228798866272, -0.0950857400894165
12056, 0.029262186959385872, -0.23385237157344818, 0.012709825299680233, 0.1431480199098587, 0.055110931396484375, 0.07930219918489456, 0.013907910324633121, 0.005233882460743189, 1.0011006593704224, 5.9841790199279785, 1.3152129650115967, -0.09519971907138824, 0.0, 0.0, 0.0, 0, 0, 0, 0, 0, 0, 5.9841790199279785, 1.3152129650115967, -0.09519971907138824
12066, 0.029178129509091377, -0.23216350376605988, 0.011496694758534431, -0.10788033902645111, -0.11855851858854294, -0.10811235755681992, 0.014389678835868835, 0.00509609142318368, 0.9995787143707275, 5.9978413581848145, 1.3182013034820557, -0.09531156718730927, 0.0, 0.0, 0.0, 0, 0, 0, 0, 0, 0, 5.9978413581848145, 1.3182013034820557, -0.09531156718730927
12076, 0.02980247512459755, -0.2316008359193802, 0.012437832541763783, 0.08457369357347488, -0.10531545430421829, 0.23018500208854675, 0.012817311100661755, 0.0044267731718719006, 0.9989702701568604, 6.011521816253662, 1.321194052696228, -0.09542285650968552, 0.0, 0.0, 0.0, 0, 0, 0, 0, 0, 0, 6.011521816253662, 1.321194052696228, -0.09542285650968552
12086, 0.030555222183465958, -0.23291005194187164, 0.012589888647198677, 0.1518266648054123, 0.1923852264881134, 0.09696801006793976, 0.012646719813346863, 0.004144845064729452, 0.9984924793243408, 6.025219440460205, 1.3241908550262451, -0.09553483873605728, 0.0, 0.0, 0.0, 0, 0, 0, 0, 0, 0, 6.025219440460205, 1.3241908550262451, -0.09553483873605728
12096, 0.030213406309485435, -0.2332262396812439, 0.013632857240736485, -0.14106832444667816, 0.041084177792072296, 0.14998383820056915, 0.013413578271865845, 0.004957688041031361, 0.9999125003814697, 6.038933753967285, 1.3271914720535278, -0.09564809501171112, 0.0, 0.0, 0.0, 0, 0, 0, 0, 0, 0, 6.038933753967285, 1.3271914720535278, -0.09564809501171112
12106, 0.029414111748337746, -0.22956067323684692, 0.013426534831523895, -0.0988885760307312, -0.43280309438705444, -0.002812500111758709, 0.014331412501633167, 0.0029873521998524666, 1.0014322996139526, 6.052664756774902, 1.3301960229873657, -0.0957622155547142, 0.0, 0.0, 0.0, 0, 0, 0, 0, 0, 0, 6.052664756774902, 1.3301960229873657, -0.0957622155547142
12116, 0.029561391100287437, -0.22892242670059204, 0.01422685943543911, 0.12107747048139572, -0.012590860016644001, 0.12609995901584625, 0.013604748994112015, 0.005569515284150839, 0.9996874332427979, 6.066413402557373, 1.333203911781311, -0.0958758145570755, 0.0, 0.0, 0.0, 0, 0, 0, 0, 0, 0, 6.066413402557373, 1.333203911781311, -0.0958758145570755
12126, 0.02897275798022747, -0.2284490019083023, 0.014761233702301979, -0.056061141192913055, -0.07720964401960373, -0.021396052092313766, 0.011624998413026333, 0.003142300061881542, 0.9989690780639648, 6.080179691314697, 1.3362152576446533, -0.09598887711763382, 0.0, 0.0, 0.0, 0, 0, 0, 0, 0, 0, 6.080179691314697, 1.3362152576446533, -0.09598887711763382
12136, 0.02988913282752037, -0.22889505326747894, 0.015720626339316368, -0.004443825222551823, 0.11568379402160645, 0.14670728147029877, 0.010647966526448727, 0.0031150998547673225, 1.0004478693008423, 6.0939621925354, 1.3392302989959717, -0.09610256552696228, 0.0, 0.0, 0.0, 0, 0, 0, 0, 0, 0, 6.0939621925354, 1.3392302989959717, -0.09610256552696228
12146, 0.02885558269917965, -0.22898723185062408, 0.01621425524353981, -0.2048768401145935, 0.06728625297546387, -0.05634061619639397, 0.012132109142839909, 0.004102665930986404, 1.0009769201278687, 6.107759952545166, 1.3422480821609497, -0.09621655941009521, 0.0, 0.0, 0.0, 0, 0, 0, 0, 0, 0, 6.107759952545166, 1.3422480821609497, -0.09621655941009521
12156, 0.028491562232375145, -0.22879038751125336, 0.016863033175468445, -0.05076386407017708, 0.05226503312587738, -0.11081600934267044, 0.013494177721440792, 0.0060691824182868, 0.9990369081497192, 6.121572494506836, 1.345268726348877, -0.09632991999387741, 0.0, 0.0, 0.0, 0, 0, 0, 0, 0, 0, 6.121572494506836, 1.345268726348877, -0.09632991999387741
12166, 0.027544714510440826, -0.23047874867916107, 0.016218392178416252, -0.06806368380784988, 0.3236103355884552, 0.025318646803498268, 0.011857643723487854, 0.0049077607691287994, 0.999870240688324, 6.135401725769043, 1.3482937812805176, -0.09644322097301483, 0.0, 0.0, 0.0, 0, 0, 0, 0, 0, 0, 6.135401725769043, 1.3482937812805176, -0.09644322097301483
12176, 0.02741141803562641, -0.23033004999160767, 0.016703879460692406, 0.06888236105442047, -0.09430718421936035, 0.016838539391756058, 0.01260621752589941, 0.0061097173020243645, 1.0001293420791626, 6.149247169494629, 1.3513236045837402, -0.09655703604221344, 0.0, 0.0, 0.0, 0, 0, 0, 0, 0, 0, 6.149247169494629, 1.3513236045837402, -0.09655703604221344
12186, 0.027974525466561317, -0.23001760244369507, 0.018007583916187286, 0.15068422257900238, -0.03559384122490883, 0.20852655172348022, 0.012054180726408958, 0.005544265266507864, 1.0008163452148438, 6.1631083488464355, 1.3543583154678345, -0.09667087346315384, 0.0, 0.0, 0.0, 0, 0, 0, 0, 0, 0, 6.1631083488464355, 1.3543583154678345, -0.09667087346315384
12196, 0.02780674397945404, -0.2310132086277008, 0.017626270651817322, -0.15200476348400116, 0.06803090870380402, -0.05078762397170067, 0.012962534092366695, 0.005131654441356659, 1.00023353099823, 6.176985740661621, 1.3573980331420898, -0.0967843309044838, 0.0, 0.0, 0.0, 0, 0, 0, 0, 0, 0, 6.176985740661621, 1.3573980331420898, -0.0967843309044838
12206, 0.027489665895700455, -0.23330436646938324, 0.018388686701655388, -0.05062316358089447, 0.23504965007305145, 0.21208535134792328, 0.012449109926819801, 0.0040643601678311825, 1.0009275674819946, 6.1908793449401855, 1.3604426383972168, -0.09689728915691376, 0.0, 0.0, 0.0, 0, 0, 0, 0, 0, 0, 6.1908793449401855, 1.3604426383972168, -0.09689728915691376
12216, 0.026900162920355797, -0.23372258245944977, 0.01947394572198391, -0.06601100414991379, 0.16510199010372162, 0.04982718825340271, 0.01228663045912981, 0.0031119270715862513, 0.9996735453605652, 6.204789161682129, 1.3634912967681885, -0.09700957685709, 0.0, 0.0, 0.0, 0, 0, 0, 0, 0, 0, 6.204789161682129, 1.3634912967681885, -0.09700957685709
12226, 0.027390485629439354, -0.23474431037902832, 0.019777990877628326, 0.07103490829467773, 0.09088434278964996, 0.1412339210510254, 0.012845643796026707, 0.004925807937979698, 1.0000998973846436, 6.218715190887451, 1.3665430545806885, -0.09712142497301102, 0.0, 0.0, 0.0, 0, 0, 0, 0, 0, 0, 6.218715190887451, 1.3665430545806885, -0.09712142497301102
12236, 0.026996370404958725, -0.23667100071907043, 0.019495218992233276, -0.1481868326663971, 0.33623620867729187, 0.07738881558179855, 0.01527408231049776, 0.002812914550304413, 1.0017311573028564, 6.232657432556152, 1.3695982694625854, -0.09723313897848129, 0.0, 0.0, 0.0, 0, 0, 0, 0, 0, 0, 6.232657432556152, 1.3695982694625854, -0.09723313897848129
12246, 0.02771516516804695, -0.23461543023586273, 0.01852731965482235, 0.07274556905031204, -0.28671976923942566, -0.18400456011295319, 0.013742090202867985, 0.0029201367869973183, 0.9998165369033813, 6.246617317199707, 1.3726565837860107, -0.09734392911195755, 0.0, 0.0, 0.0, 0, 0, 0, 0, 0, 0, 6.246617317199707, 1.3726565837860107, -0.09734392911195755
12256, 0.028317192569375038, -0.23267577588558197, 0.018611997365951538, 0.0025249423924833536, -0.1642451137304306, -0.02790386974811554, 0.013033393770456314, 0.004565994255244732, 0.999156653881073, 6.260595798492432, 1.3757174015045166, -0.09745386987924576, 0.0, 0.0, 0.0, 0, 0, 0, 0, 0, 0, 6.260595798492432, 1.3757174015045166, -0.09745386987924576
12266, 0.02899843640625477, -0.23231537640094757, 0.018704717978835106, 0.05457913130521774, 0.06777112931013107, -0.0596163235604763, 0.011514993384480476, 0.003297150833532214, 1.0007563829421997, 6.274591445922852, 1.3787814378738403, -0.09756401926279068, 0.0, 0.0, 0.0, 0, 0, 0, 0, 0, 0, 6.274591445922852, 1.3787814378738403, -0.09756401926279068
12276, 0.03017616458237171, -0.23212626576423645, 0.018007643520832062, 0.1739310324192047, -0.02609471045434475, -0.07550422102212906, 0.010348483920097351, 0.003897896036505699, 0.999527096748352, 6.288602828979492, 1.3818488121032715, -0.09767409414052963, 0.0, 0.0, 0.0, 0, 0, 0, 0, 0, 0, 6.288602828979492, 1.3818488121032715, -0.09767409414052963
12286, 0.030457383021712303, -0.23213410377502441, 0.019369561225175858, 0.12731251120567322, -0.22046935558319092, 0.18430393934249878, 0.010980612598359585, 0.005156421102583408, 0.9990434646606445, 6.302628993988037, 1.384919285774231, -0.09778403490781784, 0.0, 0.0, 0.0, 0, 0, 0, 0, 0, 0, 6.302628993988037, 1.384919285774231, -0.09778403490781784
12296, 0.030818508937954903, -0.232549250125885, 0.01870403252542019, 0.10484322160482407, -0.14753764867782593, -0.12588156759738922, 0.013207152485847473, 0.003953083883970976, 0.9992452263832092, 6.316669940948486, 1.387993574142456, -0.0978945940732956, 0.0, 0.0, 0.0, 0, 0, 0, 0, 0, 0, 6.316669940948486, 1.387993574142456, -0.0978945940732956
12306, 0.0317472405731678, -0.2323576807975769, 0.02080003172159195, 0.16379782557487488, -0.0017284909263253212, 0.2918201684951782, 0.014030094258487225, 0.002609431277960539, 1.0006452798843384, 6.330726623535156, 1.3910716772079468, -0.0980059877038002, 0.0, 0.0, 0.0, 0, 0, 0, 0, 0, 0, 6.330726623535156, 1.3910716772079468, -0.0980059877038002
12316, 0.03182020038366318, -0.2317933440208435, 0.020877128466963768, 0.00010604297858662903, -0.09109997749328613, 0.021945692598819733, 0.012306117452681065, 0.002717616269364953, 0.9977893233299255, 6.3448004722595215, 1.3941526412963867, -0.09811750799417496, 0.0, 0.0, 0.0, 0, 0, 0, 0, 0, 0, 6.3448004722595215, 1.3941526412963867, -0.09811750799417496
12326, 0.03161080181598663, -0.23354202508926392, 0.0223875492811203, -0.09373156726360321, 0.33164817094802856, 0.34135541319847107, 0.013084102421998978, 0.0032146130688488483, 0.9990759491920471, 6.358891487121582, 1.3972357511520386, -0.09822945296764374, 0.0, 0.0, 0.0, 0, 0, 0, 0, 0, 0, 6.358891487121582, 1.3972357511520386, -0.09822945296764374
12336, 0.030720405280590057, -0.23285725712776184, 0.02059904858469963, -0.19081780314445496, -0.06030697003006935, -0.24762867391109467, 0.012800260446965694, 0.004027428105473518, 0.9994320273399353, 6.3729987144470215, 1.4003214836120605, -0.09834267944097519, 0.0, 0.0, 0.0, 0, 0, 0, 0, 0, 0, 6.3729987144470215, 1.4003214836120605, -0.09834267944097519
12346, 0.030910713598132133, -0.23175260424613953, 0.022245153784751892, -0.04925203323364258, -0.06589768081903458, 0.17707088589668274, 0.014422746375203133, 0.004039187915623188, 1.0002859830856323, 6.387122631072998, 1.4034101963043213, -0.09845674782991409, 0.0, 0.0, 0.0, 0, 0, 0, 0, 0, 0, 6.387122631072998, 1.4034101963043213, -0.09845674782991409
12356, 0.031610969454050064, -0.23069411516189575, 0.02275886945426464, 0.045899081975221634, 0.08221856504678726, 0.09034698456525803, 0.013930349610745907, 0.0034375623799860477, 1.001844048500061, 6.40126371383667, 1.406502366065979, -0.09857089072465897, 0.0, 0.0, 0.0, 0, 0, 0, 0, 0, 0, 6.40126371383667, 1.406502366065979, -0.09857089072465897
12366, 0.03218798339366913, -0.22870463132858276, 0.02138182520866394, 0.06410200893878937, -0.0416293703019619, -0.28395453095436096, 0.013717505149543285, 0.004225039388984442, 1.0023378133773804, 6.4154229164123535, 1.4095977544784546, -0.09868399053812027, 0.0, 0.0, 0.0, 0, 0, 0, 0, 0, 0, 6.4154229164123535, 1.4095977544784546, -0.09868399053812027
12376, 0.03167909383773804, -0.22965829074382782, 0.02040633000433445, -0.05350491777062416, 0.1553976833820343, -0.15322691202163696, 0.013817238621413708, 0.005428565200418234, 0.99949049949646, 6.429599761962891, 1.4126962423324585, -0.09879512339830399, 0.0, 0.0, 0.0, 0, 0, 0, 0, 0, 0, 6.429599761962891, 1.4126962423324585, -0.09879512339830399
12386, 0.031908806413412094, -0.23110626637935638, 0.021575547754764557, 0.07091542333364487, 0.2790153920650482, 0.1462315171957016, 0.014119908213615417, 0.005654572509229183, 1.0000132322311401, 6.443794250488281, 1.4157986640930176, -0.09890525043010712, 0.0, 0.0, 0.0, 0, 0, 0, 0, 0, 0, 6.443794250488281, 1.4157986640930176, -0.09890525043010712
12396, 0.03207521513104439, -0.23158466815948486, 0.022554166615009308, -0.025326965376734734, 0.1264902949333191, 0.18368634581565857, 0.014734159223735332, 0.0027207783423364162, 1.0017342567443848, 6.458005905151367, 1.4189058542251587, -0.09901545196771622, 0.0, 0.0, 0.0, 0, 0, 0, 0, 0, 0, 6.458005905151367, 1.4189058542251587, -0.09901545196771622
12406, 0.03242482617497444, -0.231744647026062, 0.021694928407669067, 0.027298500761389732, 0.02475694753229618, 0.005863250698894262, 0.013766640797257423, 0.004247525241225958, 1.0000563859939575, 6.472235679626465, 1.4220167398452759, -0.09912485629320145, 0.0, 0.0, 0.0, 0, 0, 0, 0, 0, 0, 6.472235679626465, 1.4220167398452759, -0.09912485629320145
12416, 0.03244464099407196, -0.23201268911361694, 0.02305302955210209, -0.07902898639440536, -0.01593625359237194, 0.10331027209758759, 0.013131408952176571, 0.005715399514883757, 0.996697187423706, 6.486483573913574, 1.4251307249069214, -0.09923352301120758, 0.0, 0.0, 0.0, 0, 0, 0, 0, 0, 0, 6.486483573913574, 1.4251307249069214, -0.09923352301120758
12426, 0.03172186762094498, -0.23059715330600739, 0.023625096306204796, 0.0416678823530674, -0.13184301555156708, -0.006169652566313744, 0.016112638637423515, 0.002969437977299094, 1.0005766153335571, 6.500748634338379, 1.4282488822937012, -0.0993436649441719, 0.0, 0.0, 0.0, 0, 0, 0, 0, 0, 0, 6.500748634338379, 1.4282488822937012, -0.0993436649441719
12436, 0.031686682254076004, -0.23183223605155945, 0.02382684126496315, 0.1175898090004921, 0.27280133962631226, 0.19317182898521423, 0.013364128768444061, 0.0025910099502652884, 1.0012887716293335, 6.515031814575195, 1.4313706159591675, -0.09945526719093323, 0.0, 0.0, 0.0, 0, 0, 0, 0, 0, 0, 6.515031814575195, 1.4313706159591675, -0.09945526719093323
12446, 0.03138918802142143, -0.23060934245586395, 0.022301508113741875, 0.03223351016640663, -0.13786707818508148, -0.178050234913826, 0.011121192947030067, 0.002541967201977968, 1.0001899003982544, 6.529333591461182, 1.4344944953918457, -0.09956634044647217, 0.0, 0.0, 0.0, 0, 0, 0, 0, 0, 0, 6.529333591461182, 1.4344944953918457, -0.09956634044647217
12456, 0.031143076717853546, -0.23112155497074127, 0.02236746996641159, -0.03284402936697006, -0.08140997588634491, 0.04824264720082283, 0.013617709279060364, 0.002006042515859008, 1.000020146369934, 6.543652057647705, 1.4376204013824463, -0.09967666119337082, 0.0, 0.0, 0.0, 0, 0, 0, 0, 0, 0, 6.543652057647705, 1.4376204013824463, -0.09967666119337082
12466, 0.03136960789561272, -0.2326776683330536, 0.02315925993025303, -0.005250085145235062, 0.07524695992469788, 0.0846196711063385, 0.013512697070837021, 0.004412379581481218, 1.0000094175338745, 6.557986259460449, 1.4407482147216797, -0.09978680312633514, 0.0, 0.0, 0.0, 0, 0, 0, 0, 0, 0, 6.557986259460449, 1.4407482147216797, -0.09978680312633514
12476, 0.03166695684194565, -0.2334108203649521, 0.022438183426856995, 0.04505426064133644, 0.022822782397270203, -0.014373339712619781, 0.01384719554334879, 0.005330645013600588, 1.0011677742004395, 6.572337627410889, 1.4438787698745728, -0.09989702701568604, 0.0, 0.0, 0.0, 0, 0, 0, 0, 0, 0, 6.572337627410889, 1.4438787698745728, -0.09989702701568604
12486, 0.03284279257059097, -0.23428700864315033, 0.02191077172756195, 0.05617520213127136, 0.18983310461044312, -0.010672236792743206, 0.013692338019609451, 0.003252557246014476, 1.0010297298431396, 6.586706638336182, 1.447013020515442, -0.10000666230916977, 0.0, 0.0, 0.0, 0, 0, 0, 0, 0, 0, 6.586706638336182, 1.447013020515442, -0.10000666230916977
12496, 0.03255004063248634, -0.23421317338943481, 0.02256309799849987, 0.008945113979279995, 0.02961888536810875, 0.13522040843963623, 0.01367922406643629, 0.00294220051728189, 0.9993239045143127, 6.60109281539917, 1.450150966644287, -0.10011511296033859, 0.0, 0.0, 0.0, 0, 0, 0, 0, 0, 0, 6.60109281539917, 1.450150966644287, -0.10011511296033859
12506, 0.033307239413261414, -0.2336501181125641, 0.022927194833755493, 0.24583746492862701, -0.09436377137899399, 0.044590312987565994, 0.013014610856771469, 0.005080428905785084, 0.9992503523826599, 6.615496635437012, 1.4532915353775024, -0.10022316128015518, 0.0, 0.0, 0.0, 0, 0, 0, 0, 0, 0, 6.615496635437012, 1.4532915353775024, -0.10022316128015518
12516, 0.032951969653367996, -0.23337215185165405, 0.023728150874376297, 0.001248636981472373, -0.0629868358373642, 0.08709673583507538, 0.012108257971704006, 0.0025352404918521643, 0.9984893798828125, 6.629917621612549, 1.4564353227615356, -0.10033173859119415, 0.0, 0.0, 0.0, 0, 0, 0, 0, 0, 0, 6.629917621612549, 1.4564353227615356, -0.10033173859119415
12526, 0.03368520736694336, -0.23434510827064514, 0.024238336831331253, 0.051805529743433, 0.24156306684017181, 0.035339146852493286, 0.014145874418318272, 0.003121580695733428, 0.9979501366615295, 6.644354820251465, 1.4595823287963867, -0.10044140368700027, 0.0, 0.0, 0.0, 0, 0, 0, 0, 0, 0, 6.644354820251465, 1.4595823287963867, -0.10044140368700027
12536, 0.034278832376003265, -0.2352609634399414, 0.024841109290719032, 0.04530644789338112, 0.013612293638288975, 0.043263740837574005, 0.012196606956422329, 0.00607003690674901, 0.9998921155929565, 6.658809185028076, 1.4627317190170288, -0.10055263340473175, 0.0, 0.0, 0.0, 0, 0, 0, 0, 0, 0, 6.658809185028076, 1.4627317190170288, -0.10055263340473175
12546, 0.03435053676366806, -0.23767898976802826, 0.024877749383449554, -0.019131552428007126, 0.3530621826648712, -0.019022569060325623, 0.014632371254265308, 0.003879820229485631, 0.9996053576469421, 6.673280239105225, 1.4658846855163574, -0.10066495090723038, 0.0, 0.0, 0.0, 0, 0, 0, 0, 0, 0, 6.673280239105225, 1.4658846855163574, -0.10066495090723038
12556, 0.0338694229722023, -0.2379543036222458, 0.025043413043022156, -0.0784342810511589, 0.03336740657687187, 0.025522815063595772, 0.01388493087142706, 0.004330225754529238, 1.0013391971588135, 6.687768459320068, 1.4690420627593994, -0.10077765583992004, 0.0, 0.0, 0.0, 0, 0, 0, 0, 0, 0, 6.687768459320068, 1.4690420627593994, -0.10077765583992004
12566, 0.03457404673099518, -0.23774993419647217, 0.02505936287343502, 0.1382620930671692, -0.07488829642534256, 0.04388761147856712, 0.013254641555249691, 0.0054757739417254925, 1.0012034177780151, 6.702274322509766, 1.472203254699707, -0.10089005529880524, 0.0, 0.0, 0.0, 0, 0, 0, 0, 0, 0, 6.702274322509766, 1.472203254699707, -0.10089005529880524
12576, 0.034627027809619904, -0.2389131486415863, 0.02464679814875126, 0.03527170792222023, -0.06963372230529785, 0.004661942832171917, 0.012022684328258038, 0.003318269271403551, 1.00023353099823, 6.716797828674316, 1.4753684997558594, -0.1010012999176979, 0.0, 0.0, 0.0, 0, 0, 0, 0, 0, 0, 6.716797828674316, 1.4753684997558594, -0.1010012999176979
12586, 0.03529157117009163, -0.23923882842063904, 0.025372041389346123, 0.06787177920341492, -0.13010533154010773, 0.1357353925704956, 0.012665542773902416, 0.0030944524332880974, 0.9996926784515381, 6.731337547302246, 1.4785375595092773, -0.10111179202795029, 0.0, 0.0, 0.0, 0, 0, 0, 0, 0, 0, 6.731337547302246, 1.4785375595092773, -0.10111179202795029
12596, 0.03503543511033058, -0.2393697053194046, 0.025927362963557243, -0.11170315742492676, 0.06184270605444908, 0.06802080571651459, 0.011750494129955769, 0.0038600866682827473, 1.000558853149414, 6.745893955230713, 1.481709361076355, -0.10122237354516983, 0.0, 0.0, 0.0, 0, 0, 0, 0, 0, 0, 6.745893955230713, 1.481709361076355, -0.10122237354516983
12606, 0.03395426645874977, -0.2402917742729187, 0.02510514296591282, -0.20510157942771912, 0.26913484930992126, 0.0037230339366942644, 0.01177268661558628, 0.003858299693092704, 0.9993606805801392, 6.7604660987854, 1.4848839044570923, -0.10133302211761475, 0.0, 0.0, 0.0, 0, 0, 0, 0, 0, 0, 6.7604660987854, 1.4848839044570923, -0.10133302211761475
12616, 0.0341709665954113, -0.24016694724559784, 0.0237975362688303, 0.002070282818749547, -0.06745763123035431, -0.09027591347694397, 0.01237363088876009, 0.004953698720782995, 0.9975103735923767, 6.775053977966309, 1.4880616664886475, -0.1014438271522522, 0.0, 0.0, 0.0, 0, 0, 0, 0, 0, 0, 6.775053977966309, 1.4880616664886475, -0.1014438271522522
12626, 0.035102371126413345, -0.24049049615859985, 0.022955749183893204, 0.14892078936100006, -0.14089232683181763, -0.02840142697095871, 0.011881696991622448, 0.0033447067253291607, 0.996131956577301, 6.789658069610596, 1.4912432432174683, -0.10155613720417023, 0.0, 0.0, 0.0, 0, 0, 0, 0, 0, 0, 6.789658069610596, 1.4912432432174683, -0.10155613720417023
12636, 0.03490903973579407, -0.2401914894580841, 0.02484893426299095, -0.034938350319862366, -0.07751880586147308, 0.24440623819828033, 0.013541321270167828, 0.002848587231710553, 1.0003321170806885, 6.804278373718262, 1.4944283962249756, -0.10167152434587479, 0.0, 0.0, 0.0, 0, 0, 0, 0, 0, 0, 6.804278373718262, 1.4944283962249756, -0.10167152434587479
12646, 0.03486175835132599, -0.24005240201950073, 0.024471789598464966, 0.007255152333527803, 0.01917402260005474, -0.0760585367679596, 0.013901714235544205, 0.0037494399584829807, 1.000449776649475, 6.818915367126465, 1.497616171836853, -0.10178888589143753, 0.0, 0.0, 0.0, 0, 0, 0, 0, 0, 0, 6.818915367126465, 1.497616171836853, -0.10178888589143753
12656, 0.03540727496147156, -0.23837319016456604, 0.02471512369811535, 0.09122904390096664, -0.20384162664413452, -0.009427324868738651, 0.014436054043471813, 0.0026556793600320816, 0.9989041090011597, 6.8335700035095215, 1.5008066892623901, -0.1019061729311943, 0.0, 0.0, 0.0, 0, 0, 0, 0, 0, 0, 6.8335700035095215, 1.5008066892623901, -0.1019061729311943
12666, 0.0340685211122036, -0.23813419044017792, 0.026202097535133362, -0.2598230242729187, 0.20699428021907806, 0.07020626962184906, 0.013178917579352856, 0.0055487086065113544, 1.0019663572311401, 6.84824275970459, 1.503999948501587, -0.10202348232269287, 0.0, 0.0, 0.0, 0, 0, 0, 0, 0, 0, 6.84824275970459, 1.503999948501587, -0.10202348232269287
12676, 0.03338569402694702, -0.23659498989582062, 0.024329816922545433, -0.1547292172908783, -0.1606975644826889, -0.23733572661876678, 0.012611476704478264, 0.0042180949822068214, 0.9995034337043762, 6.862933158874512, 1.5071964263916016, -0.10214027762413025, 0.0, 0.0, 0.0, 0, 0, 0, 0, 0, 0, 6.862933158874512, 1.5071964263916016, -0.10214027762413025
12686, 0.03397102281451225, -0.23523901402950287, 0.024385979399085045, 0.08515551686286926, -0.05124124139547348, 0.023091934621334076, 0.012048213742673397, 0.0036138962022960186, 1.0005701780319214, 6.877640247344971, 1.5103965997695923, -0.1022564172744751, 0.0, 0.0, 0.0, 0, 0, 0, 0, 0, 0, 6.877640247344971, 1.5103965997695923, -0.1022564172744751
12696, 0.034048594534397125, -0.2347135692834854, 0.024032946676015854, -0.0993453711271286, -0.10630272328853607, -0.0848027840256691, 0.013816063292324543, 0.005636742804199457, 1.0026494264602661, 6.892363548278809, 1.5135999917984009, -0.1023724153637886, 0.0, 0.0, 0.0, 0, 0, 0, 0, 0, 0, 6.892363548278809, 1.5135999917984009, -0.1023724153637886
12706, 0.03487986698746681, -0.23344549536705017, 0.025624962523579597, -0.015856703743338585, -0.12174656987190247, 0.23005281388759613, 0.0126131447032094, 0.005448559299111366, 0.9993739724159241, 6.907103538513184, 1.5168074369430542, -0.10248707979917526, 0.0, 0.0, 0.0, 0, 0, 0, 0, 0, 0, 6.907103538513184, 1.5168074369430542, -0.10248707979917526
12716, 0.0349794439971447, -0.23343276977539062, 0.024877768009901047, 0.06833568960428238, 0.30805230140686035, -0.20259679853916168, 0.013762361370027065, 0.0046512954868376255, 0.998058021068573, 6.921860694885254, 1.5200198888778687, -0.10260085016489029, 0.0, 0.0, 0.0, 0, 0, 0, 0, 0, 0, 6.921860694885254, 1.5200198888778687, -0.10260085016489029
