timeTick, roll, pitch, yaw, gyroX, gyroY, gyroZ, accX, accY, accZ, stateX, stateY, stateZ, target_x, target_y, target_z, otX, otY, otZ, otRoll, otPitch, otYaw, kalX, kalY, kalZ
10365, 0.015500531531870365, -0.010696947574615479, 0.11284002661705017, 0, 0, 0, 0, 0, 0, 0, 0, 0, 0, 0, 0, 0, 0, 0, 0, 0, 0, 0, 0, 0
10375, 0.014544081874191761, -0.010803543962538242, 0.11196811497211456, -0.05517667531967163, -0.06120052561163902, -0.11418808996677399, -0.003771577961742878, -0.005739463958889246, 0.9991953372955322, -0.5044425129890442, -1.398013949394226, -0.11572480201721191, 0.0, 0.0, 0.0, 0, 0, 0, 0, 0, 0, -0.5044425129890442, -1.398013949394226, -0.11572480201721191
10385, 0.014859587885439396, -0.01145162433385849, 0.11314594745635986, 0.06826800853013992, 0.06321996450424194, 0.23222161829471588, -0.0023577993270009756, -0.005534054711461067, 0.9989874958992004, -0.5058490633964539, -1.4019553661346436, -0.11602966487407684, 0.0, 0.0, 0.0, 0, 0, 0, 0, 0, 0, -0.5058490633964539, -1.4019553661346436, -0.11602966487407684
10395, 0.01563102938234806, -0.01198634784668684, 0.11325518786907196, 0.042459554970264435, 0.10023345053195953, -0.10526100546121597, -0.002170565305277705, -0.004495281260460615, 0.9993746876716614, -0.5072585940361023, -1.4059022665023804, -0.11633505672216415, 0.0, 0.0, 0.0, 0, 0, 0, 0, 0, 0, -0.5072585940361023, -1.4059022665023804, -0.11633505672216415
10405, 0.01622517593204975, -0.013325436972081661, 0.11472586542367935, 0.010942335240542889, 0.09551145881414413, 0.008651917800307274, -0.001010065316222608, -0.006931433919817209, 0.9994707107543945, -0.5086702704429626, -1.4098546504974365, -0.11664130538702011, 0.0, 0.0, 0.0, 0, 0, 0, 0, 0, 0, -0.5086702704429626, -1.4098546504974365, -0.11664130538702011
10415, 0.016177332028746605, -0.011011157184839249, 0.11380945891141891, -0.051993317902088165, -0.3866215646266937, -0.1510721743106842, -0.001601516967639327, -0.006030796095728874, 1.0006095170974731, -0.5100833177566528, -1.4138126373291016, -0.1169482171535492, 0.0, 0.0, 0.0, 0, 0, 0, 0, 0, 0, -0.5100833177566528, -1.4138126373291016, -0.1169482171535492
10425, 0.015338363125920296, -0.011283572763204575, 0.11314873397350311, -0.09894022345542908, 0.17890051007270813, -0.2466326355934143, -0.002634048229083419, -0.005245896056294441, 0.9996745586395264, -0.511497437953949, -1.4177769422531128, -0.11725557595491409, 0.0, 0.0, 0.0, 0, 0, 0, 0, 0, 0, -0.511497437953949, -1.4177769422531128, -0.11725557595491409
10435, 0.014982407912611961, -0.009318097494542599, 0.11268306523561478, 0.0001438498729839921, -0.33116796612739563, 0.07999026775360107, -0.0036716549657285213, -0.004997829906642437, 0.9989091753959656, -0.5129135251045227, -1.421747088432312, -0.11756295710802078, 0.0, 0.0, 0.0, 0, 0, 0, 0, 0, 0, -0.5129135251045227, -1.421747088432312, -0.11756295710802078
10445, 0.01595732755959034, -0.011189610697329044, 0.11229807883501053, 0.09697185456752777, 0.20728707313537598, -0.05751887336373329, -0.00164738018065691, -0.007201178465038538, 0.9981029033660889, -0.51433265209198, -1.425722599029541, -0.11787068843841553, 0.0, 0.0, 0.0, 0, 0, 0, 0, 0, 0, -0.51433265209198, -1.425722599029541, -0.11787068843841553
10455, 0.01726580411195755, -0.011853046715259552, 0.1128043457865715, 0.06124558672308922, 0.06892392784357071, 0.05678771808743477, 0.0005903844721615314, -0.004369083791971207, 0.9991457462310791, -0.515754759311676, -1.4297040700912476, -0.11817970126867294, 0.0, 0.0, 0.0, 0, 0, 0, 0, 0, 0, -0.515754759311676, -1.4297040700912476, -0.11817970126867294
10465, 0.01780642755329609, -0.014696203172206879, 0.11384429037570953, 0.04202466458082199, 0.27039775252342224, -0.0016686427406966686, -0.0026433097664266825, -0.006917604245245457, 1.0010154247283936, -0.5171775221824646, -1.433691382408142, -0.11849000304937363, 0.0, 0.0, 0.0, 0, 0, 0, 0, 0, 0, -0.5171775221824646, -1.433691382408142, -0.11849000304937363
10475, 0.0170641727745533, -0.01642773114144802, 0.11493002623319626, -0.25441786646842957, 0.3958219587802887, -0.06329533457756042, -0.0050926823168993, -0.007384424563497305, 0.9986546039581299, -0.5186005234718323, -1.4376842975616455, -0.11880064010620117, 0.0, 0.0, 0.0, 0, 0, 0, 0, 0, 0, -0.5186005234718323, -1.4376842975616455, -0.11880064010620117
10485, 0.017165444791316986, -0.016516713425517082, 0.1145542562007904, -0.07800281047821045, -0.0019846679642796516, -0.06339424848556519, -0.0032622346188873053, -0.005469919182360172, 0.9990270137786865, -0.5200265645980835, -1.4416842460632324, -0.11911141872406006, 0.0, 0.0, 0.0, 0, 0, 0, 0, 0, 0, -0.5200265645980835, -1.4416842460632324, -0.11911141872406006
10495, 0.017710193991661072, -0.01607964187860489, 0.11407067626714706, 0.06303424388170242, 0.09652835130691528, -0.08679482340812683, -0.002738636452704668, -0.006135878618806601, 0.9999781250953674, -0.5214564204216003, -1.4456912279129028, -0.11942298710346222, 0.0, 0.0, 0.0, 0, 0, 0, 0, 0, 0, -0.5214564204216003, -1.4456912279129028, -0.11942298710346222
10505, 0.017711292952299118, -0.016637710854411125, 0.1141144186258316, -0.0015540758613497019, 0.023978551849722862, -0.017992263659834862, -0.002561687957495451, -0.005188066512346268, 0.9990890622138977, -0.5228890180587769, -1.4497042894363403, -0.11973518878221512, 0.0, 0.0, 0.0, 0, 0, 0, 0, 0, 0, -0.5228890180587769, -1.4497042894363403, -0.11973518878221512
10515, 0.016896096989512444, -0.016227340325713158, 0.11319705098867416, -0.1396251916885376, 0.0860510915517807, -0.025537461042404175, -0.0032540953252464533, -0.004995162133127451, 0.9986627101898193, -0.5243238806724548, -1.4537230730056763, -0.12004761397838593, 0.0, 0.0, 0.0, 0, 0, 0, 0, 0, 0, -0.5243238806724548, -1.4537230730056763, -0.12004761397838593
10525, 0.016972249373793602, -0.014053025282919407, 0.11218595504760742, 0.1673033982515335, -0.2577580213546753, 0.055435456335544586, -0.001802391605451703, -0.004787167068570852, 0.9989875555038452, -0.525761067867279, -1.457747220993042, -0.12036082148551941, 0.0, 0.0, 0.0, 0, 0, 0, 0, 0, 0, -0.525761067867279, -1.457747220993042, -0.12036082148551941
10535, 0.016586074605584145, -0.016404006630182266, 0.1107310950756073, -0.10702832043170929, 0.2587857246398926, -0.11708676069974899, -0.0019488792167976499, -0.005681569222360849, 1.0004284381866455, -0.52720046043396, -1.4617764949798584, -0.12067515403032303, 0.0, 0.0, 0.0, 0, 0, 0, 0, 0, 0, -0.52720046043396, -1.4617764949798584, -0.12067515403032303
10545, 0.015392557717859745, -0.017486995086073875, 0.1094406321644783, -0.15450817346572876, 0.021783996373414993, -0.1448604315519333, -0.0015305752167478204, -0.006555822677910328, 0.9984143376350403, -0.528641939163208, -1.465811014175415, -0.1209898367524147, 0.0, 0.0, 0.0, 0, 0, 0, 0, 0, 0, -0.528641939163208, -1.465811014175415, -0.1209898367524147
10555, 0.01595214009284973, -0.018346032127738, 0.10846125334501266, 0.025191936641931534, 0.10062636435031891, -0.25432461500167847, -0.004317501559853554, -0.006508989259600639, 0.9981140494346619, -0.5300850868225098, -1.4698514938354492, -0.1213049665093422, 0.0, 0.0, 0.0, 0, 0, 0, 0, 0, 0, -0.5300850868225098, -1.4698514938354492, -0.1213049665093422
10565, 0.016381049528717995, -0.018841587007045746, 0.1106661930680275, 0.02241847664117813, 0.0770224928855896, 0.3950340449810028, -0.0035737408325076103, -0.0061014192178845406, 0.9978089928627014, -0.5315304398536682, -1.4738985300064087, -0.12162143737077713, 0.0, 0.0, 0.0, 0, 0, 0, 0, 0, 0, -0.5315304398536682, -1.4738985300064087, -0.12162143737077713
10575, 0.016174059361219406, -0.019003024324774742, 0.11048374325037003, -0.060392774641513824, 0.07654356956481934, 0.06043796241283417, -0.002642085077241063, -0.0051879556849598885, 0.999489963054657, -0.5329789519309998, -1.4779521226882935, -0.1219395101070404, 0.0, 0.0, 0.0, 0, 0, 0, 0, 0, 0, -0.5329789519309998, -1.4779521226882935, -0.1219395101070404
10585, 0.01648498699069023, -0.018968036398291588, 0.11061081290245056, 0.07081221789121628, -0.07728520780801773, -0.0020714954007416964, -0.0025409141089767218, -0.005590254440903664, 1.0014203786849976, -0.5344301462173462, -1.4820117950439453, -0.12225900590419769, 0.0, 0.0, 0.0, 0, 0, 0, 0, 0, 0, -0.5344301462173462, -1.4820117950439453, -0.12225900590419769
10595, 0.016277754679322243, -0.017994411289691925, 0.11091242730617523, 0.025311553850769997, -0.11480853706598282, 0.15443478524684906, -0.0028515912126749754, -0.0063980030827224255, 0.9982864260673523, -0.5358836054801941, -1.486076831817627, -0.1225787103176117, 0.0, 0.0, 0.0, 0, 0, 0, 0, 0, 0, -0.5358836054801941, -1.486076831817627, -0.1225787103176117
10605, 0.017300913110375404, -0.019784165546298027, 0.110816091299057, 0.23400132358074188, 0.3087528944015503, 0.016559431329369545, -0.0016109145944938064, -0.003751881653442979, 0.9995752573013306, -0.5373395085334778, -1.490147590637207, -0.12289823591709137, 0.0, 0.0, 0.0, 0, 0, 0, 0, 0, 0, -0.5373395085334778, -1.490147590637207, -0.12289823591709137
10615, 0.017137743532657623, -0.021416202187538147, 0.11127321422100067, -0.14132823050022125, 0.22230343520641327, 0.03964592516422272, -0.0013358114520087838, -0.0023041823878884315, 1.0005085468292236, -0.5387974977493286, -1.494223713874817, -0.12321864813566208, 0.0, 0.0, 0.0, 0, 0, 0, 0, 0, 0, -0.5387974977493286, -1.494223713874817, -0.12321864813566208
10625, 0.017713768407702446, -0.021655865013599396, 0.11052568256855011, 0.009161122143268585, 0.07165468484163284, -0.03720200061798096, -0.0019679302349686623, -0.0044456166215240955, 0.9995089173316956, -0.5402565598487854, -1.4983034133911133, -0.12353944778442383, 0.0, 0.0, 0.0, 0, 0, 0, 0, 0, 0, -0.5402565598487854, -1.4983034133911133, -0.12353944778442383
10635, 0.01701464131474495, -0.021040303632616997, 0.10974300652742386, -0.1172894835472107, 0.07526437193155289, -0.18898987770080566, -0.0018193982541561127, -0.005298358853906393, 0.9979835748672485, -0.5417166352272034, -1.5023865699768066, -0.12386006116867065, 0.0, 0.0, 0.0, 0, 0, 0, 0, 0, 0, -0.5417166352272034, -1.5023865699768066, -0.12386006116867065
10645, 0.017914606258273125, -0.021087123081088066, 0.10928250104188919, 0.03360361605882645, -0.013328693807125092, 0.030271803960204124, -0.0011707022786140442, -0.0062892138957977295, 0.999407172203064, -0.5431782603263855, -1.5064747333526611, -0.12418164312839508, 0.0, 0.0, 0.0, 0, 0, 0, 0, 0, 0, -0.5431782603263855, -1.5064747333526611, -0.12418164312839508
10655, 0.017807386815547943, -0.022105352953076363, 0.10867315530776978, 0.05083821713924408, 0.16306130588054657, -0.0008091838681139052, -0.0016971913864836097, -0.0061989957466721535, 0.9987894296646118, -0.544641375541687, -1.5105688571929932, -0.12450442463159561, 0.0, 0.0, 0.0, 0, 0, 0, 0, 0, 0, -0.544641375541687, -1.5105688571929932, -0.12450442463159561
10665, 0.017484327778220177, -0.022131390869617462, 0.10956746339797974, -0.056815918534994125, -0.02058635652065277, 0.10041892528533936, -0.0020302324555814266, -0.00663079833611846, 0.999911367893219, -0.5461055040359497, -1.5146690607070923, -0.12482789158821106, 0.0, 0.0, 0.0, 0, 0, 0, 0, 0, 0, -0.5461055040359497, -1.5146690607070923, -0.12482789158821106
10675, 0.018019331619143486, -0.02275487221777439, 0.10992933064699173, 0.1331651657819748, 0.0642070546746254, -0.04084637388586998, -0.002357127610594034, -0.004601561464369297, 0.9983496069908142, -0.5475710034370422, -1.5187758207321167, -0.12515215575695038, 0.0, 0.0, 0.0, 0, 0, 0, 0, 0, 0, -0.5475710034370422, -1.5187758207321167, -0.12515215575695038
10685, 0.018871532753109932, -0.02652144618332386, 0.1104394719004631, 0.22352974116802216, 0.4767996668815613, 0.1649499535560608, -0.0026757114101201296, -0.0037995646707713604, 0.9986574053764343, -0.5490382313728333, -1.5228886604309082, -0.12547732889652252, 0.0, 0.0, 0.0, 0, 0, 0, 0, 0, 0, -0.5490382313728333, -1.5228886604309082, -0.12547732889652252
10695, 0.016884563490748405, -0.027778849005699158, 0.10901297628879547, -0.27469319105148315, 0.03278389573097229, -0.2273823469877243, -0.003152603982016444, -0.005817065946757793, 1.001349687576294, -0.5505072474479675, -1.527005910873413, -0.12580399215221405, 0.0, 0.0, 0.0, 0, 0, 0, 0, 0, 0, -0.5505072474479675, -1.527005910873413, -0.12580399215221405
10705, 0.016958536580204964, -0.02752295695245266, 0.1085340678691864, 0.03914887458086014, -0.13729655742645264, -0.1309492439031601, -0.0005619619623757899, -0.005226610228419304, 1.0009868144989014, -0.5519786477088928, -1.5311279296875, -0.12613143026828766, 0.0, 0.0, 0.0, 0, 0, 0, 0, 0, 0, -0.5519786477088928, -1.5311279296875, -0.12613143026828766
10715, 0.017905939370393753, -0.028358787298202515, 0.10955221951007843, 0.12608033418655396, -0.07587911188602448, 0.2354486733675003, -0.002426292048767209, -0.005107466131448746, 0.9998655319213867, -0.5534517765045166, -1.5352553129196167, -0.1264580488204956, 0.0, 0.0, 0.0, 0, 0, 0, 0, 0, 0, -0.5534517765045166, -1.5352553129196167, -0.1264580488204956
10725, 0.017014851793646812, -0.02808360941708088, 0.10945024341344833, 0.02208935283124447, -0.1076989471912384, 0.2214471995830536, -0.002120046177878976, -0.004998760297894478, 1.0016485452651978, -0.5549259185791016, -1.5393881797790527, -0.12678402662277222, 0.0, 0.0, 0.0, 0, 0, 0, 0, 0, 0, -0.5549259185791016, -1.5393881797790527, -0.12678402662277222
10735, 0.016701973974704742, -0.028653455898165703, 0.10856422036886215, 0.041414156556129456, 0.0428629070520401, -0.07453107088804245, -0.001617475412786007, -0.005978288594633341, 0.9994650483131409, -0.5564015507698059, -1.543526291847229, -0.12710942327976227, 0.0, 0.0, 0.0, 0, 0, 0, 0, 0, 0, -0.5564015507698059, -1.543526291847229, -0.12710942327976227
10745, 0.016093522310256958, -0.028367888182401657, 0.11056365072727203, -0.04838082939386368, 0.028562812134623528, 0.19736498594284058, -0.0036499756388366222, -0.0041303373873233795, 0.9980769753456116, -0.5578787326812744, -1.5476701259613037, -0.12743420898914337, 0.0, 0.0, 0.0, 0, 0, 0, 0, 0, 0, -0.5578787326812744, -1.5476701259613037, -0.12743420898914337
10755, 0.017227720469236374, -0.026152098551392555, 0.11115662753582001, 0.16192832589149475, -0.003223394975066185, -0.004056587815284729, -0.003462535096332431, -0.0036937682889401913, 0.9986048340797424, -0.559357762336731, -1.5518195629119873, -0.12776000797748566, 0.0, 0.0, 0.0, 0, 0, 0, 0, 0, 0, -0.559357762336731, -1.5518195629119873, -0.12776000797748566
10765, 0.01644594967365265, -0.027616847306489944, 0.1123894527554512, -0.05290162190794945, 0.05978918820619583, 0.12436744570732117, -0.003936950583010912, -0.006021419074386358, 0.9999768137931824, -0.5608393549919128, -1.5559732913970947, -0.1280875951051712, 0.0, 0.0, 0.0, 0, 0, 0, 0, 0, 0, -0.5608393549919128, -1.5559732913970947, -0.1280875951051712
10775, 0.015747299417853355, -0.027697429060935974, 0.11324180662631989, -0.05650700256228447, -0.05666996166110039, 0.31061264872550964, -0.0034504972863942385, -0.0034537040628492832, 0.9985623359680176, -0.562324047088623, -1.5601317882537842, -0.12841591238975525, 0.0, 0.0, 0.0, 0, 0, 0, 0, 0, 0, -0.562324047088623, -1.5601317882537842, -0.12841591238975525
10785, 0.015614091418683529, -0.029132353141903877, 0.11386261880397797, -0.03551599755883217, 0.15243886411190033, 0.056479956954717636, -0.0009651854052208364, -0.0012885307660326362, 1.001082420349121, -0.5638119578361511, -1.5642954111099243, -0.1287449449300766, 0.0, 0.0, 0.0, 0, 0, 0, 0, 0, 0, -0.5638119578361511, -1.5642954111099243, -0.1287449449300766
10795, 0.015198897570371628, -0.028351740911602974, 0.11411172151565552, 0.015036093071103096, -0.1027187630534172, -0.10035235434770584, -0.00041011415305547416, -0.00458926148712635, 1.000307321548462, -0.5653020739555359, -1.5684623718261719, -0.12907454371452332, 0.0, 0.0, 0.0, 0, 0, 0, 0, 0, 0, -0.5653020739555359, -1.5684623718261719, -0.12907454371452332
10805, 0.016005834564566612, -0.02778230421245098, 0.11584459245204926, 0.09437357634305954, -0.024432163685560226, 0.22905202209949493, -1.4034061678103171e-05, -0.00817787554115057, 1.0014793872833252, -0.5667930841445923, -1.5726319551467896, -0.12940378487110138, 0.0, 0.0, 0.0, 0, 0, 0, 0, 0, 0, -0.5667930841445923, -1.5726319551467896, -0.12940378487110138
10815, 0.016038499772548676, -0.025788698345422745, 0.11454648524522781, 0.08154427260160446, -0.1989527940750122, -0.2702992260456085, -0.002222000155597925, -0.00670517235994339, 1.0012344121932983, -0.5682840347290039, -1.5768071413040161, -0.12973244488239288, 0.0, 0.0, 0.0, 0, 0, 0, 0, 0, 0, -0.5682840347290039, -1.5768071413040161, -0.12973244488239288
10825, 0.015951398760080338, -0.025942552834749222, 0.11505543440580368, 0.09084994345903397, 0.07325131446123123, 0.3189908564090729, -0.0027921092696487904, -0.005101561080664396, 0.9984189867973328, -0.5697753429412842, -1.5809897184371948, -0.1300598829984665, 0.0, 0.0, 0.0, 0, 0, 0, 0, 0, 0, -0.5697753429412842, -1.5809897184371948, -0.1300598829984665
10835, 0.01647745445370674, -0.025693831965327263, 0.11668644845485687, 0.015556653961539268, -0.10490526258945465, 0.17479145526885986, 0.0006187723483890295, -0.00414299825206399, 0.999685525894165, -0.5712684988975525, -1.5851788520812988, -0.13038693368434906, 0.0, 0.0, 0.0, 0, 0, 0, 0, 0, 0, -0.5712684988975525, -1.5851788520812988, -0.13038693368434906
10845, 0.017148708924651146, -0.025114502757787704, 0.1178109273314476, 0.004021016880869865, 0.0162590891122818, 0.11753017455339432, -0.0007455855957232416, -0.003956126049160957, 0.9995547533035278, -0.5727629661560059, -1.589373230934143, -0.1307148039340973, 0.0, 0.0, 0.0, 0, 0, 0, 0, 0, 0, -0.5742573738098145, -1.5935720205307007, -0.13104337453842163
10855, 0.016121748834848404, -0.024514537304639816, 0.11752679198980331, -0.014598307199776173, -0.16168425977230072, -0.06994036585092545, -0.0011974863009527326, -0.005041580181568861, 0.9994899034500122, -0.5742573738098145, -1.5935720205307007, -0.13104337453842163, 0.0, 0.0, 0.0, 0, 0, 0, 0, 0, 0, -0.5757521390914917, -1.5977753400802612, -0.13137243688106537
10865, 0.013397766277194023, -0.027189208194613457, 0.11832623183727264, -0.2513415515422821, 0.37407219409942627, 0.09640258550643921, -0.0020231171511113644, -0.005474099423736334, 0.9986252784729004, -0.5757521390914917, -1.5977753400802612, -0.13137243688106537, 0.0, 0.0, 0.0, 0, 0, 0, 0, 0, 0, -0.5772481560707092, -1.6019837856292725, -0.1317019909620285
10875, 0.013746433891355991, -0.027144107967615128, 0.11969929933547974, 0.1179010346531868, -0.0001322117168456316, 0.23055317997932434, -0.00012282503303140402, -0.008034813217818737, 0.9985349774360657, -0.5772481560707092, -1.6019837856292725, -0.1317019909620285, 0.0, 0.0, 0.0, 0, 0, 0, 0, 0, 0, -0.5787453055381775, -1.6061985492706299, -0.13203240931034088
10885, 0.015159741044044495, -0.029693741351366043, 0.12126246839761734, 0.14209966361522675, -0.1194051057100296, 0.29828593134880066, 0.0004930416471324861, -0.007366732228547335, 1.001084327697754, -0.5787453055381775, -1.6061985492706299, -0.13203240931034088, 0.0, 0.0, 0.0, 0, 0, 0, 0, 0, 0, -0.5802422165870667, -1.6104209423065186, -0.13236340880393982
10895, 0.015648677945137024, -0.028077177703380585, 0.12200372666120529, -0.1387261599302292, -0.2059144228696823, 0.07740743458271027, -0.0028036674484610558, -0.004735732451081276, 1.0008035898208618, -0.5802422165870667, -1.6104209423065186, -0.13236340880393982, 0.0, 0.0, 0.0, 0, 0, 0, 0, 0, 0, -0.5817391872406006, -1.6146502494812012, -0.13269402086734772
10905, 0.016376113519072533, -0.02915656566619873, 0.12331468611955643, 0.07809489965438843, 0.20329147577285767, 0.211196631193161, -0.002522530034184456, -0.002524821786209941, 0.999078094959259, -0.5817391872406006, -1.6146502494812012, -0.13269402086734772, 0.0, 0.0, 0.0, 0, 0, 0, 0, 0, 0, -0.583237886428833, -1.6188839673995972, -0.1330244541168213
10915, 0.016796590760350227, -0.026758268475532532, 0.1226360946893692, 0.03403724357485771, -0.40102842450141907, -0.16953717172145844, -0.0019766881596297026, -0.002014925703406334, 1.0021191835403442, -0.583237886428833, -1.6188839673995972, -0.1330244541168213, 0.0, 0.0, 0.0, 0, 0, 0, 0, 0, 0, -0.5847380757331848, -1.6231204271316528, -0.13335460424423218
10925, 0.016927208751440048, -0.028202252462506294, 0.12375548481941223, 0.09855568408966064, 0.34270188212394714, 0.11255713552236557, -0.002272938610985875, -0.0035314438864588737, 0.9987428784370422, -0.5847380757331848, -1.6231204271316528, -0.13335460424423218, 0.0, 0.0, 0.0, 0, 0, 0, 0, 0, 0, -0.5862398743629456, -1.6273597478866577, -0.13368423283100128
10935, 0.016398394480347633, -0.02989359200000763, 0.12294301390647888, 0.03836974874138832, 0.05408067628741264, -0.05143948271870613, 0.00014467195433098823, -0.004700534511357546, 0.9972844123840332, -0.5862398743629456, -1.6273597478866577, -0.13368423283100128, 0.0, 0.0, 0.0, 0, 0, 0, 0, 0, 0, -0.5877431035041809, -1.6316030025482178, -0.13401490449905396
10945, 0.0160530935972929, -0.02982945181429386, 0.12256687134504318, -0.004396009258925915, 0.0383535772562027, 0.02775721065700054, -0.0021379811223596334, -0.002793755615130067, 0.9976227283477783, -0.5877431035041809, -1.6316030025482178, -0.13401490449905396, 0.0, 0.0, 0.0, 0, 0, 0, 0, 0, 0, -0.5892468094825745, -1.6358503103256226, -0.13434801995754242
10955, 0.015201270580291748, -0.030372342094779015, 0.12351614981889725, -0.17962996661663055, 0.20413978397846222, -0.11823520809412003, -0.002383457263931632, -0.005153042729943991, 0.9984096884727478, -0.5892468094825745, -1.6358503103256226, -0.13434801995754242, 0.0, 0.0, 0.0, 0, 0, 0, 0, 0, 0, -0.5892468094825745, -1.6358503103256226, -0.13434801995754242
10965, 0.01466738898307085, -0.031546201556921005, 0.12539565563201904, -0.012667167000472546, 0.0985613614320755, 0.2498633861541748, -0.002770461607724428, -0.004988758359104395, 0.99933260679245, -0.5907517075538635, -1.640101671218872, -0.13468345999717712, 0.0, 0.0, 0.0, 0, 0, 0, 0, 0, 0, -0.5907517075538635, -1.640101671218872, -0.13468345999717712
10975, 0.01294620893895626, -0.034079715609550476, 0.1258363425731659, -0.08369483053684235, 0.16081103682518005, -0.017996201291680336, -0.001927990815602243, -0.004149507265537977, 0.9990877509117126, -0.5924097299575806, -1.644783854484558, -0.13505378365516663, 0.0, 0.0, 0.0, 0, 0, 0, 0, 0, 0, -0.5924097299575806, -1.644783854484558, -0.13505378365516663
10985, 0.013729105703532696, -0.03326723352074623, 0.12545627355575562, 0.10804376006126404, -0.1279081255197525, -0.001629845704883337, -0.0030514306854456663, -0.005743519403040409, 0.9996966123580933, -0.5940700769424438, -1.6494718790054321, -0.13542494177818298, 0.0, 0.0, 0.0, 0, 0, 0, 0, 0, 0, -0.5940700769424438, -1.6494718790054321, -0.13542494177818298
10995, 0.013545298017561436, -0.03371569514274597, 0.12552668154239655, -0.033759769052267075, 0.016996538266539574, 0.009327086620032787, -0.004672302398830652, -0.0067601073533296585, 0.9996625185012817, -0.5955812335014343, -1.653739094734192, -0.13576297461986542, 0.0, 0.0, 0.0, 0, 0, 0, 0, 0, 0, -0.5955812335014343, -1.653739094734192, -0.13576297461986542
11005, 0.013778658583760262, -0.031379539519548416, 0.12498830258846283, -0.016496427357196808, -0.2598932087421417, -0.08590752631425858, -0.005045813973993063, -0.005274721421301365, 1.0016539096832275, -0.5970953106880188, -1.6580123901367188, -0.1361013948917389, 0.0, 0.0, 0.0, 0, 0, 0, 0, 0, 0, -0.5970953106880188, -1.6580123901367188, -0.1361013948917389
11015, 0.013525852002203465, -0.030288802459836006, 0.12575529515743256, -0.053047891706228256, -0.019718294963240623, 0.19690145552158356, -0.0018956843996420503, -0.005453015677630901, 0.9984940886497498, -0.5986135005950928, -1.6622918844223022, -0.13643954694271088, 0.0, 0.0, 0.0, 0, 0, 0, 0, 0, 0, -0.5986135005950928, -1.6622918844223022, -0.13643954694271088
11025, 0.013155346736311913, -0.02966972626745701, 0.12543708086013794, -0.13039672374725342, -0.009188372641801834, -0.007199950981885195, 0.0003447019262239337, -0.00545473163947463, 0.9982095956802368, -0.6001348495483398, -1.666576862335205, -0.1367775946855545, 0.0, 0.0, 0.0, 0, 0, 0, 0, 0, 0, -0.6001348495483398, -1.666576862335205, -0.1367775946855545
11035, 0.011900023557245731, -0.031448978930711746, 0.12625162303447723, -0.10692594945430756, 0.23846596479415894, 0.1534183919429779, -0.0033777791541069746, -0.005060349125415087, 0.9995110630989075, -0.6016569137573242, -1.6708674430847168, -0.137116938829422, 0.0, 0.0, 0.0, 0, 0, 0, 0, 0, 0, -0.6016569137573242, -1.6708674430847168, -0.137116938829422
11045, 0.012387119233608246, -0.033057425171136856, 0.12696994841098785, 0.05513859912753105, 0.18182705342769623, -0.08594435453414917, -0.002335126046091318, -0.004607181530445814, 0.9990925192832947, -0.6031799912452698, -1.6751632690429688, -0.1374574452638626, 0.0, 0.0, 0.0, 0, 0, 0, 0, 0, 0, -0.6031799912452698, -1.6751632690429688, -0.1374574452638626
11055, 0.012602496892213821, -0.03497331216931343, 0.12730665504932404, 0.024337006732821465, 0.2597862482070923, 0.043615423142910004, -0.0015436157118529081, -0.004394269082695246, 0.9974465370178223, -0.6047051548957825, -1.6794638633728027, -0.13779881596565247, 0.0, 0.0, 0.0, 0, 0, 0, 0, 0, 0, -0.6047051548957825, -1.6794638633728027, -0.13779881596565247
11065, 0.012047098949551582, -0.03396810218691826, 0.12742678821086884, -0.03694579005241394, -0.01023938413709402, 0.020013073459267616, -0.0013431886909529567, -0.005983702838420868, 0.9974493384361267, -0.606231689453125, -1.6837691068649292, -0.13814175128936768, 0.0, 0.0, 0.0, 0, 0, 0, 0, 0, 0, -0.606231689453125, -1.6837691068649292, -0.13814175128936768
11075, 0.011560855433344841, -0.034003451466560364, 0.12677337229251862, -0.1553734391927719, 0.2568398714065552, -0.032802287489175797, -0.0021490659564733505, -0.004749452695250511, 0.9986652135848999, -0.6077593564987183, -1.6880794763565063, -0.13848692178726196, 0.0, 0.0, 0.0, 0, 0, 0, 0, 0, 0, -0.6077593564987183, -1.6880794763565063, -0.13848692178726196
11085, 0.012510688975453377, -0.03363180160522461, 0.12706315517425537, 0.14027619361877441, -0.013614174909889698, 0.21592877805233002, -0.0016863731434568763, -0.007591096218675375, 1.00196373462677, -0.6092883348464966, -1.6923953294754028, -0.13883404433727264, 0.0, 0.0, 0.0, 0, 0, 0, 0, 0, 0, -0.6092883348464966, -1.6923953294754028, -0.13883404433727264
11095, 0.013222931884229183, -0.032647788524627686, 0.1252448558807373, -0.007638896349817514, -0.12310586869716644, -0.191866934299469, -0.0017620822181925178, -0.005855845287442207, 1.000803828239441, -0.6108186841011047, -1.6967172622680664, -0.1391812562942505, 0.0, 0.0, 0.0, 0, 0, 0, 0, 0, 0, -0.6108186841011047, -1.6967172622680664, -0.1391812562942505
11105, 0.012248541228473186, -0.0329756960272789, 0.12425516545772552, -0.10513939708471298, 0.08699548989534378, 0.03901335969567299, -0.0034971260465681553, -0.006579308770596981, 0.9979150295257568, -0.6123502254486084, -1.7010456323623657, -0.1395273655653, 0.0, 0.0, 0.0, 0, 0, 0, 0, 0, 0, -0.6123502254486084, -1.7010456323623657, -0.1395273655653
11115, 0.012117976322770119, -0.032493431121110916, 0.12344341725111008, -0.030405791476368904, -0.07801984250545502, -0.09911636263132095, -0.0018408005125820637, -0.006387094035744667, 0.9962026476860046, -0.6138836145401001, -1.7053802013397217, -0.13987378776073456, 0.0, 0.0, 0.0, 0, 0, 0, 0, 0, 0, -0.6138836145401001, -1.7053802013397217, -0.13987378776073456
11125, 0.012246040627360344, -0.03195876255631447, 0.12209097295999527, 0.016551870852708817, -0.09997987747192383, -0.08109290897846222, -1.3287308320286684e-05, -0.004799186252057552, 0.9986741542816162, -0.6154190897941589, -1.7097210884094238, -0.14022283256053925, 0.0, 0.0, 0.0, 0, 0, 0, 0, 0, 0, -0.6154190897941589, -1.7097210884094238, -0.14022283256053925
11135, 0.0121264373883605, -0.03130166977643967, 0.12087395787239075, 0.03828778117895126, -0.07486192882061005, -0.04801508039236069, -0.0003807437897194177, -0.004171033855527639, 1.001771330833435, -0.6169552803039551, -1.714067816734314, -0.14057449996471405, 0.0, 0.0, 0.0, 0, 0, 0, 0, 0, 0, -0.6169552803039551, -1.714067816734314, -0.14057449996471405
11145, 0.011864683590829372, -0.03039473295211792, 0.12066655606031418, -0.16090106964111328, -0.10210154950618744, 0.08091346174478531, -0.0028003717307001352, -0.00586677948012948, 0.9995908141136169, -0.6184912919998169, -1.7184194326400757, -0.14092637598514557, 0.0, 0.0, 0.0, 0, 0, 0, 0, 0, 0, -0.6184912919998169, -1.7184194326400757, -0.14092637598514557
11155, 0.011662921868264675, -0.033297158777713776, 0.121160589158535, 0.005611561704427004, 0.34643495082855225, 0.05089189112186432, -0.0027267904952168465, -0.00464021647349, 0.998372495174408, -0.6200282573699951, -1.7227760553359985, -0.14127780497074127, 0.0, 0.0, 0.0, 0, 0, 0, 0, 0, 0, -0.6200282573699951, -1.7227760553359985, -0.14127780497074127
11165, 0.011222632601857185, -0.03486237674951553, 0.12122011929750443, -0.03274904191493988, 0.19320464134216309, 0.039708007127046585, -0.001772268209606409, -0.003999996464699507, 0.9974910616874695, -0.6215673089027405, -1.7271380424499512, -0.14162996411323547, 0.0, 0.0, 0.0, 0, 0, 0, 0, 0, 0, -0.6215673089027405, -1.7271380424499512, -0.14162996411323547
11175, 0.010298602283000946, -0.036566659808158875, 0.12170939147472382, -0.173860102891922, 0.2184455394744873, 0.08606912195682526, -0.0017193675739690661, -0.006640804931521416, 0.9990105032920837, -0.6231080889701843, -1.7315045595169067, -0.14198391139507294, 0.0, 0.0, 0.0, 0, 0, 0, 0, 0, 0, -0.6231080889701843, -1.7315045595169067, -0.14198391139507294
11185, 0.010563427582383156, -0.037377648055553436, 0.121233731508255, -0.05390714481472969, -0.04374382272362709, -0.03635716438293457, -0.0034079437609761953, -0.007039735559374094, 0.9987319707870483, -0.6246498823165894, -1.7358763217926025, -0.14233966171741486, 0.0, 0.0, 0.0, 0, 0, 0, 0, 0, 0, -0.6246498823165894, -1.7358763217926025, -0.14233966171741486
11195, 0.00997311994433403, -0.03703957051038742, 0.1215490773320198, -0.11987226456403732, -0.031064582988619804, 0.15783970057964325, -0.0006860578432679176, -0.005281033925712109, 0.9992681741714478, -0.6261935234069824, -1.7402548789978027, -0.1426965743303299, 0.0, 0.0, 0.0, 0, 0, 0, 0, 0, 0, -0.6261935234069824, -1.7402548789978027, -0.1426965743303299
11205, 0.010716375894844532, -0.03587232902646065, 0.12058334052562714, 0.09883967787027359, -0.047706276178359985, -0.11588158458471298, -0.0010045161470770836, -0.004313788376748562, 1.0002615451812744, -0.6277387142181396, -1.7446397542953491, -0.1430545300245285, 0.0, 0.0, 0.0, 0, 0, 0, 0, 0, 0, -0.6277387142181396, -1.7446397542953491, -0.1430545300245285
11215, 0.009130574762821198, -0.038299061357975006, 0.1213100329041481, -0.2608463168144226, 0.30530086159706116, 0.15186621248722076, -0.0031634634360671043, -0.0038363290950655937, 1.0004247426986694, -0.629284143447876, -1.7490298748016357, -0.1434130072593689, 0.0, 0.0, 0.0, 0, 0, 0, 0, 0, 0, -0.629284143447876, -1.7490298748016357, -0.1434130072593689
11225, 0.009350034408271313, -0.03853198513388634, 0.12183668464422226, 0.05493218079209328, 0.09692391008138657, 0.08982288092374802, -0.0028487450908869505, -0.004847930744290352, 0.999887228012085, -0.6308309435844421, -1.7534244060516357, -0.14377130568027496, 0.0, 0.0, 0.0, 0, 0, 0, 0, 0, 0, -0.6308309435844421, -1.7534244060516357, -0.14377130568027496
11235, 0.009865966625511646, -0.03899190202355385, 0.1233530193567276, 0.005133902654051781, 0.039780471473932266, 0.22408531606197357, -0.0014264527708292007, -0.005564601626247168, 0.9983600378036499, -0.6323800086975098, -1.7578233480453491, -0.14412948489189148, 0.0, 0.0, 0.0, 0, 0, 0, 0, 0, 0, -0.6323800086975098, -1.7578233480453491, -0.14412948489189148
11245, 0.010792732238769531, -0.040786292403936386, 0.12430433928966522, 0.08771980553865433, 0.03293978050351143, 0.13142946362495422, -0.0030686536338180304, -0.008212149143218994, 0.998913586139679, -0.6339307427406311, -1.7622274160385132, -0.14448842406272888, 0.0, 0.0, 0.0, 0, 0, 0, 0, 0, 0, -0.6339307427406311, -1.7622274160385132, -0.14448842406272888
11255, 0.010775536298751831, -0.03968023508787155, 0.12388373911380768, -0.04571576416492462, -0.039900634437799454, -0.14156925678253174, -0.0009454963146708906, -0.005183919798582792, 1.0004308223724365, -0.6354830265045166, -1.7666383981704712, -0.14484860002994537, 0.0, 0.0, 0.0, 0, 0, 0, 0, 0, 0, -0.6354830265045166, -1.7666383981704712, -0.14484860002994537
11265, 0.012420074082911015, -0.039720870554447174, 0.12424138933420181, 0.1780889928340912, 0.06467320770025253, 0.015714656561613083, -0.0020048923324793577, -0.005748122930526733, 1.000593662261963, -0.6370366811752319, -1.7710561752319336, -0.14520911872386932, 0.0, 0.0, 0.0, 0, 0, 0, 0, 0, 0, -0.6370366811752319, -1.7710561752319336, -0.14520911872386932
11275, 0.011107677593827248, -0.03842343017458916, 0.12359155714511871, -0.16081859171390533, -0.2038791924715042, -0.09521863609552383, -0.002210480161011219, -0.006306695286184549, 0.9999352693557739, -0.6385912299156189, -1.7754796743392944, -0.14556923508644104, 0.0, 0.0, 0.0, 0, 0, 0, 0, 0, 0, -0.6385912299156189, -1.7754796743392944, -0.14556923508644104
11285, 0.01120070181787014, -0.03892543166875839, 0.12425216287374496, -0.006519312039017677, 0.09781774133443832, 0.020685292780399323, -0.0019731877837330103, -0.00556063512340188, 1.0016146898269653, -0.6401469111442566, -1.779909372329712, -0.1459290087223053, 0.0, 0.0, 0.0, 0, 0, 0, 0, 0, 0, -0.6401469111442566, -1.779909372329712, -0.1459290087223053
11295, 0.011194265447556973, -0.03924894705414772, 0.12542544305324554, 0.00017168580961879343, 0.1651833951473236, 0.015184312127530575, -0.003165302099660039, -0.004700929392129183, 1.0006468296051025, -0.6417037844657898, -1.7843451499938965, -0.14628790318965912, 0.0, 0.0, 0.0, 0, 0, 0, 0, 0, 0, -0.6417037844657898, -1.7843451499938965, -0.14628790318965912
11305, 0.010542299598455429, -0.03801548108458519, 0.12546999752521515, -0.06963447481393814, -0.23633675277233124, -0.04205700382590294, -0.00218769907951355, -0.006368367932736874, 0.9994480013847351, -0.643262505531311, -1.7887862920761108, -0.146645650267601, 0.0, 0.0, 0.0, 0, 0, 0, 0, 0, 0, -0.643262505531311, -1.7887862920761108, -0.146645650267601
11315, 0.010032912716269493, -0.0386500209569931, 0.12633028626441956, -0.22988362610340118, 0.016205929219722748, 0.05144350230693817, -0.002753373933956027, -0.0054578701965510845, 0.9989696145057678, -0.6448231339454651, -1.7932329177856445, -0.14700323343276978, 0.0, 0.0, 0.0, 0, 0, 0, 0, 0, 0, -0.6448231339454651, -1.7932329177856445, -0.14700323343276978
11325, 0.010611233301460743, -0.0389394573867321, 0.12635578215122223, 0.045076098293066025, 0.15065337717533112, 0.07807572185993195, -0.001621680217795074, -0.0053566801361739635, 0.9991760849952698, -0.6463853716850281, -1.7976852655410767, -0.14736133813858032, 0.0, 0.0, 0.0, 0, 0, 0, 0, 0, 0, -0.6463853716850281, -1.7976852655410767, -0.14736133813858032
11335, 0.009454197250306606, -0.03844120725989342, 0.12576700747013092, -0.07689625024795532, -0.054988160729408264, -0.12396891415119171, -0.0010158800287172198, -0.004825472366064787, 1.0010160207748413, -0.6479490995407104, -1.802142858505249, -0.1477201282978058, 0.0, 0.0, 0.0, 0, 0, 0, 0, 0, 0, -0.6479490995407104, -1.802142858505249, -0.1477201282978058
11345, 0.010057560168206692, -0.0381886251270771, 0.12700998783111572, 0.1411174237728119, -0.07900142669677734, 0.18185070157051086, -0.00331482058390975, -0.005092325154691935, 0.9989425539970398, -0.6495136022567749, -1.8066054582595825, -0.14807899296283722, 0.0, 0.0, 0.0, 0, 0, 0, 0, 0, 0, -0.6495136022567749, -1.8066054582595825, -0.14807899296283722
11355, 0.009713883511722088, -0.03816281631588936, 0.12777802348136902, 0.06745754182338715, -0.018286410719156265, 0.10850510746240616, -0.0016988907009363174, -0.00618160841986537, 1.0005428791046143, -0.6510794162750244, -1.8110731840133667, -0.14843803644180298, 0.0, 0.0, 0.0, 0, 0, 0, 0, 0, 0, -0.6510794162750244, -1.8110731840133667, -0.14843803644180298
11365, 0.010796358808875084, -0.040565356612205505, 0.12824465334415436, 0.2314385324716568, 0.15735818445682526, 0.15809524059295654, -0.0016044621588662267, -0.005712554790079594, 1.0006104707717896, -0.6526467800140381, -1.8155466318130493, -0.1487973928451538, 0.0, 0.0, 0.0, 0, 0, 0, 0, 0, 0, -0.6526467800140381, -1.8155466318130493, -0.1487973928451538
11375, 0.010898548178374767, -0.040717605501413345, 0.12854856252670288, -0.026180623099207878, -0.05091265216469765, -0.07287009060382843, -0.0021952446550130844, -0.0034915157593786716, 0.9992434978485107, -0.6542150974273682, -1.82002592086792, -0.14915624260902405, 0.0, 0.0, 0.0, 0, 0, 0, 0, 0, 0, -0.6542150974273682, -1.82002592086792, -0.14915624260902405
11385, 0.010827830992639065, -0.04153037443757057, 0.12876856327056885, -0.00392546970397234, 0.11742988228797913, -0.17303700745105743, -0.003074230160564184, -0.003801295766606927, 0.9996153116226196, -0.6557846665382385, -1.824509859085083, -0.14951498806476593, 0.0, 0.0, 0.0, 0, 0, 0, 0, 0, 0, -0.6557846665382385, -1.824509859085083, -0.14951498806476593
11395, 0.011262590996921062, -0.04071207344532013, 0.12942469120025635, 0.10526299476623535, -0.23150862753391266, 0.08362831175327301, -0.003561940975487232, -0.006030033342540264, 1.0003702640533447, -0.657356321811676, -1.8289976119995117, -0.14987410604953766, 0.0, 0.0, 0.0, 0, 0, 0, 0, 0, 0, -0.657356321811676, -1.8289976119995117, -0.14987410604953766
11405, 0.011813380755484104, -0.039252717047929764, 0.12941989302635193, 0.1188233345746994, -0.17646406590938568, 0.17054462432861328, -0.0014394717290997505, -0.006289494689553976, 0.9997804760932922, -0.6589304804801941, -1.833490252494812, -0.1502332240343094, 0.0, 0.0, 0.0, 0, 0, 0, 0, 0, 0, -0.6589304804801941, -1.833490252494812, -0.1502332240343094
11415, 0.012461130507290363, -0.04020782560110092, 0.1291506290435791, 0.09518849849700928, 0.14784154295921326, -0.11649223417043686, -0.0037623366806656122, -0.005292130634188652, 0.9971942901611328, -0.6605062484741211, -1.8379892110824585, -0.15059229731559753, 0.0, 0.0, 0.0, 0, 0, 0, 0, 0, 0, -0.6605062484741211, -1.8379892110824585, -0.15059229731559753
11425, 0.012505567632615566, -0.03858593851327896, 0.12954825162887573, 0.02938961796462536, -0.22154772281646729, 0.13346374034881592, -0.003069777274504304, -0.005800671875476837, 0.997921347618103, -0.6620837450027466, -1.842494249343872, -0.15095259249210358, 0.0, 0.0, 0.0, 0, 0, 0, 0, 0, 0, -0.6620837450027466, -1.842494249343872, -0.15095259249210358
11435, 0.012467109598219395, -0.03742256015539169, 0.12978079915046692, 0.08384282141923904, -0.03086196631193161, 0.14314958453178406, -0.0031104846857488155, -0.003849366446956992, 0.9991242289543152, -0.6636638045310974, -1.847005009651184, -0.15131495893001556, 0.0, 0.0, 0.0, 0, 0, 0, 0, 0, 0, -0.6636638045310974, -1.847005009651184, -0.15131495893001556
11445, 0.011234511621296406, -0.0373859703540802, 0.12925568222999573, -0.13870610296726227, 0.03692900389432907, -0.08486910164356232, -0.0017379054334014654, -0.004739255644381046, 0.9982852339744568, -0.6652462482452393, -1.8515210151672363, -0.15167880058288574, 0.0, 0.0, 0.0, 0, 0, 0, 0, 0, 0, -0.6652462482452393, -1.8515210151672363, -0.15167880058288574
11455, 0.011697288602590561, -0.03672338277101517, 0.12898866832256317, -0.0006215907633304596, -0.17416006326675415, -0.08630470931529999, -0.001457610516808927, -0.003712799632921815, 0.9998763203620911, -0.6668302416801453, -1.8560415506362915, -0.15204374492168427, 0.0, 0.0, 0.0, 0, 0, 0, 0, 0, 0, -0.6668302416801453, -1.8560415506362915, -0.15204374492168427
11465, 0.012004478834569454, -0.03492984548211098, 0.12799033522605896, -0.0017062751576304436, -0.3029557466506958, -0.1039230227470398, -0.001413525315001607, -0.002884295303374529, 1.0002750158309937, -0.6684150695800781, -1.86056649684906, -0.1524093598127365, 0.0, 0.0, 0.0, 0, 0, 0, 0, 0, 0, -0.6684150695800781, -1.86056649684906, -0.1524093598127365
11475, 0.011592064052820206, -0.033247508108615875, 0.12789379060268402, -0.08071427792310715, -0.03535528853535652, -0.04622679576277733, -0.0032995790243148804, -0.002874285914003849, 1.0010368824005127, -0.6700009703636169, -1.865094780921936, -0.15277491509914398, 0.0, 0.0, 0.0, 0, 0, 0, 0, 0, 0, -0.6700009703636169, -1.865094780921936, -0.15277491509914398
11485, 0.012197582051157951, -0.03295037895441055, 0.12787571549415588, 0.16453516483306885, 0.041327279061079025, 0.052867546677589417, -0.0009316543000750244, -0.004586449824273586, 1.0014187097549438, -0.6715885400772095, -1.8696261644363403, -0.15313978493213654, 0.0, 0.0, 0.0, 0, 0, 0, 0, 0, 0, -0.6715885400772095, -1.8696261644363403, -0.15313978493213654
11495, 0.010585789568722248, -0.03279057517647743, 0.1269630789756775, -0.1160416305065155, -0.07458174228668213, -0.04347744956612587, -0.0014484039274975657, -0.0039041892159730196, 0.9990941882133484, -0.6731774210929871, -1.8741613626480103, -0.1535034328699112, 0.0, 0.0, 0.0, 0, 0, 0, 0, 0, 0, -0.6731774210929871, -1.8741613626480103, -0.1535034328699112
11505, 0.010999564081430435, -0.031983233988285065, 0.12723244726657867, 0.09184574335813522, -0.1099703460931778, 0.048252057284116745, -0.0009871568763628602, -0.0034269646275788546, 0.9984375238418579, -0.6747667193412781, -1.8787009716033936, -0.15386684238910675, 0.0, 0.0, 0.0, 0, 0, 0, 0, 0, 0, -0.6747667193412781, -1.8787009716033936, -0.15386684238910675
11515, 0.009721420705318451, -0.03188708797097206, 0.12604275345802307, -0.21270009875297546, 0.11691322922706604, -0.25894060730934143, -0.0034972166176885366, -0.0047360858879983425, 1.0000041723251343, -0.6763564944267273, -1.8832443952560425, -0.15423142910003662, 0.0, 0.0, 0.0, 0, 0, 0, 0, 0, 0, -0.6763564944267273, -1.8832443952560425, -0.15423142910003662
11525, 0.00930693931877613, -0.03300430625677109, 0.12630942463874817, -0.0015070154331624508, 0.2168986201286316, 0.01854684203863144, -0.0024862620048224926, -0.004779576789587736, 1.0004836320877075, -0.6779478192329407, -1.8877918720245361, -0.15459662675857544, 0.0, 0.0, 0.0, 0, 0, 0, 0, 0, 0, -0.6779478192329407, -1.8877918720245361, -0.15459662675857544
11535, 0.008828393183648586, -0.032383207231760025, 0.12716078758239746, 0.07944967597723007, -0.054954297840595245, 0.11085575819015503, -0.0023539422545582056, -0.006097464356571436, 1.0013710260391235, -0.6795414090156555, -1.8923441171646118, -0.1549614667892456, 0.0, 0.0, 0.0, 0, 0, 0, 0, 0, 0, -0.6795414090156555, -1.8923441171646118, -0.1549614667892456
11545, 0.008500327356159687, -0.0336274728178978, 0.12869472801685333, -0.06624982506036758, 0.12099740654230118, 0.20785482227802277, -0.0017229611985385418, -0.005281530320644379, 1.000414252281189, -0.6811367869377136, -1.8969017267227173, -0.15532556176185608, 0.0, 0.0, 0.0, 0, 0, 0, 0, 0, 0, -0.6811367869377136, -1.8969017267227173, -0.15532556176185608
11555, 0.008245442993938923, -0.03697802498936653, 0.12967343628406525, -0.04340127110481262, 0.26018673181533813, 0.18180595338344574, -0.0027050948701798916, -0.006827887147665024, 0.9979450106620789, -0.6827335953712463, -1.9014649391174316, -0.1556890606880188, 0.0, 0.0, 0.0, 0, 0, 0, 0, 0, 0, -0.6827335953712463, -1.9014649391174316, -0.1556890606880188
11565, 0.0086807357147336, -0.03603081405162811, 0.12812499701976776, 0.03095538169145584, -0.09776760637760162, -0.17298246920108795, -0.0008293440332636237, -0.005441682413220406, 0.9983402490615845, -0.6843318343162537, -1.9060341119766235, -0.156053364276886, 0.0, 0.0, 0.0, 0, 0, 0, 0, 0, 0, -0.6843318343162537, -1.9060341119766235, -0.156053364276886
11575, 0.007834943942725658, -0.035100147128105164, 0.12893208861351013, -0.019286606460809708, -0.008584112860262394, 0.22803109884262085, -0.0008108735200949013, -0.00659622997045517, 1.0015673637390137, -0.6859310865402222, -1.910609245300293, -0.1564192771911621, 0.0, 0.0, 0.0, 0, 0, 0, 0, 0, 0, -0.6859310865402222, -1.910609245300293, -0.1564192771911621
11585, 0.0090483408421278, -0.0347711406648159, 0.1293809860944748, 0.22732415795326233, 0.11704836040735245, 0.029888560995459557, -0.0013358822325244546, -0.006629967130720615, 1.000588297843933, -0.687530517578125, -1.91519033908844, -0.1567852646112442, 0.0, 0.0, 0.0, 0, 0, 0, 0, 0, 0, -0.687530517578125, -1.91519033908844, -0.1567852646112442
11595, 0.009157956577837467, -0.032764267176389694, 0.12957249581813812, -0.113960862159729, -0.3596784472465515, -0.04188871756196022, -0.0029295142740011215, -0.005857696291059256, 1.0000579357147217, -0.6891302466392517, -1.9197781085968018, -0.1571502983570099, 0.0, 0.0, 0.0, 0, 0, 0, 0, 0, 0, -0.6891302466392517, -1.9197781085968018, -0.1571502983570099
11605, 0.00879591517150402, -0.03224112093448639, 0.1311059147119522, -0.010046233423054218, -0.12511876225471497, 0.25690680742263794, -0.0006129494868218899, -0.00636756606400013, 0.9991649389266968, -0.6907312870025635, -1.9243721961975098, -0.1575150042772293, 0.0, 0.0, 0.0, 0, 0, 0, 0, 0, 0, -0.6907312870025635, -1.9243721961975098, -0.1575150042772293
11615, 0.008500673808157444, -0.03192640841007233, 0.13166236877441406, 0.10337690263986588, -0.02300979755818844, 0.24658295512199402, -0.00022242932755034417, -0.004606010392308235, 0.9999398589134216, -0.6923336982727051, -1.9289723634719849, -0.157880038022995, 0.0, 0.0, 0.0, 0, 0, 0, 0, 0, 0, -0.6923336982727051, -1.9289723634719849, -0.157880038022995
11625, 0.008162685669958591, -0.02996322512626648, 0.13145020604133606, 0.017324812710285187, -0.1343713402748108, -0.04478401690721512, -0.0017646894557401538, -0.005627852398902178, 1.000475287437439, -0.693936288356781, -1.9335780143737793, -0.15824559330940247, 0.0, 0.0, 0.0, 0, 0, 0, 0, 0, 0, -0.693936288356781, -1.9335780143737793, -0.15824559330940247
11635, 0.007162625901401043, -0.031174812465906143, 0.13088451325893402, -0.12747913599014282, 0.21371608972549438, -0.13479886949062347, -0.0014630187069997191, -0.005934813525527716, 0.9990710020065308, -0.6955392956733704, -1.938188910484314, -0.15861119329929352, 0.0, 0.0, 0.0, 0, 0, 0, 0, 0, 0, -0.6955392956733704, -1.938188910484314, -0.15861119329929352
11645, 0.007441920228302479, -0.032220665365457535, 0.13063311576843262, 0.008087757043540478, 0.08456019312143326, -0.05032792314887047, -0.0026499354280531406, -0.00511481799185276, 0.9988853335380554, -0.6971434354782104, -1.9428056478500366, -0.15897703170776367, 0.0, 0.0, 0.0, 0, 0, 0, 0, 0, 0, -0.6971434354782104, -1.9428056478500366, -0.15897703170776367
11655, 0.007570176851004362, -0.03223047032952309, 0.1301531195640564, 0.010816427879035473, -0.11398493498563766, -0.14370617270469666, -0.0013042250648140907, -0.003976637497544289, 1.000838041305542, -0.6987490653991699, -1.947427749633789, -0.15934376418590546, 0.0, 0.0, 0.0, 0, 0, 0, 0, 0, 0, -0.6987490653991699, -1.947427749633789, -0.15934376418590546
11665, 0.008173832669854164, -0.03224875405430794, 0.1296646147966385, 0.01774902641773224, -0.026067892089486122, -0.08287015557289124, -0.001660992274992168, -0.003925234079360962, 0.9999662637710571, -0.7003560066223145, -1.9520541429519653, -0.1597108095884323, 0.0, 0.0, 0.0, 0, 0, 0, 0, 0, 0, -0.7003560066223145, -1.9520541429519653, -0.1597108095884323
11675, 0.00870460458099842, -0.03068406879901886, 0.13005417585372925, 0.020452503114938736, -0.17655162513256073, 0.023679686710238457, 0.00011277325393166393, -0.004587316885590553, 0.9988295435905457, -0.7019637227058411, -1.9566844701766968, -0.16007766127586365, 0.0, 0.0, 0.0, 0, 0, 0, 0, 0, 0, -0.7019637227058411, -1.9566844701766968, -0.16007766127586365
11685, 0.009884919971227646, -0.02915263921022415, 0.12889744341373444, 0.12102179229259491, -0.14484845101833344, -0.25728607177734375, -0.0015558789018541574, -0.006385268643498421, 0.9999665021896362, -0.703571617603302, -1.9613193273544312, -0.16044491529464722, 0.0, 0.0, 0.0, 0, 0, 0, 0, 0, 0, -0.703571617603302, -1.9613193273544312, -0.16044491529464722
11695, 0.011128239333629608, -0.028940139338374138, 0.129747673869133, 0.12410764396190643, 0.020006515085697174, 0.023859987035393715, -0.0013535862090066075, -0.00803130492568016, 1.00053870677948, -0.7051798105239868, -1.9659596681594849, -0.16081251204013824, 0.0, 0.0, 0.0, 0, 0, 0, 0, 0, 0, -0.7051798105239868, -1.9659596681594849, -0.16081251204013824
11705, 0.010858576744794846, -0.03141002729535103, 0.13010342419147491, -0.12326303124427795, 0.4697563946247101, 0.07977017760276794, -0.001817571115680039, -0.005888134241104126, 1.0004996061325073, -0.706788957118988, -1.9706071615219116, -0.16117991507053375, 0.0, 0.0, 0.0, 0, 0, 0, 0, 0, 0, -0.706788957118988, -1.9706071615219116, -0.16117991507053375
11715, 0.010785185731947422, -0.032498542219400406, 0.13113459944725037, -0.06465139240026474, 0.15306760370731354, 0.18805621564388275, -0.0014128814218565822, -0.0045532044023275375, 0.9995715618133545, -0.7083990573883057, -1.9752618074417114, -0.1615469753742218, 0.0, 0.0, 0.0, 0, 0, 0, 0, 0, 0, -0.7083990573883057, -1.9752618074417114, -0.1615469753742218
11725, 0.011277049779891968, -0.03246840834617615, 0.12983383238315582, 0.012069353833794594, -0.07414241135120392, -0.18573519587516785, -0.0033012167550623417, -0.0057542999275028706, 0.9988263845443726, -0.7100101709365845, -1.9799219369888306, -0.1619138866662979, 0.0, 0.0, 0.0, 0, 0, 0, 0, 0, 0, -0.7100101709365845, -1.9799219369888306, -0.1619138866662979
11735, 0.010787631385028362, -0.032194629311561584, 0.12977120280265808, -0.11858579516410828, 0.07793683558702469, -0.07055899500846863, -0.0018624518997967243, -0.0053659118711948395, 0.9997031092643738, -0.7116231322288513, -1.98458731174469, -0.1622813493013382, 0.0, 0.0, 0.0, 0, 0, 0, 0, 0, 0, -0.7116231322288513, -1.98458731174469, -0.1622813493013382
11745, 0.010822326876223087, -0.03144435957074165, 0.13076359033584595, -0.007968422956764698, 0.02006436139345169, 0.19577676057815552, -0.00262577086687088, -0.006675763055682182, 0.9982765316963196, -0.7132381796836853, -1.9892582893371582, -0.1626494973897934, 0.0, 0.0, 0.0, 0, 0, 0, 0, 0, 0, -0.7132381796836853, -1.9892582893371582, -0.1626494973897934
11755, 0.010592312552034855, -0.032572824507951736, 0.13149166107177734, 0.05865662917494774, 0.18476459383964539, 0.17788027226924896, -0.001031047897413373, -0.009043093770742416, 0.9995030164718628, -0.7148548364639282, -1.9939355850219727, -0.16301852464675903, 0.0, 0.0, 0.0, 0, 0, 0, 0, 0, 0, -0.7148548364639282, -1.9939355850219727, -0.16301852464675903
11765, 0.011564154177904129, -0.032925982028245926, 0.13006798923015594, 0.2047046273946762, -0.07242399454116821, -0.21863996982574463, -0.003007685299962759, -0.0065186587162315845, 1.000011920928955, -0.7164726853370667, -1.9986205101013184, -0.16338856518268585, 0.0, 0.0, 0.0, 0, 0, 0, 0, 0, 0, -0.7164726853370667, -1.9986205101013184, -0.16338856518268585
11775, 0.01110584381967783, -0.03155019134283066, 0.13066215813159943, 0.070449598133564, -0.21308965981006622, 0.03780964016914368, -0.002430763328447938, -0.003994149621576071, 1.0015945434570312, -0.7180918455123901, -2.0033133029937744, -0.16375896334648132, 0.0, 0.0, 0.0, 0, 0, 0, 0, 0, 0, -0.7180918455123901, -2.0033133029937744, -0.16375896334648132
11785, 0.010350486263632774, -0.032460033893585205, 0.12966908514499664, -0.04740384966135025, 0.17700311541557312, -0.09828907996416092, -0.00242770928889513, -0.004718818701803684, 0.998091995716095, -0.7197129130363464, -2.008012056350708, -0.1641288697719574, 0.0, 0.0, 0.0, 0, 0, 0, 0, 0, 0, -0.7197129130363464, -2.008012056350708, -0.1641288697719574
11795, 0.011887955479323864, -0.03303651884198189, 0.1299150288105011, 0.20430919528007507, 0.20287172496318817, -0.02046295255422592, -0.0028890965040773153, -0.00435454910621047, 0.9973809123039246, -0.7213358283042908, -2.0127153396606445, -0.1644987314939499, 0.0, 0.0, 0.0, 0, 0, 0, 0, 0, 0, -0.7213358283042908, -2.0127153396606445, -0.1644987314939499
11805, 0.01167564932256937, -0.03395523503422737, 0.12995333969593048, -0.08711688965559006, 0.17325446009635925, 0.02681349217891693, -0.003375197062268853, -0.006654032971709967, 0.9960031509399414, -0.722960889339447, -2.017423391342163, -0.16487053036689758, 0.0, 0.0, 0.0, 0, 0, 0, 0, 0, 0, -0.722960889339447, -2.017423391342163, -0.16487053036689758
11815, 0.01239362359046936, -0.03240862488746643, 0.13122591376304626, 0.060826756060123444, -0.1812516301870346, 0.2747992277145386, -0.000108624022686854, -0.004294187296181917, 0.9965842962265015, -0.7245883941650391, -2.022136926651001, -0.16524550318717957, 0.0, 0.0, 0.0, 0, 0, 0, 0, 0, 0, -0.7245883941650391, -2.022136926651001, -0.16524550318717957
11825, 0.012685420922935009, -0.030428171157836914, 0.1311827003955841, 0.04809088632464409, -0.17696401476860046, -0.07231827080249786, -0.000504777766764164, -0.004534468986093998, 0.999200165271759, -0.7262171506881714, -2.026855945587158, -0.16562393307685852, 0.0, 0.0, 0.0, 0, 0, 0, 0, 0, 0, -0.7262171506881714, -2.026855945587158, -0.16562393307685852
11835, 0.013364559970796108, -0.030558397993445396, 0.13244211673736572, 0.1985449492931366, 0.11305463314056396, 0.23085612058639526, -0.002905425848439336, -0.005454549565911293, 0.9998435974121094, -0.7278457283973694, -2.0315794944763184, -0.16600453853607178, 0.0, 0.0, 0.0, 0, 0, 0, 0, 0, 0, -0.7278457283973694, -2.0315794944763184, -0.16600453853607178
11845, 0.01362154632806778, -0.032368455082178116, 0.13232868909835815, 0.04781927168369293, 0.32501736283302307, 0.23558981716632843, -0.002700219629332423, -0.005670566577464342, 0.9973927140235901, -0.7294751405715942, -2.0363082885742188, -0.1663856953382492, 0.0, 0.0, 0.0, 0, 0, 0, 0, 0, 0, -0.7294751405715942, -2.0363082885742188, -0.1663856953382492
11855, 0.013084003701806068, -0.03130314126610756, 0.13178442418575287, -0.16055575013160706, -0.19566015899181366, -0.024663163349032402, -0.001958501525223255, -0.005644563585519791, 0.9976863861083984, -0.7311064600944519, -2.0410425662994385, -0.16676801443099976, 0.0, 0.0, 0.0, 0, 0, 0, 0, 0, 0, -0.7311064600944519, -2.0410425662994385, -0.16676801443099976
11865, 0.013106556609272957, -0.0323292538523674, 0.1320115476846695, -0.10144533962011337, 0.06446763128042221, -0.07719498872756958, -0.003676223335787654, -0.0045977309346199036, 0.9979849457740784, -0.7327395081520081, -2.0457828044891357, -0.16715267300605774, 0.0, 0.0, 0.0, 0, 0, 0, 0, 0, 0, -0.7327395081520081, -2.0457828044891357, -0.16715267300605774
11875, 0.013423454947769642, -0.03397541865706444, 0.1327517330646515, 0.11803791671991348, 0.102812260389328, 0.06626387685537338, -0.0023370415437966585, -0.005268425680696964, 0.9996286630630493, -0.7343747615814209, -2.0505282878875732, -0.16753968596458435, 0.0, 0.0, 0.0, 0, 0, 0, 0, 0, 0, -0.7343747615814209, -2.0505282878875732, -0.16753968596458435
11885, 0.013263234868645668, -0.03337441012263298, 0.13260214030742645, -0.021999677643179893, -0.1506674587726593, 0.009364928118884563, -0.0004843567148782313, -0.005444254260510206, 1.001269817352295, -0.73601233959198, -2.055278778076172, -0.1679280400276184, 0.0, 0.0, 0.0, 0, 0, 0, 0, 0, 0, -0.73601233959198, -2.055278778076172, -0.1679280400276184
11895, 0.012892241589725018, -0.034346047788858414, 0.13157179951667786, -0.18551446497440338, 0.16688960790634155, -0.0904574990272522, -0.0024748756550252438, -0.005908924154937267, 1.001099705696106, -0.7376508712768555, -2.0600345134735107, -0.16831600666046143, 0.0, 0.0, 0.0, 0, 0, 0, 0, 0, 0, -0.7376508712768555, -2.0600345134735107, -0.16831600666046143
11905, 0.013717819936573505, -0.03517865017056465, 0.13196077942848206, 0.09416094422340393, 0.14041489362716675, 0.12739384174346924, -0.0030276102479547262, -0.006194116082042456, 1.0005011558532715, -0.7392902374267578, -2.064796209335327, -0.1687029004096985, 0.0, 0.0, 0.0, 0, 0, 0, 0, 0, 0, -0.7392902374267578, -2.064796209335327, -0.1687029004096985
11915, 0.013183225877583027, -0.03428919240832329, 0.13182739913463593, -0.0824921578168869, 0.01736827939748764, -0.06167108938097954, -0.0004271993529982865, -0.006013651844114065, 0.9984545707702637, -0.740931510925293, -2.0695641040802, -0.16908913850784302, 0.0, 0.0, 0.0, 0, 0, 0, 0, 0, 0, -0.740931510925293, -2.0695641040802, -0.16908913850784302
11925, 0.013861950486898422, -0.035365212708711624, 0.1326911300420761, 0.10707508027553558, 0.2694231867790222, 0.11564536392688751, -0.0013869770336896181, -0.005015284288674593, 1.0009208917617798, -0.7425740361213684, -2.074338436126709, -0.16947594285011292, 0.0, 0.0, 0.0, 0, 0, 0, 0, 0, 0, -0.7425740361213684, -2.074338436126709, -0.16947594285011292
11935, 0.015052895992994308, -0.034412119537591934, 0.1331453025341034, 0.2612129747867584, -0.20415060222148895, 0.008905066177248955, -0.0025637021753937006, -0.005016848910599947, 0.997100830078125, -0.7442170977592468, -2.079118490219116, -0.1698632538318634, 0.0, 0.0, 0.0, 0, 0, 0, 0, 0, 0, -0.7442170977592468, -2.079118490219116, -0.1698632538318634
11945, 0.014900418929755688, -0.03473604843020439, 0.13331744074821472, 0.10477471351623535, -0.09648536890745163, 0.03195254132151604, -0.00146125175524503, -0.0038709386717528105, 0.9985657930374146, -0.7458613514900208, -2.0839035511016846, -0.17025145888328552, 0.0, 0.0, 0.0, 0, 0, 0, 0, 0, 0, -0.7458613514900208, -2.0839035511016846, -0.17025145888328552
11955, 0.01504189521074295, -0.034498728811740875, 0.13328415155410767, -0.06311279535293579, -0.08729858696460724, 0.04892061650753021, -0.0013553185854107141, -0.006815431639552116, 0.9992700815200806, -0.7475069165229797, -2.088693380355835, -0.17064142227172852, 0.0, 0.0, 0.0, 0, 0, 0, 0, 0, 0, -0.7475069165229797, -2.088693380355835, -0.17064142227172852
11965, 0.01658581756055355, -0.03316853940486908, 0.13286255300045013, 0.1737188994884491, -0.2375309020280838, 0.05159217119216919, -0.002130128676071763, -0.00516040762886405, 1.0002633333206177, -0.7491533756256104, -2.0934884548187256, -0.1710323989391327, 0.0, 0.0, 0.0, 0, 0, 0, 0, 0, 0, -0.7491533756256104, -2.0934884548187256, -0.1710323989391327
11975, 0.01705818437039852, -0.03115416131913662, 0.13254132866859436, 0.12557683885097504, -0.24294447898864746, 0.042227134108543396, -0.0018934005638584495, -0.006080614402890205, 0.9995810389518738, -0.7508008480072021, -2.098289728164673, -0.17142367362976074, 0.0, 0.0, 0.0, 0, 0, 0, 0, 0, 0, -0.7508008480072021, -2.098289728164673, -0.17142367362976074
11985, 0.016530947759747505, -0.033458925783634186, 0.1319345086812973, -0.03391841799020767, 0.3446485698223114, -0.040098149329423904, -0.0022307082545012236, -0.004260155372321606, 0.9997460246086121, -0.7524496912956238, -2.1030967235565186, -0.17181502282619476, 0.0, 0.0, 0.0, 0, 0, 0, 0, 0, 0, -0.7524496912956238, -2.1030967235565186, -0.17181502282619476
11995, 0.016488568857312202, -0.03396109119057655, 0.13124580681324005, -0.007184572517871857, -0.12254774570465088, -0.06832128018140793, -0.0023064378183335066, -0.004398800898343325, 0.999470055103302, -0.7541001439094543, -2.1079089641571045, -0.17220675945281982, 0.0, 0.0, 0.0, 0, 0, 0, 0, 0, 0, -0.7541001439094543, -2.1079089641571045, -0.17220675945281982
12005, 0.016503607854247093, -0.03389500826597214, 0.1338224709033966, 0.0500137060880661, 0.08468692749738693, 0.3039659857749939, -0.002560104476287961, -0.005765779875218868, 0.9994648694992065, -0.7557522654533386, -2.1127262115478516, -0.17259910702705383, 0.0, 0.0, 0.0, 0, 0, 0, 0, 0, 0, -0.7557522654533386, -2.1127262115478516, -0.17259910702705383
12015, 0.01725853607058525, -0.032463639974594116, 0.13374365866184235, 0.1358834207057953, -0.13420237600803375, -0.014435888268053532, -0.0007691362989135087, -0.0059608169831335545, 0.998414158821106, -0.7574060559272766, -2.117548704147339, -0.17299214005470276, 0.0, 0.0, 0.0, 0, 0, 0, 0, 0, 0, -0.7574060559272766, -2.117548704147339, -0.17299214005470276
