timeTick, roll, pitch, yaw, gyroX, gyroY, gyroZ, accX, accY, accZ, stateX, stateY, stateZ, target_x, target_y, target_z, otX, otY, otZ, otRoll, otPitch, otYaw, kalX, kalY, kalZ
10925, 0.018571171909570694, -0.1316937506198883, -0.05334554985165596, 0, 0, 0, 0, 0, 0, 0, 0, 0, 0, 0, 0, 0, 0, 0, 0, 0, 0, 0, 0, 0
10935, 0.01788293570280075, -0.1319897323846817, -0.05423804745078087, -0.06679636240005493, 0.010809201747179031, -0.14406360685825348, -0.0029356698505580425, -0.005430274643003941, 0.9963141679763794, -0.2345702350139618, -1.5535365343093872, 0.027161087840795517, 0.0, 0.0, 0.0, 0, 0, 0, 0, 0, 0, -0.2345702350139618, -1.5535365343093872, 0.027161087840795517
10945, 0.017457718029618263, -0.13314931094646454, -0.0545128732919693, -0.06867057830095291, 0.21566952764987946, -0.06009203940629959, -0.0028515970334410667, -0.0054880473762750626, 0.9969757199287415, -0.23488099873065948, -1.5579417943954468, 0.027290277183055878, 0.0, 0.0, 0.0, 0, 0, 0, 0, 0, 0, -0.23488099873065948, -1.5579417943954468, 0.027290277183055878
10955, 0.017148232087492943, -0.13448072969913483, -0.053825728595256805, -0.08364327996969223, 0.07778290659189224, 0.015308492816984653, -0.002826952375471592, -0.004867171868681908, 0.9990599751472473, -0.2351924479007721, -1.562353491783142, 0.027415910735726357, 0.0, 0.0, 0.0, 0, 0, 0, 0, 0, 0, -0.2351924479007721, -1.562353491783142, 0.027415910735726357
10965, 0.01732243224978447, -0.13591963052749634, -0.05362647399306297, -0.03882034495472908, 0.22976091504096985, -0.053219061344861984, -0.0013189681340008974, -0.004935720004141331, 1.0012303590774536, -0.23547601699829102, -1.5663697719573975, 0.027528002858161926, 0.0, 0.0, 0.0, 0, 0, 0, 0, 0, 0, -0.23547601699829102, -1.5663697719573975, 0.027528002858161926
10975, 0.017768848687410355, -0.13531237840652466, -0.053181543946266174, -0.07810022681951523, -0.07224608212709427, 0.014783539809286594, -0.0024661824572831392, -0.004374625626951456, 0.9987990856170654, -0.23575936257839203, -1.5703914165496826, 0.027640068903565407, 0.0, 0.0, 0.0, 0, 0, 0, 0, 0, 0, -0.23575936257839203, -1.5703914165496826, 0.027640068903565407
10985, 0.01834394969046116, -0.1340147703886032, -0.05376660078763962, 0.14557431638240814, -0.09890855103731155, -0.005125597584992647, -0.0016879673348739743, -0.0042632026597857475, 0.9986369013786316, -0.236042320728302, -1.574418067932129, 0.027752013877034187, 0.0, 0.0, 0.0, 0, 0, 0, 0, 0, 0, -0.236042320728302, -1.574418067932129, 0.027752013877034187
10995, 0.01795155555009842, -0.134203240275383, -0.05307788401842117, -0.21508793532848358, -0.01666918583214283, 0.1130080446600914, -0.002448584185913205, -0.004938040394335985, 0.9999438524246216, -0.23632501065731049, -1.5784492492675781, 0.027862779796123505, 0.0, 0.0, 0.0, 0, 0, 0, 0, 0, 0, -0.23632501065731049, -1.5784492492675781, 0.027862779796123505
11005, 0.017632151022553444, -0.13414403796195984, -0.05241519585251808, -0.027167700231075287, 0.021975582465529442, 0.14840026199817657, -0.002641341183334589, -0.005424306262284517, 1.0015288591384888, -0.23660755157470703, -1.582485318183899, 0.027972817420959473, 0.0, 0.0, 0.0, 0, 0, 0, 0, 0, 0, -0.23660755157470703, -1.582485318183899, 0.027972817420959473
11015, 0.018738040700554848, -0.1357961744070053, -0.052943192422389984, -0.044313665479421616, 0.40553122758865356, -0.2037009298801422, -0.0011451898608356714, -0.004420050419867039, 1.001875400543213, -0.2368900626897812, -1.5865267515182495, 0.02808374911546707, 0.0, 0.0, 0.0, 0, 0, 0, 0, 0, 0, -0.2368900626897812, -1.5865267515182495, 0.02808374911546707
11025, 0.019777271896600723, -0.13460558652877808, -0.05268947407603264, 0.09521213173866272, -0.40727439522743225, 0.016280893236398697, -0.0033333715982735157, -0.00514157023280859, 0.9986042380332947, -0.2371719926595688, -1.5905734300613403, 0.028196275234222412, 0.0, 0.0, 0.0, 0, 0, 0, 0, 0, 0, -0.2371719926595688, -1.5905734300613403, 0.028196275234222412
11035, 0.02001839689910412, -0.13623760640621185, -0.05281183868646622, 0.11241205781698227, 0.25376096367836, -0.03286933898925781, -0.0014105720911175013, -0.005654316861182451, 0.9975864887237549, -0.2374536246061325, -1.5946253538131714, 0.02830873616039753, 0.0, 0.0, 0.0, 0, 0, 0, 0, 0, 0, -0.2374536246061325, -1.5946253538131714, 0.02830873616039753
11045, 0.019415680319070816, -0.13697457313537598, -0.05408720299601555, -0.16195224225521088, 0.1749231368303299, -0.06358256191015244, -0.002076720120385289, -0.006425368133932352, 1.001031517982483, -0.23773494362831116, -1.5986827611923218, 0.02841956727206707, 0.0, 0.0, 0.0, 0, 0, 0, 0, 0, 0, -0.23773494362831116, -1.5986827611923218, 0.02841956727206707
11055, 0.019352778792381287, -0.13848842680454254, -0.054925672709941864, 0.029548674821853638, -0.047605324536561966, -0.09791625291109085, -0.002422340912744403, -0.0061338841915130615, 1.0003224611282349, -0.23801551759243011, -1.6027464866638184, 0.028529934585094452, 0.0, 0.0, 0.0, 0, 0, 0, 0, 0, 0, -0.23801551759243011, -1.6027464866638184, 0.028529934585094452
11065, 0.019756672903895378, -0.13897794485092163, -0.055666614323854446, 0.012903395108878613, 0.09643591195344925, -0.2114529013633728, -0.001532809343189001, -0.0042737978510558605, 1.0020556449890137, -0.2382960021495819, -1.6068167686462402, 0.028641050681471825, 0.0, 0.0, 0.0, 0, 0, 0, 0, 0, 0, -0.2382960021495819, -1.6068167686462402, 0.028641050681471825
11075, 0.018417255952954292, -0.13990166783332825, -0.0554567389190197, -0.18450048565864563, 0.036923959851264954, -0.024387627840042114, -0.0029111402109265327, -0.004087760578840971, 0.9999625086784363, -0.23857632279396057, -1.6108925342559814, 0.02875329926609993, 0.0, 0.0, 0.0, 0, 0, 0, 0, 0, 0, -0.23857632279396057, -1.6108925342559814, 0.02875329926609993
11085, 0.017918601632118225, -0.13924777507781982, -0.055176667869091034, 0.04672988876700401, -0.22852613031864166, 0.1502649486064911, -0.002404979430139065, -0.004823570139706135, 0.999500036239624, -0.23885639011859894, -1.6149728298187256, 0.02886636182665825, 0.0, 0.0, 0.0, 0, 0, 0, 0, 0, 0, -0.23885639011859894, -1.6149728298187256, 0.02886636182665825
11095, 0.01893071085214615, -0.13935893774032593, -0.054891329258680344, 0.14870229363441467, -0.15490810573101044, -0.06038476526737213, -0.0012803887948393822, -0.004474401939660311, 1.0004276037216187, -0.2391364872455597, -1.6190578937530518, 0.028979141265153885, 0.0, 0.0, 0.0, 0, 0, 0, 0, 0, 0, -0.2391364872455597, -1.6190578937530518, 0.028979141265153885
11105, 0.018639659509062767, -0.14057563245296478, -0.05579749122262001, -0.04363401234149933, 0.2675871253013611, -0.1795879751443863, -0.0026868232525885105, -0.007746125105768442, 0.9996846318244934, -0.23941610753536224, -1.623147964477539, 0.02909177914261818, 0.0, 0.0, 0.0, 0, 0, 0, 0, 0, 0, -0.23941610753536224, -1.623147964477539, 0.02909177914261818
11115, 0.019796404987573624, -0.14059481024742126, -0.05630066618323326, 0.24920149147510529, 0.10240676999092102, -0.05068628117442131, -0.004217164590954781, -0.008922800421714783, 1.0001206398010254, -0.23969542980194092, -1.627244472503662, 0.0292044784873724, 0.0, 0.0, 0.0, 0, 0, 0, 0, 0, 0, -0.23969542980194092, -1.627244472503662, 0.0292044784873724
11125, 0.02074514515697956, -0.14228728413581848, -0.055853791534900665, 0.09703323990106583, 0.2557498812675476, 0.1316317915916443, -0.0015266550472006202, -0.006026727147400379, 1.0013829469680786, -0.23997564613819122, -1.6313492059707642, 0.02931721694767475, 0.0, 0.0, 0.0, 0, 0, 0, 0, 0, 0, -0.23997564613819122, -1.6313492059707642, 0.02931721694767475
11135, 0.022154035046696663, -0.142936110496521, -0.05459507927298546, 0.13311949372291565, 0.15094472467899323, 0.08124737441539764, -0.000721523305401206, -0.0037996754981577396, 1.001083254814148, -0.24025613069534302, -1.6354610919952393, 0.029430728405714035, 0.0, 0.0, 0.0, 0, 0, 0, 0, 0, 0, -0.24025613069534302, -1.6354610919952393, 0.029430728405714035
11145, 0.021764332428574562, -0.14222918450832367, -0.055129654705524445, 0.08482583612203598, -0.08903519064188004, -0.07167373597621918, -0.0010532436426728964, -0.004955075215548277, 1.001076579093933, -0.24053536355495453, -1.6395779848098755, 0.029545381665229797, 0.0, 0.0, 0.0, 0, 0, 0, 0, 0, 0, -0.24053536355495453, -1.6395779848098755, 0.029545381665229797
11155, 0.022937092930078506, -0.14299540221691132, -0.055389344692230225, 0.19967679679393768, 0.03656936436891556, -0.07635702937841415, 0.0011810725554823875, -0.005369292106479406, 1.001526951789856, -0.24081295728683472, -1.6436995267868042, 0.029661040753126144, 0.0, 0.0, 0.0, 0, 0, 0, 0, 0, 0, -0.24081295728683472, -1.6436995267868042, 0.029661040753126144
11165, 0.02478570118546486, -0.14270281791687012, -0.054999176412820816, 0.27478495240211487, 0.02423115260899067, 0.12746921181678772, 0.0008762268698774278, -0.004318315535783768, 0.9996576309204102, -0.24108800292015076, -1.6478263139724731, 0.029778020456433296, 0.0, 0.0, 0.0, 0, 0, 0, 0, 0, 0, -0.24108800292015076, -1.6478263139724731, 0.029778020456433296
11175, 0.02360396273434162, -0.14365948736667633, -0.05604837089776993, -0.22799097001552582, 0.18549136817455292, -0.23419830203056335, -0.003822266822680831, -0.0072048623114824295, 0.9996508955955505, -0.24136005342006683, -1.6519582271575928, 0.02989553101360798, 0.0, 0.0, 0.0, 0, 0, 0, 0, 0, 0, -0.24136005342006683, -1.6519582271575928, 0.02989553101360798
11185, 0.02360941469669342, -0.1443888545036316, -0.05616078898310661, 0.08563286066055298, -0.014520058408379555, -0.10336105525493622, -0.0016449321992695332, -0.005767341237515211, 1.0008292198181152, -0.24163107573986053, -1.6560962200164795, 0.030012689530849457, 0.0, 0.0, 0.0, 0, 0, 0, 0, 0, 0, -0.24163107573986053, -1.6560962200164795, 0.030012689530849457
11195, 0.024260805919766426, -0.1451025903224945, -0.05629691109061241, -0.10116470605134964, 0.35309141874313354, 0.04040096700191498, -0.0008719144971109927, -0.005965465679764748, 0.9993892908096313, -0.24190197885036469, -1.6602410078048706, 0.030130060389637947, 0.0, 0.0, 0.0, 0, 0, 0, 0, 0, 0, -0.24190197885036469, -1.6602410078048706, 0.030130060389637947
11205, 0.024680418893694878, -0.1428348571062088, -0.057168539613485336, 0.01903970167040825, -0.28810763359069824, -0.05937732011079788, -0.0009690244332887232, -0.004449840635061264, 0.9986348748207092, -0.2421717494726181, -1.6643918752670288, 0.030247513204813004, 0.0, 0.0, 0.0, 0, 0, 0, 0, 0, 0, -0.2421717494726181, -1.6643918752670288, 0.030247513204813004
11215, 0.024853048846125603, -0.1443595439195633, -0.0583062469959259, 0.04530865699052811, 0.2120077759027481, -0.24039629101753235, -0.002035249024629593, -0.005346447695046663, 1.0008002519607544, -0.2424401491880417, -1.668548345565796, 0.03036435879766941, 0.0, 0.0, 0.0, 0, 0, 0, 0, 0, 0, -0.2424401491880417, -1.668548345565796, 0.03036435879766941
11225, 0.024633463472127914, -0.14444848895072937, -0.058408286422491074, -0.008641298860311508, 0.002865311922505498, -0.0589459128677845, -0.002819119254127145, -0.0058667659759521484, 0.9992733001708984, -0.242707759141922, -1.6727101802825928, 0.030480967834591866, 0.0, 0.0, 0.0, 0, 0, 0, 0, 0, 0, -0.242707759141922, -1.6727101802825928, 0.030480967834591866
11235, 0.023195402696728706, -0.14600786566734314, -0.05888953432440758, -0.20022623240947723, 0.1757161021232605, -0.1407950222492218, -0.0006856965483166277, -0.005759743507951498, 1.0008374452590942, -0.24297520518302917, -1.676877737045288, 0.030597519129514694, 0.0, 0.0, 0.0, 0, 0, 0, 0, 0, 0, -0.24297520518302917, -1.676877737045288, 0.030597519129514694
11245, 0.02329290471971035, -0.14729242026805878, -0.057683564722537994, 0.03020130842924118, 0.05607915669679642, 0.22312241792678833, -0.0018261836376041174, -0.007728599477559328, 0.9989227056503296, -0.24324172735214233, -1.681051254272461, 0.03071429207921028, 0.0, 0.0, 0.0, 0, 0, 0, 0, 0, 0, -0.24324172735214233, -1.681051254272461, 0.03071429207921028
11255, 0.0218538586050272, -0.14804068207740784, -0.05689321830868721, -0.19691863656044006, 0.20512761175632477, -0.0007828538655303419, -0.0009847191395238042, -0.005806265864521265, 0.9973739981651306, -0.24350684881210327, -1.6852316856384277, 0.03083089366555214, 0.0, 0.0, 0.0, 0, 0, 0, 0, 0, 0, -0.24350684881210327, -1.6852316856384277, 0.03083089366555214
11265, 0.022780224680900574, -0.14758943021297455, -0.05862553045153618, 0.23962587118148804, -0.08883161842823029, -0.24982231855392456, -0.003731929464265704, -0.006129750516265631, 1.000691294670105, -0.24377092719078064, -1.6894192695617676, 0.03094586730003357, 0.0, 0.0, 0.0, 0, 0, 0, 0, 0, 0, -0.24377092719078064, -1.6894192695617676, 0.03094586730003357
11275, 0.02229914255440235, -0.14627526700496674, -0.059470515698194504, -0.11664292961359024, -0.3197959065437317, -0.21837453544139862, -0.004672512877732515, -0.005804925225675106, 1.001050353050232, -0.24403497576713562, -1.6936131715774536, 0.031060006469488144, 0.0, 0.0, 0.0, 0, 0, 0, 0, 0, 0, -0.24403497576713562, -1.6936131715774536, 0.031060006469488144
11285, 0.02285419963300228, -0.14807043969631195, -0.058194976300001144, 0.06301657855510712, 0.18736568093299866, 0.08451680094003677, -0.003446093061938882, -0.0062012928538024426, 1.0014179944992065, -0.24430055916309357, -1.6978135108947754, 0.031175030395388603, 0.0, 0.0, 0.0, 0, 0, 0, 0, 0, 0, -0.24430055916309357, -1.6978135108947754, 0.031175030395388603
11295, 0.022520169615745544, -0.14793330430984497, -0.05717873200774193, -0.11903020739555359, 0.1037774309515953, -0.07208050042390823, -0.0023242898751050234, -0.005649827420711517, 0.9988269209861755, -0.24456751346588135, -1.7020200490951538, 0.03129136934876442, 0.0, 0.0, 0.0, 0, 0, 0, 0, 0, 0, -0.24456751346588135, -1.7020200490951538, 0.03129136934876442
11305, 0.022075973451137543, -0.14730899035930634, -0.05805712565779686, -0.05768536031246185, 0.10797534883022308, -0.152118518948555, -0.0027876480016857386, -0.0045857722871005535, 0.9978426098823547, -0.2448345571756363, -1.7062326669692993, 0.03140764310956001, 0.0, 0.0, 0.0, 0, 0, 0, 0, 0, 0, -0.2448345571756363, -1.7062326669692993, 0.03140764310956001
11315, 0.022945554926991463, -0.14602452516555786, -0.05776612088084221, 0.09952325373888016, -0.06617631018161774, -0.049608681350946426, -0.0031359747517853975, -0.006650702096521854, 0.9994118213653564, -0.2451014518737793, -1.7104511260986328, 0.03152228519320488, 0.0, 0.0, 0.0, 0, 0, 0, 0, 0, 0, -0.2451014518737793, -1.7104511260986328, 0.03152228519320488
11325, 0.023217273876070976, -0.1440068781375885, -0.05823640897870064, -0.043693870306015015, -0.2775522768497467, -0.13521899282932281, -0.0012740069068968296, -0.006539521273225546, 0.9994499683380127, -0.24536889791488647, -1.7146755456924438, 0.031635794788599014, 0.0, 0.0, 0.0, 0, 0, 0, 0, 0, 0, -0.24536889791488647, -1.7146755456924438, 0.031635794788599014
11335, 0.02397885173559189, -0.14541290700435638, -0.057948850095272064, 0.07425228506326675, 0.20879481732845306, 0.18596336245536804, -0.0013918327167630196, -0.004790443927049637, 0.9986100792884827, -0.2456362098455429, -1.7189065217971802, 0.03174889087677002, 0.0, 0.0, 0.0, 0, 0, 0, 0, 0, 0, -0.2456362098455429, -1.7189065217971802, 0.03174889087677002
11345, 0.023525085300207138, -0.1449446976184845, -0.058486878871917725, -0.02726849541068077, 0.13466313481330872, 0.11512457579374313, -0.0007058018818497658, -0.0017367183463647962, 1.0006687641143799, -0.24590235948562622, -1.723143219947815, 0.031861305236816406, 0.0, 0.0, 0.0, 0, 0, 0, 0, 0, 0, -0.24590235948562622, -1.723143219947815, 0.031861305236816406
11355, 0.022891510277986526, -0.14390280842781067, -0.06049419566988945, -0.04779476672410965, -0.1033390462398529, -0.29959940910339355, -0.0009218691848218441, -0.0038090283051133156, 1.0011392831802368, -0.2461668848991394, -1.7273834943771362, 0.031973619014024734, 0.0, 0.0, 0.0, 0, 0, 0, 0, 0, 0, -0.2461668848991394, -1.7273834943771362, 0.031973619014024734
11365, 0.02309732511639595, -0.14604739844799042, -0.05873057246208191, 0.08056458085775375, 0.16091661155223846, 0.21541482210159302, -0.001983317546546459, -0.0043261125683784485, 0.9995204210281372, -0.24642983078956604, -1.7316269874572754, 0.032086919993162155, 0.0, 0.0, 0.0, 0, 0, 0, 0, 0, 0, -0.24642983078956604, -1.7316269874572754, 0.032086919993162155
11375, 0.023231973871588707, -0.14646904170513153, -0.058785729110240936, -0.0018610138213261962, -0.03045342117547989, -0.0637766644358635, -0.0019631674513220787, -0.003418080974370241, 0.9960906505584717, -0.24669195711612701, -1.735874891281128, 0.032200343906879425, 0.0, 0.0, 0.0, 0, 0, 0, 0, 0, 0, -0.24669195711612701, -1.735874891281128, 0.032200343906879425
11385, 0.023790592327713966, -0.14794179797172546, -0.057642411440610886, 0.08435636013746262, 0.02841619774699211, 0.040190041065216064, -0.0019368862267583609, -0.004683863837271929, 0.9983511567115784, -0.24695350229740143, -1.7401270866394043, 0.03231160342693329, 0.0, 0.0, 0.0, 0, 0, 0, 0, 0, 0, -0.24695350229740143, -1.7401270866394043, 0.03231160342693329
11395, 0.024197226390242577, -0.1501777470111847, -0.05816267803311348, 0.14661553502082825, 0.24246171116828918, -0.07110413908958435, -0.0013052410213276744, -0.002937378827482462, 0.9992228746414185, -0.24721433222293854, -1.744383692741394, 0.0324203222990036, 0.0, 0.0, 0.0, 0, 0, 0, 0, 0, 0, -0.24721433222293854, -1.744383692741394, 0.0324203222990036
11405, 0.024546802043914795, -0.14949427545070648, -0.05656931921839714, 0.057582296431064606, -0.07332228124141693, 0.20223656296730042, -0.002526076976209879, -0.0034511014819145203, 1.0025079250335693, -0.24747417867183685, -1.7486443519592285, 0.03252784162759781, 0.0, 0.0, 0.0, 0, 0, 0, 0, 0, 0, -0.24747417867183685, -1.7486443519592285, 0.03252784162759781
11415, 0.023554373532533646, -0.1518847495317459, -0.057136356830596924, -0.12453719228506088, 0.24386285245418549, -0.13271306455135345, -0.0028082409407943487, -0.005009390413761139, 1.0004578828811646, -0.24773328006267548, -1.752908706665039, 0.03263607621192932, 0.0, 0.0, 0.0, 0, 0, 0, 0, 0, 0, -0.24773328006267548, -1.752908706665039, 0.03263607621192932
11425, 0.02406623773276806, -0.14817208051681519, -0.05873908847570419, 0.14878779649734497, -0.34440869092941284, -0.12549608945846558, -0.003051001112908125, -0.004418098833411932, 0.9999027848243713, -0.24799217283725739, -1.7571775913238525, 0.03274555131793022, 0.0, 0.0, 0.0, 0, 0, 0, 0, 0, 0, -0.24799217283725739, -1.7571775913238525, 0.03274555131793022
11435, 0.023873217403888702, -0.14854635298252106, -0.0576813630759716, 0.044360630214214325, 0.06445927172899246, 0.1409991830587387, -0.002711270935833454, -0.006088214460760355, 1.0001544952392578, -0.2482510805130005, -1.7614514827728271, 0.03285524994134903, 0.0, 0.0, 0.0, 0, 0, 0, 0, 0, 0, -0.2482510805130005, -1.7614514827728271, 0.03285524994134903
11445, 0.024892030283808708, -0.14878174662590027, -0.05698909983038902, 0.08536120504140854, 0.015742367133498192, 0.06635613739490509, -0.0023029327858239412, -0.007560112979263067, 0.9983055591583252, -0.2485102266073227, -1.765730857849121, 0.03296487778425217, 0.0, 0.0, 0.0, 0, 0, 0, 0, 0, 0, -0.2485102266073227, -1.765730857849121, 0.03296487778425217
11455, 0.02501881681382656, -0.14908678829669952, -0.055405814200639725, -0.023157505318522453, 0.06853707134723663, 0.08054062724113464, -0.0012047099880874157, -0.005651160608977079, 0.9987907409667969, -0.2487693876028061, -1.770017147064209, 0.03307366371154785, 0.0, 0.0, 0.0, 0, 0, 0, 0, 0, 0, -0.2487693876028061, -1.770017147064209, 0.03307366371154785
11465, 0.02633100561797619, -0.1502026617527008, -0.05332165211439133, 0.12981407344341278, 0.1007344126701355, 0.3636707365512848, -0.0014354082522913814, -0.006549579091370106, 1.0007418394088745, -0.24902792274951935, -1.7743102312088013, 0.03318129852414131, 0.0, 0.0, 0.0, 0, 0, 0, 0, 0, 0, -0.24902792274951935, -1.7743102312088013, 0.03318129852414131
11475, 0.02672993205487728, -0.15010525286197662, -0.05331403762102127, 0.023415111005306244, 0.11794924736022949, -0.16303499042987823, -0.0025710875634104013, -0.004668794106692076, 0.9994212985038757, -0.24928538501262665, -1.7786096334457397, 0.03328873589634895, 0.0, 0.0, 0.0, 0, 0, 0, 0, 0, 0, -0.24928538501262665, -1.7786096334457397, 0.03328873589634895
11485, 0.027143502607941628, -0.14916196465492249, -0.05361238121986389, 0.12184932082891464, -0.2848548889160156, 0.016444843262434006, -0.0037867394275963306, -0.005745395552366972, 0.9998161792755127, -0.24954234063625336, -1.7829147577285767, 0.03339619189500809, 0.0, 0.0, 0.0, 0, 0, 0, 0, 0, 0, -0.24954234063625336, -1.7829147577285767, 0.03339619189500809
11495, 0.027481012046337128, -0.15055982768535614, -0.054428357630968094, 0.1978723704814911, 0.17659415304660797, -0.12053663283586502, -0.002662549028173089, -0.005138432141393423, 1.001887321472168, -0.24979986250400543, -1.787225604057312, 0.03350342437624931, 0.0, 0.0, 0.0, 0, 0, 0, 0, 0, 0, -0.24979986250400543, -1.787225604057312, 0.03350342437624931
11505, 0.02770339697599411, -0.15111225843429565, -0.05255397409200668, 0.12904730439186096, 0.1203015074133873, 0.24781081080436707, -0.0007589235901832581, -0.0038572587072849274, 1.0001338720321655, -0.2500578463077545, -1.7915421724319458, 0.0336112417280674, 0.0, 0.0, 0.0, 0, 0, 0, 0, 0, 0, -0.2500578463077545, -1.7915421724319458, 0.0336112417280674
11515, 0.02774886228144169, -0.15085525810718536, -0.05321146175265312, -0.036265384405851364, -0.14553478360176086, -0.07678878307342529, -0.0013658646494150162, -0.003728034906089306, 0.9994281530380249, -0.2503148913383484, -1.7958636283874512, 0.0337197408080101, 0.0, 0.0, 0.0, 0, 0, 0, 0, 0, 0, -0.2503148913383484, -1.7958636283874512, 0.0337197408080101
11525, 0.027700379490852356, -0.1490468531847, -0.05325402319431305, 0.0696016326546669, -0.29722175002098083, 0.003674752777442336, -0.0018321649404242635, -0.006589923985302448, 0.9976341724395752, -0.25057047605514526, -1.8001896142959595, 0.03382788226008415, 0.0, 0.0, 0.0, 0, 0, 0, 0, 0, 0, -0.25057047605514526, -1.8001896142959595, 0.03382788226008415
11535, 0.027155913412570953, -0.14917384088039398, -0.05269075930118561, -0.04534472897648811, -0.09438447654247284, 0.07078627496957779, -0.0012776696821674705, -0.006159867625683546, 1.0006455183029175, -0.2508249878883362, -1.8045213222503662, 0.03393465653061867, 0.0, 0.0, 0.0, 0, 0, 0, 0, 0, 0, -0.2508249878883362, -1.8045213222503662, 0.03393465653061867
11545, 0.02690422534942627, -0.14968957006931305, -0.05332181602716446, -0.044956523925065994, 0.20142218470573425, 0.041364531964063644, -0.0010899765184149146, -0.0037449512165039778, 1.0012292861938477, -0.25107821822166443, -1.8088594675064087, 0.034040771424770355, 0.0, 0.0, 0.0, 0, 0, 0, 0, 0, 0, -0.25107821822166443, -1.8088594675064087, 0.034040771424770355
11555, 0.02737847901880741, -0.151534304022789, -0.05301468074321747, 0.175556942820549, 0.14794215559959412, 0.12547247111797333, -0.0025361336302012205, -0.006086000241339207, 0.9985880255699158, -0.2513299882411957, -1.813202977180481, 0.0341477207839489, 0.0, 0.0, 0.0, 0, 0, 0, 0, 0, 0, -0.2513299882411957, -1.813202977180481, 0.0341477207839489
11565, 0.028139814734458923, -0.15054693818092346, -0.05372897535562515, 0.10241848975419998, -0.1848517805337906, -0.09826140850782394, 0.00033143701148219407, -0.0074378494173288345, 0.9997419118881226, -0.2515809237957001, -1.817551851272583, 0.034254614263772964, 0.0, 0.0, 0.0, 0, 0, 0, 0, 0, 0, -0.2515809237957001, -1.817551851272583, 0.034254614263772964
11575, 0.028296001255512238, -0.1494358777999878, -0.05370267480611801, -0.10566384345293045, -0.1273636817932129, -0.039305105805397034, 0.0014646907802671194, -0.0067135985009372234, 0.9982737898826599, -0.25183022022247314, -1.8219077587127686, 0.0343606099486351, 0.0, 0.0, 0.0, 0, 0, 0, 0, 0, 0, -0.25183022022247314, -1.8219077587127686, 0.0343606099486351
11585, 0.02948869578540325, -0.15060751140117645, -0.05479966104030609, 0.2328145056962967, 0.24349482357501984, -1.2382363820506725e-05, -0.0008668708032928407, -0.005603141151368618, 0.9987850785255432, -0.25207605957984924, -1.8262710571289062, 0.03446551039814949, 0.0, 0.0, 0.0, 0, 0, 0, 0, 0, 0, -0.25207605957984924, -1.8262710571289062, 0.03446551039814949
11595, 0.03027074597775936, -0.14915721118450165, -0.05490899831056595, 0.012760338373482227, -0.2451486587524414, 0.017471279948949814, -0.0018296162597835064, -0.005116388201713562, 1.0020136833190918, -0.2523190677165985, -1.8306410312652588, 0.03456913307309151, 0.0, 0.0, 0.0, 0, 0, 0, 0, 0, 0, -0.2523190677165985, -1.8306410312652588, 0.03456913307309151
11605, 0.03086034767329693, -0.15091539919376373, -0.05512726679444313, -0.03071572445333004, 0.25548210740089417, -0.019442932680249214, -0.0022370917722582817, -0.003662123577669263, 0.9991146922111511, -0.2525607645511627, -1.8350169658660889, 0.03467297926545143, 0.0, 0.0, 0.0, 0, 0, 0, 0, 0, 0, -0.2525607645511627, -1.8350169658660889, 0.03467297926545143
11615, 0.03063209541141987, -0.15117713809013367, -0.0541725717484951, 0.0694318488240242, 0.18273824453353882, 0.22614353895187378, -0.002597791375592351, -0.004437531344592571, 0.9994810819625854, -0.2528018653392792, -1.839397668838501, 0.03477716073393822, 0.0, 0.0, 0.0, 0, 0, 0, 0, 0, 0, -0.2528018653392792, -1.839397668838501, 0.03477716073393822
11625, 0.03055400587618351, -0.1533418744802475, -0.056112442165613174, 0.055399615317583084, 0.3932581841945648, -0.4084300696849823, -0.0016453355783596635, -0.0055291419848799706, 0.9994919300079346, -0.2530427575111389, -1.843782663345337, 0.03488079458475113, 0.0, 0.0, 0.0, 0, 0, 0, 0, 0, 0, -0.2530427575111389, -1.843782663345337, 0.03488079458475113
11635, 0.029602572321891785, -0.15316453576087952, -0.05546005815267563, -0.05132652074098587, 0.03308102861046791, 0.10202240198850632, -0.001234568771906197, -0.004328713286668062, 0.9987523555755615, -0.25328314304351807, -1.8481730222702026, 0.03498394042253494, 0.0, 0.0, 0.0, 0, 0, 0, 0, 0, 0, -0.25328314304351807, -1.8481730222702026, 0.03498394042253494
11645, 0.029284551739692688, -0.15417549014091492, -0.05483845993876457, -0.011750560253858566, 0.1134931817650795, -0.05747167393565178, -0.003303238656371832, -0.006120441015809774, 0.9996277093887329, -0.2535223960876465, -1.8525688648223877, 0.0350862517952919, 0.0, 0.0, 0.0, 0, 0, 0, 0, 0, 0, -0.2535223960876465, -1.8525688648223877, 0.0350862517952919
11655, 0.029650310054421425, -0.1541048139333725, -0.05463992804288864, 0.10007278621196747, 0.01556909829378128, 0.026548566296696663, -0.0017428903374820948, -0.004024381749331951, 1.0003902912139893, -0.253761351108551, -1.8569705486297607, 0.03518782556056976, 0.0, 0.0, 0.0, 0, 0, 0, 0, 0, 0, -0.253761351108551, -1.8569705486297607, 0.03518782556056976
11665, 0.030177515000104904, -0.1532743126153946, -0.053928811103105545, 0.12901316583156586, -0.22889000177383423, -0.13618631660938263, -0.0007874519214965403, -0.005178157705813646, 1.0014361143112183, -0.254000186920166, -1.8613777160644531, 0.03528939187526703, 0.0, 0.0, 0.0, 0, 0, 0, 0, 0, 0, -0.254000186920166, -1.8613777160644531, 0.03528939187526703
11675, 0.030119432136416435, -0.15250881016254425, -0.05328361317515373, -0.08004266023635864, -0.2313723862171173, -0.011857965961098671, -0.0007049284758977592, -0.0056978026404976845, 0.9992478489875793, -0.25423771142959595, -1.8657900094985962, 0.03539177402853966, 0.0, 0.0, 0.0, 0, 0, 0, 0, 0, 0, -0.25423771142959595, -1.8657900094985962, 0.03539177402853966
11685, 0.03076246753334999, -0.15078343451023102, -0.05346766114234924, 0.08709128201007843, -0.25147950649261475, -0.09610152989625931, -0.001082363072782755, -0.0037307962775230408, 0.9979960322380066, -0.2544734477996826, -1.8702080249786377, 0.035494595766067505, 0.0, 0.0, 0.0, 0, 0, 0, 0, 0, 0, -0.2544734477996826, -1.8702080249786377, 0.035494595766067505
11695, 0.031221259385347366, -0.15003782510757446, -0.05425169691443443, 0.01764332689344883, 0.031024087220430374, -0.09061130881309509, -0.0019428266678005457, -0.00437248544767499, 1.0007374286651611, -0.2547076344490051, -1.8746311664581299, 0.03559640422463417, 0.0, 0.0, 0.0, 0, 0, 0, 0, 0, 0, -0.2547076344490051, -1.8746311664581299, 0.03559640422463417
11705, 0.030185138806700706, -0.15071511268615723, -0.05482902750372887, -0.16475842893123627, 0.12718699872493744, -0.03519674018025398, -0.00032206912874244153, -0.005316648166626692, 0.9995564222335815, -0.2549406886100769, -1.8790589570999146, 0.03569750860333443, 0.0, 0.0, 0.0, 0, 0, 0, 0, 0, 0, -0.2549406886100769, -1.8790589570999146, 0.03569750860333443
11715, 0.02985660545527935, -0.15348142385482788, -0.054419949650764465, -0.11578205972909927, 0.38463136553764343, -0.04188995063304901, -0.00016370553930755705, -0.004855234641581774, 0.9996150135993958, -0.2551721930503845, -1.8834922313690186, 0.035798631608486176, 0.0, 0.0, 0.0, 0, 0, 0, 0, 0, 0, -0.2551721930503845, -1.8834922313690186, 0.035798631608486176
11725, 0.030308499932289124, -0.15343745052814484, -0.05369097739458084, 0.04839824512600899, 0.11131080985069275, 0.07788658142089844, -2.974589187942911e-05, -0.0065261078998446465, 0.9987506866455078, -0.25540128350257874, -1.887931227684021, 0.03589949011802673, 0.0, 0.0, 0.0, 0, 0, 0, 0, 0, 0, -0.25540128350257874, -1.887931227684021, 0.03589949011802673
11735, 0.02989860065281391, -0.15435606241226196, -0.053546544164419174, -0.0741942822933197, 0.2577516734600067, -0.06552780419588089, -0.0009993142448365688, -0.006592938210815191, 0.998019814491272, -0.2556277811527252, -1.892376184463501, 0.03599958121776581, 0.0, 0.0, 0.0, 0, 0, 0, 0, 0, 0, -0.2556277811527252, -1.892376184463501, 0.03599958121776581
11745, 0.030434416607022285, -0.15248505771160126, -0.05385810136795044, 0.020083310082554817, -0.11333439499139786, -0.04025902599096298, -0.0005930188926868141, -0.0048830206505954266, 0.9972936511039734, -0.25585222244262695, -1.896828055381775, 0.03609804809093475, 0.0, 0.0, 0.0, 0, 0, 0, 0, 0, 0, -0.25585222244262695, -1.896828055381775, 0.03609804809093475
11755, 0.029838640242815018, -0.15285202860832214, -0.05384024977684021, 0.0011837029596790671, 0.20998410880565643, 0.03425626456737518, -0.0014542328426614404, -0.004224134609103203, 0.9983605146408081, -0.256074994802475, -1.901286244392395, 0.03619418293237686, 0.0, 0.0, 0.0, 0, 0, 0, 0, 0, 0, -0.256074994802475, -1.901286244392395, 0.03619418293237686
11765, 0.029193373396992683, -0.153739795088768, -0.05348789691925049, 0.035031285136938095, 0.1826678365468979, 0.1759534776210785, -0.00290873390622437, -0.005841510370373726, 1.0006165504455566, -0.2562963366508484, -1.9057495594024658, 0.03628826513886452, 0.0, 0.0, 0.0, 0, 0, 0, 0, 0, 0, -0.2562963366508484, -1.9057495594024658, 0.03628826513886452
11775, 0.028805173933506012, -0.15362508594989777, -0.05381051078438759, 0.022317325696349144, -0.1469111442565918, -0.07754451036453247, -0.000525256444234401, -0.005350740160793066, 1.0013854503631592, -0.2565171718597412, -1.9102184772491455, 0.03638172522187233, 0.0, 0.0, 0.0, 0, 0, 0, 0, 0, 0, -0.2565171718597412, -1.9102184772491455, 0.03638172522187233
11785, 0.02962394617497921, -0.1565684676170349, -0.053203780204057693, 0.10727759450674057, 0.4823256731033325, -0.09386953711509705, -0.0015347307780757546, -0.004465611185878515, 1.0000165700912476, -0.2567589282989502, -1.9151413440704346, 0.03648533299565315, 0.0, 0.0, 0.0, 0, 0, 0, 0, 0, 0, -0.2567589282989502, -1.9151413440704346, 0.03648533299565315
11795, 0.030058270320296288, -0.1571764051914215, -0.05437939614057541, -0.004966801032423973, -0.009876517578959465, -0.09647160768508911, -0.0014258116716518998, -0.005786214489489794, 1.0013220310211182, -0.2569770812988281, -1.919622540473938, 0.03658031299710274, 0.0, 0.0, 0.0, 0, 0, 0, 0, 0, 0, -0.2569770812988281, -1.919622540473938, 0.03658031299710274
11805, 0.03005122020840645, -0.15832354128360748, -0.054573625326156616, -0.012932731769979, 0.03196239098906517, 0.005057859234511852, -0.0014347154647111893, -0.004437466152012348, 1.0013865232467651, -0.2571941316127777, -1.9241094589233398, 0.03667604178190231, 0.0, 0.0, 0.0, 0, 0, 0, 0, 0, 0, -0.2571941316127777, -1.9241094589233398, 0.03667604178190231
11815, 0.029924260452389717, -0.15808148682117462, -0.05425798147916794, 0.0045720841735601425, -0.09081628918647766, 0.18343129754066467, -0.0036537195555865765, -0.005922174546867609, 1.000244140625, -0.2574102282524109, -1.9286017417907715, 0.0367729477584362, 0.0, 0.0, 0.0, 0, 0, 0, 0, 0, 0, -0.2574102282524109, -1.9286017417907715, 0.0367729477584362
11825, 0.029412033036351204, -0.15808063745498657, -0.05481446161866188, -0.015781063586473465, -0.10006123781204224, -0.020312372595071793, -0.0038206770550459623, -0.004337693564593792, 0.9991090297698975, -0.25762641429901123, -1.9330992698669434, 0.03687052056193352, 0.0, 0.0, 0.0, 0, 0, 0, 0, 0, 0, -0.25762641429901123, -1.9330992698669434, 0.03687052056193352
11835, 0.029412033036351204, -0.15808063745498657, -0.05481446161866188, -0.04202360659837723, 0.19144195318222046, 0.12507610023021698, -0.002506359713152051, -0.007167384028434753, 0.9992939233779907, -0.2578434944152832, -1.9376020431518555, 0.036967769265174866, 0.0, 0.0, 0.0, 0, 0, 0, 0, 0, 0, -0.2578434944152832, -1.9376020431518555, 0.036967769265174866
11845, 0.029921095818281174, -0.1601700335741043, -0.054862793534994125, 0.08551133424043655, -0.1673072725534439, -0.0030937010888010263, -0.0015074936673045158, -0.007214385084807873, 1.0025242567062378, -0.2580608129501343, -1.9421107769012451, 0.03706445172429085, 0.0, 0.0, 0.0, 0, 0, 0, 0, 0, 0, -0.2580608129501343, -1.9421107769012451, 0.03706445172429085
11855, 0.029911842197179794, -0.15956369042396545, -0.05416446179151535, -0.10768657177686691, 0.25810661911964417, -0.19460347294807434, 0.00040525849908590317, -0.006289562210440636, 1.0007964372634888, -0.25827714800834656, -1.9466267824172974, 0.03716196119785309, 0.0, 0.0, 0.0, 0, 0, 0, 0, 0, 0, -0.25827714800834656, -1.9466267824172974, 0.03716196119785309
11865, 0.02944920025765896, -0.16052532196044922, -0.05409935861825943, -0.047699835151433945, 0.17710159718990326, -0.008466921746730804, 0.0011755769373849034, -0.005982636008411646, 1.002768874168396, -0.25849097967147827, -1.951149821281433, 0.03726091608405113, 0.0, 0.0, 0.0, 0, 0, 0, 0, 0, 0, -0.25849097967147827, -1.951149821281433, 0.03726091608405113
11875, 0.02944926917552948, -0.16193850338459015, -0.05246732756495476, -0.07275180518627167, 0.2679753601551056, 0.016569998115301132, -0.001319600734859705, -0.005347789265215397, 1.0011671781539917, -0.2587014436721802, -1.9556794166564941, 0.037361424416303635, 0.0, 0.0, 0.0, 0, 0, 0, 0, 0, 0, -0.2587014436721802, -1.9556794166564941, 0.037361424416303635
11885, 0.029176531359553337, -0.1632418930530548, -0.05281689763069153, -0.04692542552947998, -0.025802481919527054, 0.30084294080734253, -0.0016931687714532018, -0.0015445227036252618, 0.9994785189628601, -0.25890931487083435, -1.960214614868164, 0.03746354207396507, 0.0, 0.0, 0.0, 0, 0, 0, 0, 0, 0, -0.25890931487083435, -1.960214614868164, 0.03746354207396507
11895, 0.02843955159187317, -0.1622043401002884, -0.05206925421953201, -0.022142203524708748, 0.11799383163452148, -0.2242584526538849, -0.004330564755946398, -0.0032399643678218126, 0.999750554561615, -0.25911593437194824, -1.96475350856781, 0.03756584972143173, 0.0, 0.0, 0.0, 0, 0, 0, 0, 0, 0, -0.25911593437194824, -1.96475350856781, 0.03756584972143173
11905, 0.02772466465830803, -0.16294436156749725, -0.05171575769782066, -0.08214311301708221, 0.13341765105724335, 0.15213313698768616, -0.0030840649269521236, -0.004993277136236429, 1.0008493661880493, -0.2593231499195099, -1.9692955017089844, 0.03766782954335213, 0.0, 0.0, 0.0, 0, 0, 0, 0, 0, 0, -0.2593231499195099, -1.9692955017089844, 0.03766782954335213
11915, 0.02679218165576458, -0.16360682249069214, -0.050415296107530594, -0.0577353909611702, 0.08800574392080307, 0.24204769730567932, -0.0008586905896663666, -0.005600479431450367, 1.0002925395965576, -0.2595311105251312, -1.9738422632217407, 0.037770286202430725, 0.0, 0.0, 0.0, 0, 0, 0, 0, 0, 0, -0.2595311105251312, -1.9738422632217407, 0.037770286202430725
11925, 0.026774978265166283, -0.16423670947551727, -0.04814223200082779, -0.009515807032585144, 0.1441914588212967, 0.015117689035832882, -0.0022101278882473707, -0.005733587313443422, 0.997341513633728, -0.25973811745643616, -1.9783947467803955, 0.037872910499572754, 0.0, 0.0, 0.0, 0, 0, 0, 0, 0, 0, -0.25973811745643616, -1.9783947467803955, 0.037872910499572754
11935, 0.027049854397773743, -0.16591192781925201, -0.04817426949739456, 0.20557226240634918, 0.13202758133411407, 0.19286364316940308, -0.0021418407559394836, -0.004610346630215645, 1.0006301403045654, -0.25994399189949036, -1.9829531908035278, 0.03797433152794838, 0.0, 0.0, 0.0, 0, 0, 0, 0, 0, 0, -0.25994399189949036, -1.9829531908035278, 0.03797433152794838
11945, 0.0280692707747221, -0.16630005836486816, -0.047004763036966324, 0.27492135763168335, -0.07261702418327332, -0.05345204100012779, -0.0016183623811230063, -0.006020017899572849, 1.0001152753829956, -0.2601490914821625, -1.987517237663269, 0.03807515278458595, 0.0, 0.0, 0.0, 0, 0, 0, 0, 0, 0, -0.2601490914821625, -1.987517237663269, 0.03807515278458595
11955, 0.028553377836942673, -0.16626010835170746, -0.04715171828866005, -0.06298824399709702, 0.10065272450447083, -0.24559293687343597, -0.0016279964474961162, -0.005143454764038324, 0.999851405620575, -0.26035308837890625, -1.9920871257781982, 0.03817645087838173, 0.0, 0.0, 0.0, 0, 0, 0, 0, 0, 0, -0.26035308837890625, -1.9920871257781982, 0.03817645087838173
11965, 0.02827208861708641, -0.16548113524913788, -0.048054251819849014, 0.13779915869235992, 0.007633762434124947, -0.010767138563096523, -0.001065967371687293, -0.006995724514126778, 1.0001826286315918, -0.2605559527873993, -1.996663212776184, 0.03827785328030586, 0.0, 0.0, 0.0, 0, 0, 0, 0, 0, 0, -0.2605559527873993, -1.996663212776184, 0.03827785328030586
11975, 0.028769955039024353, -0.16598118841648102, -0.048264071345329285, -0.0017113885842263699, -0.06258103996515274, 0.05568057671189308, -0.001010296051390469, -0.004018733277916908, 0.9999889135360718, -0.2607573866844177, -2.0012457370758057, 0.03837932273745537, 0.0, 0.0, 0.0, 0, 0, 0, 0, 0, 0, -0.2607573866844177, -2.0012457370758057, 0.03837932273745537
11985, 0.028788674622774124, -0.1640491783618927, -0.04797901213169098, -0.10104264318943024, 0.19395945966243744, -0.09808480739593506, 0.0010271193459630013, -0.004616967868059874, 0.9985593557357788, -0.26095664501190186, -2.005833864212036, 0.038481034338474274, 0.0, 0.0, 0.0, 0, 0, 0, 0, 0, 0, -0.26095664501190186, -2.005833864212036, 0.038481034338474274
11995, 0.028501641005277634, -0.16527079045772552, -0.048560380935668945, 0.07455751299858093, -0.03435704857110977, -0.022170020267367363, -0.0005961812566965818, -0.0045846509747207165, 1.0011476278305054, -0.26115286350250244, -2.0104267597198486, 0.038582414388656616, 0.0, 0.0, 0.0, 0, 0, 0, 0, 0, 0, -0.26115286350250244, -2.0104267597198486, 0.038582414388656616
12005, 0.029094213619828224, -0.1658015102148056, -0.04929260164499283, 0.03324543684720993, 0.12688985466957092, 0.1383439004421234, -0.0030151032842695713, -0.003700141329318285, 1.000898838043213, -0.26134639978408813, -2.0150246620178223, 0.03868389129638672, 0.0, 0.0, 0.0, 0, 0, 0, 0, 0, 0, -0.26134639978408813, -2.0150246620178223, 0.03868389129638672
12015, 0.02904169261455536, -0.16463106870651245, -0.04843548312783241, 0.014765926636755466, 0.23317399621009827, -0.24049745500087738, -0.0014119753614068031, -0.0038769226521253586, 1.0018417835235596, -0.2615390717983246, -2.019627094268799, 0.0387863926589489, 0.0, 0.0, 0.0, 0, 0, 0, 0, 0, 0, -0.2615390717983246, -2.019627094268799, 0.0387863926589489
12025, 0.029368510469794273, -0.1661452054977417, -0.04938647523522377, -0.11967086046934128, 0.19633564352989197, 0.10407057404518127, 0.0005213059484958649, -0.004362509585916996, 1.000006079673767, -0.26173093914985657, -2.024233818054199, 0.03888998553156853, 0.0, 0.0, 0.0, 0, 0, 0, 0, 0, 0, -0.26173093914985657, -2.024233818054199, 0.03888998553156853
12035, 0.028976939618587494, -0.16781727969646454, -0.049132030457258224, -0.03254978731274605, -0.15159150958061218, -0.22836896777153015, -0.0009076395654119551, -0.003282999387010932, 0.9995260238647461, -0.2619204521179199, -2.0288450717926025, 0.038994114845991135, 0.0, 0.0, 0.0, 0, 0, 0, 0, 0, 0, -0.2619204521179199, -2.0288450717926025, 0.038994114845991135
12045, 0.029157506301999092, -0.16891373693943024, -0.049822866916656494, 0.07493412494659424, 0.15600897371768951, 0.11081303656101227, -0.0007046362152323127, -0.0037268195301294327, 1.0003774166107178, -0.26210734248161316, -2.0334606170654297, 0.03909788280725479, 0.0, 0.0, 0.0, 0, 0, 0, 0, 0, 0, -0.26210734248161316, -2.0334606170654297, 0.03909788280725479
12055, 0.029704662039875984, -0.1703377515077591, -0.04923107847571373, -0.14199934899806976, 0.2678481936454773, -0.009285775013267994, -0.00445755198597908, -0.005276212003082037, 0.99957275390625, -0.2622925043106079, -2.0380804538726807, 0.03920130804181099, 0.0, 0.0, 0.0, 0, 0, 0, 0, 0, 0, -0.2622925043106079, -2.0380804538726807, 0.03920130804181099
12065, 0.029338980093598366, -0.17164656519889832, -0.048542216420173645, -0.04307357966899872, 0.049903471022844315, -0.07259014248847961, -0.0018916549161076546, -0.00449450733140111, 1.0000497102737427, -0.2624776065349579, -2.042705535888672, 0.03930453211069107, 0.0, 0.0, 0.0, 0, 0, 0, 0, 0, 0, -0.2624776065349579, -2.042705535888672, 0.03930453211069107
12075, 0.029909413307905197, -0.1712934374809265, -0.04932832717895508, 0.08350969851016998, -0.0028818666469305754, 0.11164281517267227, -0.0011857373174279928, -0.0056422012858092785, 0.9995899796485901, -0.26266273856163025, -2.0473361015319824, 0.03940737619996071, 0.0, 0.0, 0.0, 0, 0, 0, 0, 0, 0, -0.26266273856163025, -2.0473361015319824, 0.03940737619996071
12085, 0.029766187071800232, -0.170986607670784, -0.048690952360630035, 0.13742148876190186, -0.07727271318435669, 0.05551920086145401, 0.0010807912331074476, -0.007151932921260595, 1.0018953084945679, -0.262846440076828, -2.0519723892211914, 0.03951011598110199, 0.0, 0.0, 0.0, 0, 0, 0, 0, 0, 0, -0.262846440076828, -2.0519723892211914, 0.03951011598110199
12095, 0.030532294884324074, -0.1710682362318039, -0.04833868891000748, -0.18245907127857208, 0.1614769548177719, -0.1777205765247345, 0.00022256858937907964, -0.003958940971642733, 1.0007365942001343, -0.26302725076675415, -2.056615114212036, 0.03961373120546341, 0.0, 0.0, 0.0, 0, 0, 0, 0, 0, 0, -0.26302725076675415, -2.056615114212036, 0.03961373120546341
12105, 0.02967468835413456, -0.17092375457286835, -0.04930460453033447, 0.1569531112909317, -0.17806272208690643, -0.15697047114372253, -0.00228367792442441, -0.0046055554412305355, 0.999157726764679, -0.2632049024105072, -2.0612635612487793, 0.039718374609947205, 0.0, 0.0, 0.0, 0, 0, 0, 0, 0, 0, -0.2632049024105072, -2.0612635612487793, 0.039718374609947205
12115, 0.029942117631435394, -0.17024755477905273, -0.049976322799921036, 0.11927216500043869, 0.005216778721660376, 0.18394754827022552, 0.0006686985725536942, -0.00520014064386487, 0.9993519186973572, -0.263380765914917, -2.0659167766571045, 0.03982275724411011, 0.0, 0.0, 0.0, 0, 0, 0, 0, 0, 0, -0.263380765914917, -2.0659167766571045, 0.03982275724411011
12125, 0.030422598123550415, -0.17049436271190643, -0.047927889972925186, -0.055144138634204865, 0.10612165927886963, -0.39278438687324524, 0.0008081152918748558, -0.004225913435220718, 1.0011684894561768, -0.263554185628891, -2.07057523727417, 0.03992635756731033, 0.0, 0.0, 0.0, 0, 0, 0, 0, 0, 0, -0.263554185628891, -2.07057523727417, 0.03992635756731033
12135, 0.030849438160657883, -0.17099349200725555, -0.048366740345954895, 0.13796693086624146, 0.09237275272607803, 0.15268577635288239, -0.0028642783872783184, -0.005370608065277338, 1.0007026195526123, -0.26372411847114563, -2.0752389430999756, 0.040030237287282944, 0.0, 0.0, 0.0, 0, 0, 0, 0, 0, 0, -0.26372411847114563, -2.0752389430999756, 0.040030237287282944
12145, 0.03111070580780506, -0.17073817551136017, -0.04643437638878822, 0.06794334203004837, 0.11760782450437546, 0.020498143509030342, -0.0011040191166102886, -0.0070193056017160416, 1.0002111196517944, -0.263892263174057, -2.0799081325531006, 0.04013471677899361, 0.0, 0.0, 0.0, 0, 0, 0, 0, 0, 0, -0.263892263174057, -2.0799081325531006, 0.04013471677899361
12155, 0.032175831496715546, -0.17283488810062408, -0.04529785364866257, 0.07229438424110413, 0.04285881295800209, 0.021685145795345306, -0.0009490175289101899, -0.005082382820546627, 1.000537395477295, -0.26405930519104004, -2.0845839977264404, 0.0402393713593483, 0.0, 0.0, 0.0, 0, 0, 0, 0, 0, 0, -0.26405930519104004, -2.0845839977264404, 0.0402393713593483
12165, 0.03281309828162193, -0.17124226689338684, -0.044854968786239624, -0.01511556375771761, -0.026116786524653435, -0.019686929881572723, -0.0026465831324458122, -0.005030229687690735, 1.0004764795303345, -0.26422446966171265, -2.089266300201416, 0.04034457728266716, 0.0, 0.0, 0.0, 0, 0, 0, 0, 0, 0, -0.26422446966171265, -2.089266300201416, 0.04034457728266716
12175, 0.03220834210515022, -0.16986846923828125, -0.04614244028925896, -0.07770001888275146, 0.05019836500287056, 0.056757599115371704, -0.0033501407597213984, -0.006815400905907154, 1.0007636547088623, -0.2643885314464569, -2.09395432472229, 0.040450241416692734, 0.0, 0.0, 0.0, 0, 0, 0, 0, 0, 0, -0.2643885314464569, -2.09395432472229, 0.040450241416692734
12185, 0.031853724271059036, -0.17039087414741516, -0.04585219547152519, 0.007237332873046398, 0.03878842294216156, 0.11518310755491257, -0.0038708404172211885, -0.005401783622801304, 1.001083493232727, -0.2645527124404907, -2.0986487865448, 0.04055662825703621, 0.0, 0.0, 0.0, 0, 0, 0, 0, 0, 0, -0.2645527124404907, -2.0986487865448, 0.04055662825703621
12195, 0.031570374965667725, -0.17001749575138092, -0.04535370320081711, -0.05474996939301491, 0.002237223321571946, 0.03723076730966568, -0.001998441992327571, -0.0070395995862782, 0.9995562434196472, -0.26471737027168274, -2.1033499240875244, 0.04066403582692146, 0.0, 0.0, 0.0, 0, 0, 0, 0, 0, 0, -0.26471737027168274, -2.1033499240875244, 0.04066403582692146
12205, 0.031954552978277206, -0.1699903905391693, -0.04353957250714302, -0.027900638058781624, 0.14009816944599152, -0.0521286316215992, -0.0012210302520543337, -0.007229563780128956, 1.0003750324249268, -0.2648819088935852, -2.108057737350464, 0.040771517902612686, 0.0, 0.0, 0.0, 0, 0, 0, 0, 0, 0, -0.2648819088935852, -2.108057737350464, 0.040771517902612686
12215, 0.031299758702516556, -0.169838547706604, -0.044323764741420746, -0.07694068551063538, 0.017909850925207138, -0.12218788266181946, -0.002127544954419136, -0.006174418143928051, 1.000218391418457, -0.265045166015625, -2.1127731800079346, 0.04087894409894943, 0.0, 0.0, 0.0, 0, 0, 0, 0, 0, 0, -0.265045166015625, -2.1127731800079346, 0.04087894409894943
12225, 0.03132779523730278, -0.17069344222545624, -0.044859547168016434, -0.12263098359107971, 0.13055622577667236, 0.0449737012386322, -0.002438656287267804, -0.004197454079985619, 0.9999250769615173, -0.2652069926261902, -2.11749529838562, 0.04098643362522125, 0.0, 0.0, 0.0, 0, 0, 0, 0, 0, 0, -0.2652069926261902, -2.11749529838562, 0.04098643362522125
12235, 0.029769964516162872, -0.17238640785217285, -0.04443803057074547, 0.027612505480647087, 0.33744341135025024, 0.1398978978395462, -0.0012725834967568517, -0.005884174257516861, 0.9988159537315369, -0.26536792516708374, -2.122222900390625, 0.04109388589859009, 0.0, 0.0, 0.0, 0, 0, 0, 0, 0, 0, -0.26536792516708374, -2.122222900390625, 0.04109388589859009
12245, 0.029957681894302368, -0.17468984425067902, -0.04409727454185486, -0.14858372509479523, -0.1336260885000229, -0.057325493544340134, -0.000787527475040406, -0.0038034135941416025, 1.0012414455413818, -0.26552751660346985, -2.12695574760437, 0.04120100289583206, 0.0, 0.0, 0.0, 0, 0, 0, 0, 0, 0, -0.26552751660346985, -2.12695574760437, 0.04120100289583206
12255, 0.02961931750178337, -0.17384476959705353, -0.04366102069616318, 0.09449411183595657, 0.17577868700027466, 0.17524217069149017, -0.0020595069508999586, -0.0034687186125665903, 1.0000971555709839, -0.2656852900981903, -2.1316938400268555, 0.04130815714597702, 0.0, 0.0, 0.0, 0, 0, 0, 0, 0, 0, -0.2656852900981903, -2.1316938400268555, 0.04130815714597702
12265, 0.02927589975297451, -0.17417483031749725, -0.04287746921181679, -0.0013624500716105103, 0.05215334892272949, 0.2541239559650421, -0.0008849874138832092, -0.0046553779393434525, 0.9989842176437378, -0.2658415138721466, -2.1364359855651855, 0.04141565412282944, 0.0, 0.0, 0.0, 0, 0, 0, 0, 0, 0, -0.2658415138721466, -2.1364359855651855, 0.04141565412282944
12275, 0.030150555074214935, -0.17318779230117798, -0.04334557428956032, 0.011960753239691257, 0.00011101050768047571, -0.05788172408938408, -0.001298706280067563, -0.006888995412737131, 0.9993248581886292, -0.2659960687160492, -2.1411826610565186, 0.041522588580846786, 0.0, 0.0, 0.0, 0, 0, 0, 0, 0, 0, -0.2659960687160492, -2.1411826610565186, 0.041522588580846786
12285, 0.030691256746649742, -0.1745244413614273, -0.04312010854482651, 0.08970221132040024, 0.025660160928964615, 0.1617393046617508, -0.0019441498443484306, -0.006772072985768318, 0.9979438781738281, -0.26614874601364136, -2.1459357738494873, 0.04162877798080444, 0.0, 0.0, 0.0, 0, 0, 0, 0, 0, 0, -0.26614874601364136, -2.1459357738494873, 0.04162877798080444
12295, 0.030294110998511314, -0.1753711998462677, -0.042830225080251694, -0.001059559639543295, 0.03798215463757515, -0.0816025659441948, -0.0011983664007857442, -0.005157065577805042, 0.9981909990310669, -0.2662998139858246, -2.15069580078125, 0.0417337492108345, 0.0, 0.0, 0.0, 0, 0, 0, 0, 0, 0, -0.2662998139858246, -2.15069580078125, 0.0417337492108345
12305, 0.030007896944880486, -0.1752970963716507, -0.04436817392706871, 0.13193027675151825, -0.04202255606651306, 0.18210916221141815, -0.002992213936522603, -0.0037732410710304976, 0.9977258443832397, -0.26644936203956604, -2.1554617881774902, 0.04183691367506981, 0.0, 0.0, 0.0, 0, 0, 0, 0, 0, 0, -0.26644936203956604, -2.1554617881774902, 0.04183691367506981
12315, 0.030113765969872475, -0.175373837351799, -0.043527185916900635, -0.036191172897815704, 0.09520124644041061, 0.16900627315044403, -0.002235561842098832, -0.004015893209725618, 0.9998082518577576, -0.266598105430603, -2.1602325439453125, 0.041938286274671555, 0.0, 0.0, 0.0, 0, 0, 0, 0, 0, 0, -0.266598105430603, -2.1602325439453125, 0.041938286274671555
12325, 0.029627380892634392, -0.1759636551141739, -0.04225267842411995, -0.10711922496557236, 0.148487389087677, 0.10970907658338547, -0.001995226601138711, -0.0042478605173528194, 1.0011296272277832, -0.2667464017868042, -2.1650075912475586, 0.042038775980472565, 0.0, 0.0, 0.0, 0, 0, 0, 0, 0, 0, -0.2667464017868042, -2.1650075912475586, 0.042038775980472565
12335, 0.029323294758796692, -0.1768413782119751, -0.03922484070062637, -0.1873755007982254, -0.10149448364973068, 0.03540296107530594, -0.0019142314558848739, -0.004099073354154825, 0.9996731281280518, -0.2668938636779785, -2.1697871685028076, 0.04213973879814148, 0.0, 0.0, 0.0, 0, 0, 0, 0, 0, 0, -0.2668938636779785, -2.1697871685028076, 0.04213973879814148
12345, 0.028486039489507675, -0.1750318557024002, -0.039380740374326706, -0.1963130086660385, 0.08636501431465149, -0.19440513849258423, -0.0002871477627195418, -0.005457779858261347, 1.0020935535430908, -0.26704010367393494, -2.1745715141296387, 0.04224108159542084, 0.0, 0.0, 0.0, 0, 0, 0, 0, 0, 0, -0.26704010367393494, -2.1745715141296387, 0.04224108159542084
12355, 0.02853032946586609, -0.1746874749660492, -0.03989385440945625, 0.1526706963777542, -0.04486948251724243, 0.17918452620506287, -0.0021676323376595974, -0.003842159640043974, 1.0007201433181763, -0.26718437671661377, -2.17936110496521, 0.04234336316585541, 0.0, 0.0, 0.0, 0, 0, 0, 0, 0, 0, -0.26718437671661377, -2.17936110496521, 0.04234336316585541
12365, 0.028458518907427788, -0.17300134897232056, -0.039169881492853165, 0.07150695472955704, 0.03425666317343712, -0.18240350484848022, -0.001579190487973392, -0.0039319563657045364, 1.0043879747390747, -0.2673270106315613, -2.1841557025909424, 0.0424472838640213, 0.0, 0.0, 0.0, 0, 0, 0, 0, 0, 0, -0.2673270106315613, -2.1841557025909424, 0.0424472838640213
12375, 0.028694165870547295, -0.17225365340709686, -0.04033303260803223, -0.1131402924656868, -0.01451172586530447, 0.06389947235584259, -0.0009356211521662772, -0.006212872453033924, 1.0015238523483276, -0.2674683928489685, -2.1889545917510986, 0.04255369305610657, 0.0, 0.0, 0.0, 0, 0, 0, 0, 0, 0, -0.2674683928489685, -2.1889545917510986, 0.04255369305610657
12385, 0.027585867792367935, -0.17126008868217468, -0.04056669399142265, -0.21035350859165192, 0.09717750549316406, 0.19435429573059082, 0.0009198248153552413, -0.006195187568664551, 1.001480221748352, -0.26760780811309814, -2.1937594413757324, 0.042662814259529114, 0.0, 0.0, 0.0, 0, 0, 0, 0, 0, 0, -0.26760780811309814, -2.1937594413757324, 0.042662814259529114
12395, 0.027042748406529427, -0.171278178691864, -0.04017426073551178, -0.2547336220741272, 0.052018068730831146, -0.05765640735626221, -0.0005763823864981532, -0.006408379878848791, 0.9995288252830505, -0.2677443325519562, -2.198570966720581, 0.0427732914686203, 0.0, 0.0, 0.0, 0, 0, 0, 0, 0, 0, -0.2677443325519562, -2.198570966720581, 0.0427732914686203
12405, 0.026307107880711555, -0.17210064828395844, -0.040475018322467804, 0.017700999975204468, -0.08408039808273315, -0.08019756525754929, -0.004867834039032459, -0.003986345138400793, 0.997122049331665, -0.26787838339805603, -2.2033886909484863, 0.04288380965590477, 0.0, 0.0, 0.0, 0, 0, 0, 0, 0, 0, -0.26787838339805603, -2.2033886909484863, 0.04288380965590477
12415, 0.026335813105106354, -0.1702953279018402, -0.04245510697364807, 0.0070283375680446625, 0.08148488402366638, -0.057731546461582184, -0.005075050517916679, -0.005254941061139107, 1.0018843412399292, -0.2680125832557678, -2.208211898803711, 0.04299281910061836, 0.0, 0.0, 0.0, 0, 0, 0, 0, 0, 0, -0.2680125832557678, -2.208211898803711, 0.04299281910061836
12425, 0.026989560574293137, -0.17044848203659058, -0.041226670145988464, -0.11464185267686844, 0.039692193269729614, 0.03339014947414398, -0.004693066235631704, -0.004961091093719006, 1.0007725954055786, -0.26814883947372437, -2.213040351867676, 0.04310176894068718, 0.0, 0.0, 0.0, 0, 0, 0, 0, 0, 0, -0.26814883947372437, -2.213040351867676, 0.04310176894068718
12435, 0.026708479970693588, -0.17024169862270355, -0.041069261729717255, 0.2930243909358978, 0.25226178765296936, 0.3010061979293823, -0.0013845606008544564, -0.004503204487264156, 1.001548171043396, -0.268286794424057, -2.217874526977539, 0.04321219027042389, 0.0, 0.0, 0.0, 0, 0, 0, 0, 0, 0, -0.268286794424057, -2.217874526977539, 0.04321219027042389
12445, 0.027057550847530365, -0.17135168612003326, -0.04030821472406387, -0.0760645717382431, -0.0347076952457428, -0.017843930050730705, -0.0014204425970092416, -0.0031888310331851244, 0.9994370341300964, -0.26842454075813293, -2.2227137088775635, 0.04332363232970238, 0.0, 0.0, 0.0, 0, 0, 0, 0, 0, 0, -0.26842454075813293, -2.2227137088775635, 0.04332363232970238
12455, 0.026308607310056686, -0.17237769067287445, -0.04087502509355545, 0.08337867259979248, -0.08503399044275284, 0.03726514056324959, -0.002769739832729101, -0.003571766894310713, 0.9991401433944702, -0.26856082677841187, -2.2275569438934326, 0.043435268104076385, 0.0, 0.0, 0.0, 0, 0, 0, 0, 0, 0, -0.26856082677841187, -2.2275569438934326, 0.043435268104076385
12465, 0.02731495164334774, -0.17263677716255188, -0.04085675626993179, -0.09496099501848221, 0.15532638132572174, 0.1346813589334488, -0.0021384996362030506, -0.0060355328023433685, 0.9995180368423462, -0.26869630813598633, -2.2324042320251465, 0.043545957654714584, 0.0, 0.0, 0.0, 0, 0, 0, 0, 0, 0, -0.26869630813598633, -2.2324042320251465, 0.043545957654714584
12475, 0.027542293071746826, -0.173484668135643, -0.04096943512558937, 0.05112547427415848, 0.2471061795949936, 0.103841133415699, -0.002236501779407263, -0.004310282878577709, 1.0022692680358887, -0.26883140206336975, -2.2372565269470215, 0.04365600645542145, 0.0, 0.0, 0.0, 0, 0, 0, 0, 0, 0, -0.26883140206336975, -2.2372565269470215, 0.04365600645542145
12485, 0.02774907276034355, -0.17418049275875092, -0.03980420529842377, 0.012243952602148056, 0.07249672710895538, -0.05093317851424217, -0.00034814156242646277, -0.004449143540114164, 0.997991681098938, -0.26896560192108154, -2.242114305496216, 0.04376687854528427, 0.0, 0.0, 0.0, 0, 0, 0, 0, 0, 0, -0.26896560192108154, -2.242114305496216, 0.04376687854528427
12495, 0.027706624940037727, -0.1744181215763092, -0.040623489767313004, -0.04987981542944908, -0.10254399478435516, 0.17699503898620605, -0.0008846509153954685, -0.004899164196103811, 0.9980764985084534, -0.26909786462783813, -2.2469770908355713, 0.043877508491277695, 0.0, 0.0, 0.0, 0, 0, 0, 0, 0, 0, -0.26909786462783813, -2.2469770908355713, 0.043877508491277695
12505, 0.027735792100429535, -0.1750676929950714, -0.039043497294187546, 0.13057571649551392, 0.15489916503429413, -0.030802253633737564, -0.001436886377632618, -0.0060989693738520145, 0.9994887709617615, -0.2692277133464813, -2.251845121383667, 0.04398626834154129, 0.0, 0.0, 0.0, 0, 0, 0, 0, 0, 0, -0.2692277133464813, -2.251845121383667, 0.04398626834154129
12515, 0.02783295512199402, -0.17734959721565247, -0.03790275752544403, 0.03924715518951416, 0.20861412584781647, -0.03803587704896927, -0.0011639706790447235, -0.004383047576993704, 1.000321865081787, -0.26935574412345886, -2.256718873977661, 0.04409387707710266, 0.0, 0.0, 0.0, 0, 0, 0, 0, 0, 0, -0.26935574412345886, -2.256718873977661, 0.04409387707710266
12525, 0.026651497930288315, -0.1776057481765747, -0.0379272922873497, -0.04111930727958679, 0.21637780964374542, 0.08527542650699615, -0.002401030156761408, -0.002560968045145273, 1.000150442123413, -0.26948225498199463, -2.2615983486175537, 0.04420110955834389, 0.0, 0.0, 0.0, 0, 0, 0, 0, 0, 0, -0.26948225498199463, -2.2615983486175537, 0.04420110955834389
12535, 0.02718508429825306, -0.17923402786254883, -0.03754856437444687, 0.13098998367786407, 0.20010234415531158, 0.1316903978586197, 0.0006999204051680863, -0.002511966973543167, 0.9992976188659668, -0.2696073651313782, -2.266481637954712, 0.04430850222706795, 0.0, 0.0, 0.0, 0, 0, 0, 0, 0, 0, -0.2696073651313782, -2.266481637954712, 0.04430850222706795
12545, 0.026603147387504578, -0.1808517426252365, -0.03650340437889099, -0.0022951967548578978, 0.11887475103139877, 0.09173633903265, -0.0029384284280240536, -0.00273498916067183, 0.9987360239028931, -0.26973024010658264, -2.2713680267333984, 0.044415608048439026, 0.0, 0.0, 0.0, 0, 0, 0, 0, 0, 0, -0.26973024010658264, -2.2713680267333984, 0.044415608048439026
12555, 0.02567603625357151, -0.18212890625, -0.036700088530778885, -0.024933727458119392, 0.26931899785995483, -0.10785892605781555, -0.0030132157262414694, -0.005384631920605898, 0.9973105788230896, -0.2698514759540558, -2.2762577533721924, 0.0445217601954937, 0.0, 0.0, 0.0, 0, 0, 0, 0, 0, 0, -0.2698514759540558, -2.2762577533721924, 0.0445217601954937
12565, 0.02465185709297657, -0.18330641090869904, -0.0378810279071331, -0.09726384282112122, -0.1059659868478775, -0.059159304946660995, 5.563376907957718e-05, -0.006444541271775961, 1.0005440711975098, -0.2699725031852722, -2.2811520099639893, 0.04462633654475212, 0.0, 0.0, 0.0, 0, 0, 0, 0, 0, 0, -0.2699725031852722, -2.2811520099639893, 0.04462633654475212
