timeTick, roll, pitch, yaw, gyroX, gyroY, gyroZ, accX, accY, accZ, stateX, stateY, stateZ, target_x, target_y, target_z, otX, otY, otZ, otRoll, otPitch, otYaw, kalX, kalY, kalZ
15386, 0.07579519599676132, -0.23651574552059174, -0.08992163091897964, 0, 0, 0, 0, 0, 0, 0, 0, 0, 0, 0, 0, 0, 0, 0, 0, 0, 0, 0, 0, 0
15396, 0.0767897218465805, -0.2370663583278656, -0.08964009582996368, 0.1735457330942154, 0.11931732296943665, 0.20689739286899567, -0.0030410028994083405, -0.006098708603531122, 1.0017064809799194, -0.4249914288520813, -4.182801723480225, 0.3118889629840851, 0.0, 0.0, 0.0, 0, 0, 0, 0, 0, 0, -0.4247555136680603, -4.189929008483887, 0.31242161989212036
15406, 0.07729606330394745, -0.23940326273441315, -0.0885583683848381, -0.0008273830753751099, 0.48113492131233215, 0.1089119240641594, -0.002573159756138921, -0.003570775268599391, 1.0009173154830933, -0.4247555136680603, -4.189929008483887, 0.31242161989212036, 0.0, 0.0, 0.0, 0, 0, 0, 0, 0, 0, -0.4245182275772095, -4.1970624923706055, 0.31295591592788696
15416, 0.07701230049133301, -0.23938222229480743, -0.08746515959501266, -0.025266338139772415, -0.10859573632478714, 0.18074756860733032, -0.0015790541656315327, -0.005209876224398613, 1.001305103302002, -0.4245182275772095, -4.1970624923706055, 0.31295591592788696, 0.0, 0.0, 0.0, 0, 0, 0, 0, 0, 0, -0.42427897453308105, -4.204201698303223, 0.31349170207977295
15426, 0.07613075524568558, -0.23952436447143555, -0.08644745498895645, -0.07894586026668549, -0.034626372158527374, 0.20863543450832367, -0.003981045912951231, -0.008796490728855133, 0.9989209771156311, -0.42427897453308105, -4.204201698303223, 0.31349170207977295, 0.0, 0.0, 0.0, 0, 0, 0, 0, 0, 0, -0.42403799295425415, -4.211348056793213, 0.31402796506881714
15436, 0.07546266168355942, -0.23928749561309814, -0.08648405224084854, -0.016366632655262947, 0.10392814129590988, 0.08772154897451401, -0.0037618859205394983, -0.006919735111296177, 1.0017613172531128, -0.42403799295425415, -4.211348056793213, 0.31402796506881714, 0.0, 0.0, 0.0, 0, 0, 0, 0, 0, 0, -0.42379623651504517, -4.218503475189209, 0.31456470489501953
15446, 0.07579360902309418, -0.23876319825649261, -0.0873187780380249, 0.06148657947778702, -0.13279366493225098, -0.05256308615207672, -0.003092132741585374, -0.003611608874052763, 1.0003061294555664, -0.42379623651504517, -4.218503475189209, 0.31456470489501953, 0.0, 0.0, 0.0, 0, 0, 0, 0, 0, 0, -0.42355379462242126, -4.225666046142578, 0.31510230898857117
15456, 0.07619225978851318, -0.23874665796756744, -0.08685630559921265, -0.059457674622535706, 0.15295031666755676, 0.13019655644893646, -0.003872205037623644, -0.0048023066483438015, 1.0004640817642212, -0.42355379462242126, -4.225666046142578, 0.31510230898857117, 0.0, 0.0, 0.0, 0, 0, 0, 0, 0, 0, -0.4233105480670929, -4.2328338623046875, 0.315640389919281
15466, 0.07534606754779816, -0.23954510688781738, -0.08624180406332016, -0.1447283923625946, 0.28214991092681885, -0.11477576196193695, -0.0022192990873008966, -0.005373307038098574, 1.0009161233901978, -0.4233105480670929, -4.2328338623046875, 0.315640389919281, 0.0, 0.0, 0.0, 0, 0, 0, 0, 0, 0, -0.42306622862815857, -4.240007400512695, 0.31617915630340576
15476, 0.07566015422344208, -0.23884209990501404, -0.08489851653575897, 0.09182921797037125, -0.03813602402806282, -0.006123890168964863, -0.0024211390409618616, -0.0050577279180288315, 1.0005650520324707, -0.42306622862815857, -4.240007400512695, 0.31617915630340576, 0.0, 0.0, 0.0, 0, 0, 0, 0, 0, 0, -0.42282044887542725, -4.247187614440918, 0.316718727350235
15486, 0.07447902858257294, -0.2397586554288864, -0.08385684341192245, -0.058771345764398575, 0.016564402729272842, -0.03603098541498184, -0.0008975435048341751, -0.005321017000824213, 1.001046061515808, -0.42282044887542725, -4.247187614440918, 0.316718727350235, 0.0, 0.0, 0.0, 0, 0, 0, 0, 0, 0, -0.422572523355484, -4.2543745040893555, 0.3172591030597687
15496, 0.0739959254860878, -0.24031123518943787, -0.08161397278308868, 0.11874903738498688, 0.02996049076318741, 0.09320414066314697, -0.001477468409575522, -0.0049466523341834545, 0.9997422099113464, -0.422572523355484, -4.2543745040893555, 0.3172591030597687, 0.0, 0.0, 0.0, 0, 0, 0, 0, 0, 0, -0.4222966730594635, -4.262287139892578, 0.31785401701927185
15506, 0.07442034035921097, -0.24170784652233124, -0.08070015162229538, 0.062285564839839935, 0.13848772644996643, 0.048228681087493896, -0.0010933096054941416, -0.005314519163221121, 0.9983341693878174, -0.4222966730594635, -4.262287139892578, 0.31785401701927185, 0.0, 0.0, 0.0, 0, 0, 0, 0, 0, 0, -0.4220430254936218, -4.269487380981445, 0.3183943033218384
15516, 0.0751025527715683, -0.24271810054779053, -0.08026784658432007, 0.065482959151268, -0.03604256361722946, -0.10614939033985138, -0.002369595691561699, -0.005410708021372557, 1.0005784034729004, -0.4220430254936218, -4.269487380981445, 0.3183943033218384, 0.0, 0.0, 0.0, 0, 0, 0, 0, 0, 0, -0.42178693413734436, -4.276694297790527, 0.31893396377563477
15526, 0.07377510517835617, -0.2434387356042862, -0.0811595544219017, -0.11443298310041428, 0.06535333395004272, -0.2139895260334015, -0.001155010424554348, -0.004383629187941551, 1.0018744468688965, -0.42178693413734436, -4.276694297790527, 0.31893396377563477, 0.0, 0.0, 0.0, 0, 0, 0, 0, 0, 0, -0.42178693413734436, -4.276694297790527, 0.31893396377563477
15536, 0.07380113005638123, -0.24503275752067566, -0.08119054138660431, -0.006323991343379021, 0.32050108909606934, 0.11054396629333496, -0.0017556472448632121, -0.005631396546959877, 1.0002849102020264, -0.4215283691883087, -4.283907413482666, 0.31947439908981323, 0.0, 0.0, 0.0, 0, 0, 0, 0, 0, 0, -0.421267032623291, -4.291126728057861, 0.32001590728759766
15546, 0.07310803234577179, -0.24594303965568542, -0.08170127123594284, -0.09554217755794525, 0.09749734401702881, 0.03576379269361496, -0.002112975111231208, -0.005226267967373133, 0.9993301630020142, -0.421267032623291, -4.291126728057861, 0.32001590728759766, 0.0, 0.0, 0.0, 0, 0, 0, 0, 0, 0, -0.421267032623291, -4.291126728057861, 0.32001590728759766
15556, 0.07237429916858673, -0.24818134307861328, -0.08055642992258072, 0.043397534638643265, 0.21290995180606842, 0.11079715192317963, -0.00129033497069031, -0.004889677744358778, 1.0016423463821411, -0.42100340127944946, -4.2983527183532715, 0.320557564496994, 0.0, 0.0, 0.0, 0, 0, 0, 0, 0, 0, -0.42100340127944946, -4.2983527183532715, 0.320557564496994
15566, 0.07222472876310349, -0.24738629162311554, -0.08079544454813004, -0.06694436073303223, -0.1744268387556076, -0.1460634171962738, -0.0028395671397447586, -0.0071299029514193535, 0.9999456405639648, -0.42073747515678406, -4.305584907531738, 0.32109981775283813, 0.0, 0.0, 0.0, 0, 0, 0, 0, 0, 0, -0.42073747515678406, -4.305584907531738, 0.32109981775283813
15576, 0.0729365348815918, -0.2481025755405426, -0.08171053230762482, -0.09859766066074371, 0.2547779679298401, -0.06282416731119156, -0.0023612268269062042, -0.008376345969736576, 0.9978566765785217, -0.42046940326690674, -4.31282377243042, 0.32164284586906433, 0.0, 0.0, 0.0, 0, 0, 0, 0, 0, 0, -0.42046940326690674, -4.31282377243042, 0.32164284586906433
15586, 0.07414589822292328, -0.24783025681972504, -0.08206534385681152, 0.04732147231698036, 0.03288985788822174, 0.06788020581007004, -0.001385558396577835, -0.0051380484364926815, 0.9986708760261536, -0.42019960284233093, -4.320071220397949, 0.32218509912490845, 0.0, 0.0, 0.0, 0, 0, 0, 0, 0, 0, -0.42019960284233093, -4.320071220397949, 0.32218509912490845
15596, 0.07445088028907776, -0.24748940765857697, -0.08235432207584381, 0.022772228345274925, -0.0114362807944417, -0.0881647989153862, -0.004203592427074909, -0.00472668232396245, 1.002334713935852, -0.4199274480342865, -4.327326774597168, 0.32272598147392273, 0.0, 0.0, 0.0, 0, 0, 0, 0, 0, 0, -0.4199274480342865, -4.327326774597168, 0.32272598147392273
15606, 0.07476411014795303, -0.24813835322856903, -0.08129430562257767, -0.05934857204556465, 0.09603852033615112, 0.020480208098888397, -0.0011974443914368749, -0.005320930853486061, 1.0013116598129272, -0.4196535646915436, -4.334589004516602, 0.32326728105545044, 0.0, 0.0, 0.0, 0, 0, 0, 0, 0, 0, -0.4196535646915436, -4.334589004516602, 0.32326728105545044
15616, 0.07465282082557678, -0.24724946916103363, -0.08207549899816513, -0.10799979418516159, -0.15110774338245392, -0.20983076095581055, -0.003152502002194524, -0.00588948791846633, 1.000885248184204, -0.4193781018257141, -4.341857433319092, 0.3238101601600647, 0.0, 0.0, 0.0, 0, 0, 0, 0, 0, 0, -0.4193781018257141, -4.341857433319092, 0.3238101601600647
15626, 0.0744469165802002, -0.245781809091568, -0.08221390843391418, -0.1671253889799118, -0.32311803102493286, -0.0868123322725296, -0.0037330053746700287, -0.006442022044211626, 1.0002449750900269, -0.4191005825996399, -4.349132061004639, 0.3243540823459625, 0.0, 0.0, 0.0, 0, 0, 0, 0, 0, 0, -0.4191005825996399, -4.349132061004639, 0.3243540823459625
15636, 0.07570555061101913, -0.24534772336483002, -0.08076952397823334, 0.177070751786232, -0.24952933192253113, -0.022818341851234436, -0.0028041431214660406, -0.005655725486576557, 0.9996906518936157, -0.4188217520713806, -4.356413841247559, 0.32489868998527527, 0.0, 0.0, 0.0, 0, 0, 0, 0, 0, 0, -0.4188217520713806, -4.356413841247559, 0.32489868998527527
15646, 0.07637973129749298, -0.24580048024654388, -0.08037254214286804, 0.19847744703292847, -0.06480870395898819, 0.026316214352846146, -0.0038885497488081455, -0.00531740952283144, 0.9995294809341431, -0.41854196786880493, -4.363702774047852, 0.32544344663619995, 0.0, 0.0, 0.0, 0, 0, 0, 0, 0, 0, -0.41854196786880493, -4.363702774047852, 0.32544344663619995
15656, 0.07620976865291595, -0.24827560782432556, -0.078194260597229, 0.005602116230875254, 0.31728044152259827, 0.11316078901290894, -0.0052466122433543205, -0.0055551170371472836, 1.0009516477584839, -0.4182615578174591, -4.370998382568359, 0.3259879946708679, 0.0, 0.0, 0.0, 0, 0, 0, 0, 0, 0, -0.4182615578174591, -4.370998382568359, 0.3259879946708679
15666, 0.07629991322755814, -0.248285710811615, -0.07748454064130783, 0.01535435114055872, -0.01972365751862526, 0.01112466212362051, -0.0036104649771004915, -0.004818962886929512, 1.0019254684448242, -0.41798135638237, -4.378300666809082, 0.32653307914733887, 0.0, 0.0, 0.0, 0, 0, 0, 0, 0, 0, -0.41798135638237, -4.378300666809082, 0.32653307914733887
15676, 0.07696651667356491, -0.2507064938545227, -0.0761006772518158, 0.08717071264982224, 0.5299633145332336, 0.18227837979793549, -0.00350646092556417, -0.0038840456400066614, 1.0008140802383423, -0.41770118474960327, -4.3856096267700195, 0.3270795941352844, 0.0, 0.0, 0.0, 0, 0, 0, 0, 0, 0, -0.41770118474960327, -4.3856096267700195, 0.3270795941352844
15686, 0.07718174904584885, -0.2507118582725525, -0.07669982314109802, 0.009691864252090454, 0.09329073876142502, -0.09134574234485626, -0.0045728967525064945, -0.0034150774590671062, 1.0014216899871826, -0.4174201786518097, -4.3929243087768555, 0.3276272416114807, 0.0, 0.0, 0.0, 0, 0, 0, 0, 0, 0, -0.4174201786518097, -4.3929243087768555, 0.3276272416114807
15696, 0.07702420651912689, -0.25112733244895935, -0.07508859038352966, -0.03149893134832382, 0.05042356625199318, 0.1254049390554428, -0.0021513651590794325, -0.005773053504526615, 1.0016801357269287, -0.4171386659145355, -4.400244235992432, 0.32817572355270386, 0.0, 0.0, 0.0, 0, 0, 0, 0, 0, 0, -0.4171386659145355, -4.400244235992432, 0.32817572355270386
15706, 0.07701772451400757, -0.25089558959007263, -0.07466410845518112, -0.056617725640535355, -0.004900405183434486, 0.0714828222990036, -0.00030023776344023645, -0.006890491116791964, 0.9995259046554565, -0.41685619950294495, -4.407569885253906, 0.32872554659843445, 0.0, 0.0, 0.0, 0, 0, 0, 0, 0, 0, -0.41685619950294495, -4.407569885253906, 0.32872554659843445
15716, 0.07693394273519516, -0.251632958650589, -0.0751955434679985, -0.004258506931364536, 0.0882105603814125, -0.13472412526607513, -0.0034954166039824486, -0.006058929488062859, 0.9998654127120972, -0.41657087206840515, -4.414902687072754, 0.3292762041091919, 0.0, 0.0, 0.0, 0, 0, 0, 0, 0, 0, -0.41657087206840515, -4.414902687072754, 0.3292762041091919
15726, 0.0770859569311142, -0.25268107652664185, -0.07512164860963821, 0.11352849751710892, 0.194226935505867, 0.03871913626790047, -0.0046377950347959995, -0.004487511236220598, 1.0027306079864502, -0.41628289222717285, -4.422243118286133, 0.32982686161994934, 0.0, 0.0, 0.0, 0, 0, 0, 0, 0, 0, -0.41628289222717285, -4.422243118286133, 0.32982686161994934
15736, 0.07679661363363266, -0.25417080521583557, -0.07469034194946289, 0.04720499366521835, 0.21753734350204468, 0.17465266585350037, -0.0018851706990972161, -0.005515675991773605, 1.0021345615386963, -0.41599422693252563, -4.429590225219727, 0.3303786516189575, 0.0, 0.0, 0.0, 0, 0, 0, 0, 0, 0, -0.41599422693252563, -4.429590225219727, 0.3303786516189575
15746, 0.07668522000312805, -0.2555229663848877, -0.07524954527616501, -0.07124049216508865, 0.09322801977396011, -0.1120985671877861, -5.633049295283854e-05, -0.005296326242387295, 1.0004494190216064, -0.4157046377658844, -4.436944007873535, 0.3309325873851776, 0.0, 0.0, 0.0, 0, 0, 0, 0, 0, 0, -0.4157046377658844, -4.436944007873535, 0.3309325873851776
15756, 0.07709947973489761, -0.25692105293273926, -0.07448282092809677, -0.08083470165729523, 0.046808212995529175, 0.06357228755950928, -0.0009656864567659795, -0.005694919731467962, 1.0000202655792236, -0.41541197896003723, -4.444304466247559, 0.33148783445358276, 0.0, 0.0, 0.0, 0, 0, 0, 0, 0, 0, -0.41541197896003723, -4.444304466247559, 0.33148783445358276
15766, 0.0768103301525116, -0.25772586464881897, -0.07372348755598068, -0.09783558547496796, 0.10672147572040558, 0.265607625246048, -0.0033045331947505474, -0.006370000075548887, 1.0009931325912476, -0.4151155948638916, -4.451671600341797, 0.3320433497428894, 0.0, 0.0, 0.0, 0, 0, 0, 0, 0, 0, -0.4151155948638916, -4.451671600341797, 0.3320433497428894
15776, 0.07697044312953949, -0.2566905617713928, -0.07384350150823593, 0.022417662665247917, -0.1834825873374939, -0.022322341799736023, -0.0011544445296749473, -0.005071720574051142, 1.002591848373413, -0.41481679677963257, -4.459045886993408, 0.332599401473999, 0.0, 0.0, 0.0, 0, 0, 0, 0, 0, 0, -0.41481679677963257, -4.459045886993408, 0.332599401473999
15786, 0.07575060427188873, -0.2573530077934265, -0.07610330730676651, -0.21440090239048004, 0.18634973466396332, -0.36610493063926697, -0.002193672815337777, -0.00445735827088356, 1.0034325122833252, -0.41451582312583923, -4.466427326202393, 0.33315715193748474, 0.0, 0.0, 0.0, 0, 0, 0, 0, 0, 0, -0.41451582312583923, -4.466427326202393, 0.33315715193748474
15796, 0.0749090239405632, -0.25545474886894226, -0.07597588002681732, -0.10929650813341141, -0.22067177295684814, 0.095441073179245, -0.0025678956881165504, -0.004945660009980202, 1.0033059120178223, -0.41421204805374146, -4.473814964294434, 0.33371758460998535, 0.0, 0.0, 0.0, 0, 0, 0, 0, 0, 0, -0.41421204805374146, -4.473814964294434, 0.33371758460998535
15806, 0.07432598620653152, -0.2552148103713989, -0.07507892698049545, -0.06543977558612823, -0.10991828143596649, 0.09967467933893204, -0.002726376987993717, -0.0037835314869880676, 0.9986660480499268, -0.4139060378074646, -4.481208324432373, 0.3342810869216919, 0.0, 0.0, 0.0, 0, 0, 0, 0, 0, 0, -0.4139060378074646, -4.481208324432373, 0.3342810869216919
15816, 0.0741620883345604, -0.25513070821762085, -0.0759315937757492, -0.04110170155763626, -0.1310320347547531, -0.10662678629159927, -0.0030250558629631996, -0.006222305353730917, 0.9987583756446838, -0.4135983884334564, -4.488607406616211, 0.33484572172164917, 0.0, 0.0, 0.0, 0, 0, 0, 0, 0, 0, -0.4135983884334564, -4.488607406616211, 0.33484572172164917
15826, 0.07412366569042206, -0.25566405057907104, -0.07474997639656067, -0.04540553689002991, -0.01797378994524479, 0.09091232717037201, -0.0020617512054741383, -0.005033104680478573, 0.9983733296394348, -0.41328930854797363, -4.4960126876831055, 0.3354094922542572, 0.0, 0.0, 0.0, 0, 0, 0, 0, 0, 0, -0.41328930854797363, -4.4960126876831055, 0.3354094922542572
15836, 0.07388820499181747, -0.2564418613910675, -0.0752357468008995, 0.019094135612249374, 0.10015837103128433, -0.15066957473754883, -0.0008888902957551181, -0.0037076312582939863, 0.9995393753051758, -0.4129784405231476, -4.503424644470215, 0.3359721004962921, 0.0, 0.0, 0.0, 0, 0, 0, 0, 0, 0, -0.4129784405231476, -4.503424644470215, 0.3359721004962921
15846, 0.07353080809116364, -0.2565120458602905, -0.07551317662000656, 0.006862207781523466, 0.07522747665643692, -0.05984419956803322, -0.0019930864218622446, -0.006154330912977457, 0.9988290071487427, -0.41266483068466187, -4.510842323303223, 0.33653369545936584, 0.0, 0.0, 0.0, 0, 0, 0, 0, 0, 0, -0.41266483068466187, -4.510842323303223, 0.33653369545936584
15856, 0.07413272559642792, -0.2536829113960266, -0.07649374008178711, 0.051582999527454376, -0.25814753770828247, -0.22120638191699982, -0.002665364183485508, -0.005433593410998583, 0.9979790449142456, -0.41234827041625977, -4.518265724182129, 0.3370945155620575, 0.0, 0.0, 0.0, 0, 0, 0, 0, 0, 0, -0.41234827041625977, -4.518265724182129, 0.3370945155620575
15866, 0.07424722611904144, -0.25691816210746765, -0.07668847590684891, 0.04001782462000847, 0.5104860067367554, 0.01516973227262497, -0.0029549968894571066, -0.004188786260783672, 0.9980509281158447, -0.41202956438064575, -4.525696277618408, 0.3376539647579193, 0.0, 0.0, 0.0, 0, 0, 0, 0, 0, 0, -0.41202956438064575, -4.525696277618408, 0.3376539647579193
15876, 0.0729295015335083, -0.25716328620910645, -0.07955928891897202, -0.0694650262594223, -0.018105829134583473, -0.4446979761123657, -0.002435768721625209, -0.006004287861287594, 1.001920461654663, -0.41170939803123474, -4.533132553100586, 0.3382115960121155, 0.0, 0.0, 0.0, 0, 0, 0, 0, 0, 0, -0.41170939803123474, -4.533132553100586, 0.3382115960121155
15886, 0.07171127945184708, -0.25810354948043823, -0.07863323390483856, -0.18970921635627747, 0.07714321464300156, 0.21727949380874634, -0.002099616453051567, -0.005380367394536734, 1.0014615058898926, -0.41138771176338196, -4.5405755043029785, 0.33876901865005493, 0.0, 0.0, 0.0, 0, 0, 0, 0, 0, 0, -0.41138771176338196, -4.5405755043029785, 0.33876901865005493
15896, 0.07171176373958588, -0.25881075859069824, -0.07802088558673859, 0.005900908261537552, 0.05239146947860718, -0.017801932990550995, -0.0026507701259106398, -0.005660684313625097, 0.9989723563194275, -0.41106393933296204, -4.548025131225586, 0.33932778239250183, 0.0, 0.0, 0.0, 0, 0, 0, 0, 0, 0, -0.41106393933296204, -4.548025131225586, 0.33932778239250183
15906, 0.07141006737947464, -0.25901785492897034, -0.07787998020648956, -0.03284039720892906, -0.054191846400499344, -0.15996502339839935, -0.0034591674339026213, -0.005344676785171032, 0.9989235997200012, -0.4107378423213959, -4.555481433868408, 0.339886873960495, 0.0, 0.0, 0.0, 0, 0, 0, 0, 0, 0, -0.4107378423213959, -4.555481433868408, 0.339886873960495
15916, 0.07108981162309647, -0.25837284326553345, -0.07951553910970688, 0.0006295458879321814, -0.08768845349550247, -0.21206575632095337, -0.0026047024875879288, -0.00601261155679822, 1.0004465579986572, -0.41041019558906555, -4.562943935394287, 0.3404451310634613, 0.0, 0.0, 0.0, 0, 0, 0, 0, 0, 0, -0.41041019558906555, -4.562943935394287, 0.3404451310634613
15926, 0.07177353650331497, -0.2584865689277649, -0.07897444814443588, 0.12129081040620804, -0.021736036986112595, -0.03414652496576309, -0.002276080660521984, -0.00596215482801199, 0.9991995692253113, -0.41008126735687256, -4.570413589477539, 0.3410030007362366, 0.0, 0.0, 0.0, 0, 0, 0, 0, 0, 0, -0.41008126735687256, -4.570413589477539, 0.3410030007362366
15936, 0.07190055400133133, -0.2574022114276886, -0.0800694152712822, 0.008712533861398697, -0.14745178818702698, -0.050348248332738876, -0.0029919990338385105, -0.005628457758575678, 1.001676082611084, -0.40975019335746765, -4.577889919281006, 0.3415607511997223, 0.0, 0.0, 0.0, 0, 0, 0, 0, 0, 0, -0.40975019335746765, -4.577889919281006, 0.3415607511997223
15946, 0.07229314744472504, -0.2579330801963806, -0.07948782294988632, -0.03961306810379028, 0.14888252317905426, 0.21965423226356506, -0.0025408363435417414, -0.004241322632879019, 0.999828577041626, -0.40941697359085083, -4.5853729248046875, 0.34211885929107666, 0.0, 0.0, 0.0, 0, 0, 0, 0, 0, 0, -0.40941697359085083, -4.5853729248046875, 0.34211885929107666
15956, 0.0723571628332138, -0.25850117206573486, -0.08071406930685043, -0.03469034284353256, 0.1837630718946457, -0.17425163090229034, -0.0014742964413017035, -0.004300721455365419, 0.9997373819351196, -0.40908193588256836, -4.592862129211426, 0.34267759323120117, 0.0, 0.0, 0.0, 0, 0, 0, 0, 0, 0, -0.40908193588256836, -4.592862129211426, 0.34267759323120117
15966, 0.07335443794727325, -0.25683727860450745, -0.08049184083938599, 0.11455381661653519, -0.31664955615997314, -0.02578039839863777, -0.0007524339598603547, -0.005618249531835318, 1.0005292892456055, -0.40874457359313965, -4.600356578826904, 0.34323635697364807, 0.0, 0.0, 0.0, 0, 0, 0, 0, 0, 0, -0.40874457359313965, -4.600356578826904, 0.34323635697364807
15976, 0.07325781136751175, -0.25703105330467224, -0.08158142119646072, -0.05695474147796631, 0.021529704332351685, -0.05924098938703537, -0.0018588873790577054, -0.0046355207450687885, 1.0016602277755737, -0.40840402245521545, -4.6078572273254395, 0.34379541873931885, 0.0, 0.0, 0.0, 0, 0, 0, 0, 0, 0, -0.40840402245521545, -4.6078572273254395, 0.34379541873931885
15986, 0.07300834357738495, -0.2588743269443512, -0.08140645921230316, -0.02225099876523018, 0.15768395364284515, 0.043656595051288605, -0.0026775819715112448, -0.0038966515567153692, 1.0002856254577637, -0.4080602824687958, -4.615364074707031, 0.3443554937839508, 0.0, 0.0, 0.0, 0, 0, 0, 0, 0, 0, -0.4080602824687958, -4.615364074707031, 0.3443554937839508
15996, 0.0733923390507698, -0.25903886556625366, -0.08098199218511581, -0.037120845168828964, -0.09156500548124313, -0.07521726191043854, -0.0020755359437316656, -0.005379300564527512, 1.0005022287368774, -0.40771403908729553, -4.6228766441345215, 0.34491658210754395, 0.0, 0.0, 0.0, 0, 0, 0, 0, 0, 0, -0.40771403908729553, -4.6228766441345215, 0.34491658210754395
16006, 0.0749087855219841, -0.2608661353588104, -0.08098983764648438, 0.21728381514549255, 0.23911058902740479, 0.039780694991350174, -0.0023392338771373034, -0.005303667392581701, 0.9997918009757996, -0.4073655903339386, -4.630395412445068, 0.3454781472682953, 0.0, 0.0, 0.0, 0, 0, 0, 0, 0, 0, -0.4073655903339386, -4.630395412445068, 0.3454781472682953
16016, 0.07575560361146927, -0.26119744777679443, -0.07960087805986404, 0.12476873397827148, 0.05437657609581947, 0.27584561705589294, -0.001501358114182949, -0.008613343350589275, 1.000328779220581, -0.4070149064064026, -4.637920379638672, 0.3460398018360138, 0.0, 0.0, 0.0, 0, 0, 0, 0, 0, 0, -0.4070149064064026, -4.637920379638672, 0.3460398018360138
16026, 0.07710137218236923, -0.261120468378067, -0.07904491573572159, 0.25416111946105957, -0.04553813114762306, 0.11766691505908966, -0.0029352151323109865, -0.005316488444805145, 0.9992661476135254, -0.4066618084907532, -4.645453453063965, 0.34660136699676514, 0.0, 0.0, 0.0, 0, 0, 0, 0, 0, 0, -0.4066618084907532, -4.645453453063965, 0.34660136699676514
16036, 0.07776188850402832, -0.26282647252082825, -0.07720779627561569, 0.08448750525712967, 0.2222689688205719, 0.2942146062850952, -0.0027149070519953966, -0.005913896020501852, 1.0011708736419678, -0.4063064455986023, -4.652994632720947, 0.347162663936615, 0.0, 0.0, 0.0, 0, 0, 0, 0, 0, 0, -0.4063064455986023, -4.652994632720947, 0.347162663936615
16046, 0.07819570600986481, -0.26385003328323364, -0.07524994760751724, -0.005517775192856789, 0.16081811487674713, 0.29043155908584595, -0.0012984898639842868, -0.0036654635332524776, 1.0005518198013306, -0.4059494137763977, -4.6605424880981445, 0.347724050283432, 0.0, 0.0, 0.0, 0, 0, 0, 0, 0, 0, -0.4059494137763977, -4.6605424880981445, 0.347724050283432
16056, 0.07852201908826828, -0.2622317969799042, -0.07609490305185318, 0.07189546525478363, -0.1898275464773178, -0.011879416182637215, -0.0019536404870450497, -0.004185187164694071, 1.0011037588119507, -0.4055902063846588, -4.668096542358398, 0.3482862412929535, 0.0, 0.0, 0.0, 0, 0, 0, 0, 0, 0, -0.4055902063846588, -4.668096542358398, 0.3482862412929535
16066, 0.07894445955753326, -0.26373493671417236, -0.07574529945850372, 0.04464491084218025, 0.4068557322025299, 0.058211904019117355, -0.0018991818651556969, -0.0036148978397250175, 0.9981648325920105, -0.40522825717926025, -4.675655841827393, 0.34884926676750183, 0.0, 0.0, 0.0, 0, 0, 0, 0, 0, 0, -0.40522825717926025, -4.675655841827393, 0.34884926676750183
16076, 0.07957576960325241, -0.26238834857940674, -0.07698342204093933, 0.1766606867313385, -0.2672894299030304, -0.26408419013023376, -0.003309180960059166, -0.005667795892804861, 1.0003185272216797, -0.40486371517181396, -4.683219909667969, 0.34941205382347107, 0.0, 0.0, 0.0, 0, 0, 0, 0, 0, 0, -0.40486371517181396, -4.683219909667969, 0.34941205382347107
16086, 0.07969086617231369, -0.26411452889442444, -0.07622667402029037, 0.1288241147994995, 0.3048098385334015, 0.09244748204946518, -0.004714886657893658, -0.007415995933115482, 1.0016870498657227, -0.4044972062110901, -4.690790176391602, 0.3499741554260254, 0.0, 0.0, 0.0, 0, 0, 0, 0, 0, 0, -0.4044972062110901, -4.690790176391602, 0.3499741554260254
16096, 0.08038967102766037, -0.26459982991218567, -0.07548902928829193, 0.12079457193613052, 0.07438729703426361, -0.03692982718348503, -0.0016161359380930662, -0.005938829854130745, 1.0004429817199707, -0.4041298031806946, -4.698368072509766, 0.350536972284317, 0.0, 0.0, 0.0, 0, 0, 0, 0, 0, 0, -0.4041298031806946, -4.698368072509766, 0.350536972284317
16106, 0.07979749888181686, -0.26447945833206177, -0.0763566792011261, -0.11946213990449905, -0.04072296619415283, -0.14253506064414978, -0.002051647286862135, -0.00610072398558259, 0.9996470212936401, -0.40376079082489014, -4.705953598022461, 0.3511006534099579, 0.0, 0.0, 0.0, 0, 0, 0, 0, 0, 0, -0.40376079082489014, -4.705953598022461, 0.3511006534099579
16116, 0.07837071269750595, -0.2667447626590729, -0.07580668479204178, -0.18146292865276337, 0.27393612265586853, 0.0469651073217392, -0.002166438614949584, -0.004503720439970493, 1.000491738319397, -0.4033890962600708, -4.7135467529296875, 0.3516644835472107, 0.0, 0.0, 0.0, 0, 0, 0, 0, 0, 0, -0.4033890962600708, -4.7135467529296875, 0.3516644835472107
16126, 0.07738454639911652, -0.26652243733406067, -0.07573030889034271, -0.0669010728597641, -0.060060761868953705, 0.04879685863852501, -0.002231915481388569, -0.003058298258110881, 1.0008400678634644, -0.4030148684978485, -4.721146583557129, 0.352228581905365, 0.0, 0.0, 0.0, 0, 0, 0, 0, 0, 0, -0.4030148684978485, -4.721146583557129, 0.352228581905365
16136, 0.07781500369310379, -0.2649475336074829, -0.07476283609867096, 0.11916476488113403, -0.0798487439751625, 0.11496716737747192, -0.0016251213382929564, -0.004016287159174681, 0.9990519285202026, -0.40263816714286804, -4.7287516593933105, 0.352793425321579, 0.0, 0.0, 0.0, 0, 0, 0, 0, 0, 0, -0.40263816714286804, -4.7287516593933105, 0.352793425321579
16146, 0.07671143859624863, -0.26661136746406555, -0.07497633248567581, -0.20262940227985382, 0.2741755545139313, -0.01158597506582737, -0.0030137551948428154, -0.006227714009582996, 1.0002527236938477, -0.40225881338119507, -4.736361503601074, 0.3533582091331482, 0.0, 0.0, 0.0, 0, 0, 0, 0, 0, 0, -0.40225881338119507, -4.736361503601074, 0.3533582091331482
16156, 0.0753694623708725, -0.2671659588813782, -0.07729950547218323, -0.1576656997203827, -0.016080593690276146, -0.23157590627670288, -0.0032771627884358168, -0.004615213721990585, 1.002142310142517, -0.40187710523605347, -4.7439775466918945, 0.3539227545261383, 0.0, 0.0, 0.0, 0, 0, 0, 0, 0, 0, -0.40187710523605347, -4.7439775466918945, 0.3539227545261383
16166, 0.07497572898864746, -0.2688259184360504, -0.07666649669408798, -0.05557345598936081, 0.10307569056749344, 0.13802042603492737, -0.003623971017077565, -0.00585683761164546, 1.000650405883789, -0.40149372816085815, -4.7515997886657715, 0.3544885516166687, 0.0, 0.0, 0.0, 0, 0, 0, 0, 0, 0, -0.40149372816085815, -4.7515997886657715, 0.3544885516166687
16176, 0.07458057999610901, -0.26935726404190063, -0.07753398269414902, 0.015375248156487942, 0.15502209961414337, -0.04427405819296837, -0.00325063057243824, -0.00662151537835598, 1.00004243850708, -0.40110909938812256, -4.759228706359863, 0.35505568981170654, 0.0, 0.0, 0.0, 0, 0, 0, 0, 0, 0, -0.40110909938812256, -4.759228706359863, 0.35505568981170654
16186, 0.07370327413082123, -0.2680325508117676, -0.07840178161859512, -0.03302590176463127, -0.1907433569431305, -0.2547312378883362, -0.002658282406628132, -0.004069237969815731, 0.999133288860321, -0.40072306990623474, -4.766864776611328, 0.35562315583229065, 0.0, 0.0, 0.0, 0, 0, 0, 0, 0, 0, -0.40072306990623474, -4.766864776611328, 0.35562315583229065
16196, 0.07227156311273575, -0.2694562077522278, -0.07703103870153427, -0.1259094625711441, 0.17730771005153656, 0.10780586302280426, -0.0023752825800329447, -0.004436865448951721, 0.999499499797821, -0.4003351926803589, -4.774507522583008, 0.3561902344226837, 0.0, 0.0, 0.0, 0, 0, 0, 0, 0, 0, -0.4003351926803589, -4.774507522583008, 0.3561902344226837
16206, 0.07267767935991287, -0.26912254095077515, -0.07613418996334076, 0.011041669175028801, -0.08547347784042358, 0.12334475666284561, -0.0003413929371163249, -0.0035957475192844868, 0.9976634979248047, -0.3999451994895935, -4.782155990600586, 0.35675662755966187, 0.0, 0.0, 0.0, 0, 0, 0, 0, 0, 0, -0.3999451994895935, -4.782155990600586, 0.35675662755966187
16216, 0.07302427291870117, -0.2716374695301056, -0.07623528689146042, -0.04826245456933975, 0.42580974102020264, -0.2062980830669403, -0.003863314865157008, -0.004531413782387972, 0.9986362457275391, -0.39955219626426697, -4.789809703826904, 0.3573217988014221, 0.0, 0.0, 0.0, 0, 0, 0, 0, 0, 0, -0.39955219626426697, -4.789809703826904, 0.3573217988014221
16226, 0.07256831973791122, -0.2720852196216583, -0.07583983242511749, -0.09179005771875381, -0.03743482008576393, 0.11938343197107315, -0.0041138725355267525, -0.006033416371792555, 0.999102771282196, -0.3991566598415375, -4.797468662261963, 0.3578852415084839, 0.0, 0.0, 0.0, 0, 0, 0, 0, 0, 0, -0.3991566598415375, -4.797468662261963, 0.3578852415084839
16236, 0.07287247478961945, -0.27207815647125244, -0.0759328305721283, 0.03326931595802307, 0.06235587224364281, -0.003756619291380048, -0.0033699672203511, -0.008731316775083542, 0.9988359808921814, -0.39876022934913635, -4.805134296417236, 0.35844749212265015, 0.0, 0.0, 0.0, 0, 0, 0, 0, 0, 0, -0.3983626663684845, -4.812808513641357, 0.3590088486671448
16246, 0.07330311834812164, -0.2721131145954132, -0.07615531980991364, 0.022884102538228035, 0.15813370048999786, 0.10198915004730225, -7.49842292862013e-05, -0.006244147662073374, 1.0001908540725708, -0.3983626663684845, -4.812808513641357, 0.3590088486671448, 0.0, 0.0, 0.0, 0, 0, 0, 0, 0, 0, -0.3983626663684845, -4.812808513641357, 0.3595696985721588
16256, 0.07369336485862732, -0.2716723084449768, -0.07636040449142456, 0.07974188029766083, 0.026041783392429352, -0.003356239525601268, -0.0010972445597872138, -0.004997716285288334, 1.0025830268859863, -0.39796194434165955, -4.820491313934326, 0.3595696985721588, 0.0, 0.0, 0.0, 0, 0, 0, 0, 0, 0, -0.39755702018737793, -4.828181266784668, 0.3601316809654236
16266, 0.07404513657093048, -0.27222388982772827, -0.0754048302769661, 0.14715510606765747, 0.08281627297401428, 0.16318121552467346, -0.002200906164944172, -0.0053790598176419735, 0.9997478723526001, -0.39755702018737793, -4.828181266784668, 0.3601316809654236, 0.0, 0.0, 0.0, 0, 0, 0, 0, 0, 0, -0.39714881777763367, -4.835877895355225, 0.36069515347480774
16276, 0.07352952659130096, -0.26974016427993774, -0.07599252462387085, -0.07515808939933777, -0.3353220522403717, -0.13921689987182617, -0.001356470282189548, -0.002781682414934039, 1.0021413564682007, -0.39714881777763367, -4.835877895355225, 0.36069515347480774, 0.0, 0.0, 0.0, 0, 0, 0, 0, 0, 0, -0.39673763513565063, -4.84358024597168, 0.3612600564956665
16286, 0.07408757507801056, -0.2696130573749542, -0.07560151070356369, 0.16207833588123322, 0.0022495065350085497, -0.013967588543891907, -0.0021242389921098948, -0.003730521770194173, 1.0035252571105957, -0.39673763513565063, -4.84358024597168, 0.3612600564956665, 0.0, 0.0, 0.0, 0, 0, 0, 0, 0, 0, -0.396323561668396, -4.851286888122559, 0.36182767152786255
16296, 0.0739278793334961, -0.2688229978084564, -0.0766003429889679, 0.07389908283948898, -0.10329287499189377, -0.034019533544778824, -0.0037877249997109175, -0.004483552183955908, 1.000074863433838, -0.396323561668396, -4.851286888122559, 0.36182767152786255, 0.0, 0.0, 0.0, 0, 0, 0, 0, 0, 0, -0.3959074914455414, -4.858998775482178, 0.36239758133888245
16306, 0.07366842031478882, -0.2700346112251282, -0.07690811157226562, 0.044390689581632614, 0.08664469420909882, -0.010360009968280792, -0.005506481975317001, -0.0051542059518396854, 0.9985846877098083, -0.3959074914455414, -4.858998775482178, 0.36239758133888245, 0.0, 0.0, 0.0, 0, 0, 0, 0, 0, 0, -0.3954911530017853, -4.866716384887695, 0.36296766996383667
16316, 0.07432270050048828, -0.2689846158027649, -0.07853371649980545, 0.1026841476559639, -0.3123537003993988, -0.24353453516960144, -0.0027443403378129005, -0.0037162560038268566, 1.000109314918518, -0.3954911530017853, -4.866716384887695, 0.36296766996383667, 0.0, 0.0, 0.0, 0, 0, 0, 0, 0, 0, -0.3950746953487396, -4.8744401931762695, 0.36353716254234314
16326, 0.07393397390842438, -0.26732584834098816, -0.07898252457380295, -0.12976482510566711, -0.14661955833435059, -0.09474926441907883, -0.0023488143924623728, -0.003248333465307951, 1.0002667903900146, -0.3950746953487396, -4.8744401931762695, 0.36353716254234314, 0.0, 0.0, 0.0, 0, 0, 0, 0, 0, 0, -0.39465633034706116, -4.882169246673584, 0.36410677433013916
16336, 0.07476045191287994, -0.2683948278427124, -0.0782056525349617, 0.05847971513867378, 0.3925729990005493, 0.06345205754041672, -0.0041061704978346825, -0.003644489450380206, 1.0005958080291748, -0.39465633034706116, -4.882169246673584, 0.36410677433013916, 0.0, 0.0, 0.0, 0, 0, 0, 0, 0, 0, -0.39423635601997375, -4.8899030685424805, 0.364676833152771
16346, 0.07520116865634918, -0.2675397992134094, -0.0783059298992157, 0.022378988564014435, -0.040836505591869354, 0.02211528830230236, -0.002877006772905588, -0.002630851697176695, 1.000970482826233, -0.39423635601997375, -4.8899030685424805, 0.364676833152771, 0.0, 0.0, 0.0, 0, 0, 0, 0, 0, 0, -0.3938153088092804, -4.897641181945801, 0.36524727940559387
16356, 0.0751151293516159, -0.2687617838382721, -0.07814324647188187, -0.038592707365751266, 0.0856504887342453, 0.003639155998826027, -0.0022897841408848763, -0.0035846498794853687, 1.0009506940841675, -0.3938153088092804, -4.897641181945801, 0.36524727940559387, 0.0, 0.0, 0.0, 0, 0, 0, 0, 0, 0, -0.393392413854599, -4.905383586883545, 0.3658185303211212
16366, 0.07517972588539124, -0.26884081959724426, -0.07828577607870102, -0.01780732348561287, 0.0162325631827116, 0.02069663070142269, -0.002169444225728512, -0.0074157025665044785, 0.999305248260498, -0.393392413854599, -4.905383586883545, 0.3658185303211212, 0.0, 0.0, 0.0, 0, 0, 0, 0, 0, 0, -0.393392413854599, -4.905383586883545, 0.3658185303211212
16376, 0.07599474489688873, -0.2701200544834137, -0.07603482156991959, 0.028351230546832085, 0.2293034791946411, 0.302972674369812, -0.0009786655427888036, -0.008444175124168396, 0.999038815498352, -0.39296719431877136, -4.913132190704346, 0.36639025807380676, 0.0, 0.0, 0.0, 0, 0, 0, 0, 0, 0, -0.39296719431877136, -4.913132190704346, 0.36639025807380676
16386, 0.07555324584245682, -0.2702084183692932, -0.07561995089054108, -0.10299910604953766, -0.029319163411855698, 0.045813802629709244, -0.0034507173113524914, -0.005946797784417868, 1.0004470348358154, -0.3925390839576721, -4.920889854431152, 0.36696144938468933, 0.0, 0.0, 0.0, 0, 0, 0, 0, 0, 0, -0.3925390839576721, -4.920889854431152, 0.36696144938468933
16396, 0.07541158050298691, -0.27152886986732483, -0.07424139976501465, -0.0025127960834652185, 0.2483803629875183, 0.1759735345840454, -0.004900096450001001, -0.005079737398773432, 0.9998486042022705, -0.39210861921310425, -4.928655624389648, 0.3675323724746704, 0.0, 0.0, 0.0, 0, 0, 0, 0, 0, 0, -0.39210861921310425, -4.928655624389648, 0.3675323724746704
16406, 0.0749913677573204, -0.2705818712711334, -0.07429905980825424, -0.05228637903928757, -0.086979441344738, -0.043526969850063324, -0.0033132543321698904, -0.006729654036462307, 1.0004557371139526, -0.3916774094104767, -4.936428546905518, 0.3681034445762634, 0.0, 0.0, 0.0, 0, 0, 0, 0, 0, 0, -0.3916774094104767, -4.936428546905518, 0.3681034445762634
16416, 0.07519399374723434, -0.2695707082748413, -0.0729483887553215, 0.023302607238292694, -0.18077901005744934, 0.31568795442581177, -0.002100464189425111, -0.005419632885605097, 1.0020413398742676, -0.39124536514282227, -4.94420862197876, 0.36867472529411316, 0.0, 0.0, 0.0, 0, 0, 0, 0, 0, 0, -0.39124536514282227, -4.94420862197876, 0.36867472529411316
16426, 0.07386218011379242, -0.27084848284721375, -0.07315129786729813, -0.1321854144334793, 0.145448699593544, -0.010966037400066853, -0.0011708756210282445, -0.00380322290584445, 0.999397873878479, -0.3908112347126007, -4.951995849609375, 0.36924707889556885, 0.0, 0.0, 0.0, 0, 0, 0, 0, 0, 0, -0.3908112347126007, -4.951995849609375, 0.36924707889556885
16436, 0.07532911747694016, -0.2718295156955719, -0.0717395469546318, 0.2677418291568756, 0.1312556266784668, 0.15829847753047943, -0.0032606166787445545, -0.005138580687344074, 0.9997601509094238, -0.39037418365478516, -4.959788799285889, 0.36982017755508423, 0.0, 0.0, 0.0, 0, 0, 0, 0, 0, 0, -0.39037418365478516, -4.959788799285889, 0.36982017755508423
16446, 0.07408522069454193, -0.27114138007164, -0.07359924167394638, -0.20062071084976196, 0.0405275896191597, -0.2632651925086975, -0.0025661394465714693, -0.00447334349155426, 1.0003620386123657, -0.3899347186088562, -4.967587471008301, 0.37039297819137573, 0.0, 0.0, 0.0, 0, 0, 0, 0, 0, 0, -0.3899347186088562, -4.967587471008301, 0.37039297819137573
16456, 0.07413532584905624, -0.27137479186058044, -0.07328077405691147, 0.11510857939720154, 0.07391400635242462, 0.1584831327199936, -0.0022136149927973747, -0.00669475644826889, 1.0008231401443481, -0.3894934356212616, -4.9753923416137695, 0.37096571922302246, 0.0, 0.0, 0.0, 0, 0, 0, 0, 0, 0, -0.3894934356212616, -4.9753923416137695, 0.37096571922302246
16466, 0.07501339912414551, -0.2736698091030121, -0.07317259162664413, 0.2849748134613037, 0.3384287357330322, 0.12183866649866104, -0.004382742568850517, -0.004090809263288975, 1.0000035762786865, -0.38904979825019836, -4.983203411102295, 0.37153905630111694, 0.0, 0.0, 0.0, 0, 0, 0, 0, 0, 0, -0.38904979825019836, -4.983203411102295, 0.37153905630111694
16476, 0.07666318863630295, -0.2740744352340698, -0.07357528805732727, 0.22895467281341553, 0.08760219067335129, 0.03339496999979019, -0.0020188135094940662, -0.005288111045956612, 1.0000280141830444, -0.3886045813560486, -4.991021156311035, 0.3721129596233368, 0.0, 0.0, 0.0, 0, 0, 0, 0, 0, 0, -0.3886045813560486, -4.991021156311035, 0.3721129596233368
16486, 0.0764823704957962, -0.27426978945732117, -0.07312579452991486, -0.08192972093820572, -0.052889611572027206, 0.0700412467122078, -0.0022590586449950933, -0.005523690488189459, 0.9980982542037964, -0.3881579339504242, -4.998844623565674, 0.3726870119571686, 0.0, 0.0, 0.0, 0, 0, 0, 0, 0, 0, -0.3881579339504242, -4.998844623565674, 0.3726870119571686
16496, 0.0773634985089302, -0.27368369698524475, -0.07280329614877701, 0.14251041412353516, -0.11610962450504303, -0.07288100570440292, -0.004485710524022579, -0.003426572773605585, 0.9971792101860046, -0.38770902156829834, -5.006674766540527, 0.3732602596282959, 0.0, 0.0, 0.0, 0, 0, 0, 0, 0, 0, -0.38770902156829834, -5.006674766540527, 0.3732602596282959
16506, 0.07700522243976593, -0.27259039878845215, -0.07337160408496857, -0.08548878133296967, 0.0934983566403389, -0.16917762160301208, -0.001386120798997581, -0.004561814479529858, 0.9999136328697205, -0.38725849986076355, -5.014510631561279, 0.3738313317298889, 0.0, 0.0, 0.0, 0, 0, 0, 0, 0, 0, -0.38725849986076355, -5.014510631561279, 0.3738313317298889
16516, 0.07808475941419601, -0.27190282940864563, -0.07415827363729477, 0.14569897949695587, 0.026492850854992867, 0.08333374559879303, -0.0025468715466558933, -0.004712768830358982, 1.000003695487976, -0.3868059515953064, -5.0223517417907715, 0.37440094351768494, 0.0, 0.0, 0.0, 0, 0, 0, 0, 0, 0, -0.3868059515953064, -5.0223517417907715, 0.37440094351768494
16526, 0.07736442983150482, -0.2723531723022461, -0.07476506382226944, -0.11190221458673477, 0.11926713585853577, -0.1225813552737236, -0.0025636584032326937, -0.004208115395158529, 1.0016028881072998, -0.3863506615161896, -5.030198574066162, 0.3749704957008362, 0.0, 0.0, 0.0, 0, 0, 0, 0, 0, 0, -0.3863506615161896, -5.030198574066162, 0.3749704957008362
16536, 0.07588067650794983, -0.27219653129577637, -0.07529669255018234, -0.21803133189678192, 0.05913901329040527, 0.04169898107647896, -0.0021042542066425085, -0.004899198655039072, 0.9993926286697388, -0.3858930766582489, -5.038051128387451, 0.3755408823490143, 0.0, 0.0, 0.0, 0, 0, 0, 0, 0, 0, -0.3858930766582489, -5.038051128387451, 0.3755408823490143
16546, 0.07550282776355743, -0.2725834250450134, -0.07656144350767136, -0.07686541974544525, 0.017844799906015396, -0.042252473533153534, -0.0029239519499242306, -0.006863687187433243, 0.9987142086029053, -0.3854330778121948, -5.045909881591797, 0.37611183524131775, 0.0, 0.0, 0.0, 0, 0, 0, 0, 0, 0, -0.3854330778121948, -5.045909881591797, 0.37611183524131775
16556, 0.0750332772731781, -0.2727845013141632, -0.07591026276350021, -0.09433023631572723, 0.011002738028764725, 0.09070437401533127, -0.001951758866198361, -0.0076735299080610275, 1.0001351833343506, -0.3849707841873169, -5.053775310516357, 0.3766820430755615, 0.0, 0.0, 0.0, 0, 0, 0, 0, 0, 0, -0.3849707841873169, -5.053775310516357, 0.3766820430755615
16566, 0.07478352636098862, -0.2716696262359619, -0.0740136057138443, -0.11282426863908768, 0.00017307972302660346, 0.2349872887134552, -0.0008082948625087738, -0.005872933194041252, 0.9990501999855042, -0.3845061957836151, -5.061648845672607, 0.3772517442703247, 0.0, 0.0, 0.0, 0, 0, 0, 0, 0, 0, -0.3845061957836151, -5.061648845672607, 0.3772517442703247
16576, 0.0749891996383667, -0.2722218334674835, -0.0725533738732338, -0.009434623643755913, 0.02619253844022751, 0.2339724600315094, -0.0018272462766617537, -0.0052241189405322075, 0.9998734593391418, -0.38403838872909546, -5.069530487060547, 0.3778211772441864, 0.0, 0.0, 0.0, 0, 0, 0, 0, 0, 0, -0.38403838872909546, -5.069530487060547, 0.3778211772441864
16586, 0.07554690539836884, -0.27206310629844666, -0.07226213067770004, -0.010144434869289398, -0.09385433793067932, 0.037567026913166046, -0.003592711640521884, -0.005746771115809679, 1.0018131732940674, -0.3835672438144684, -5.077419281005859, 0.3783903121948242, 0.0, 0.0, 0.0, 0, 0, 0, 0, 0, 0, -0.3835672438144684, -5.077419281005859, 0.3783903121948242
16596, 0.07592816650867462, -0.2708692252635956, -0.07290752232074738, 0.04186299070715904, -0.12560266256332397, -0.2703168988227844, -0.001854259637184441, -0.0075556375086307526, 1.0019049644470215, -0.3830939531326294, -5.085314750671387, 0.3789602220058441, 0.0, 0.0, 0.0, 0, 0, 0, 0, 0, 0, -0.3830939531326294, -5.085314750671387, 0.3789602220058441
16606, 0.07653585076332092, -0.2716340124607086, -0.07260314375162125, -0.01647094264626503, 0.13060441613197327, 0.021897438913583755, -0.002209598198533058, -0.005949081387370825, 1.0008643865585327, -0.38261863589286804, -5.093217372894287, 0.37953171133995056, 0.0, 0.0, 0.0, 0, 0, 0, 0, 0, 0, -0.38261863589286804, -5.093217372894287, 0.37953171133995056
16616, 0.07562670856714249, -0.2712760269641876, -0.07402138411998749, -0.010972915217280388, -0.232527494430542, -0.14257989823818207, -0.0035137024242430925, -0.00428702961653471, 0.9992439150810242, -0.3821408152580261, -5.101128101348877, 0.38010451197624207, 0.0, 0.0, 0.0, 0, 0, 0, 0, 0, 0, -0.3821408152580261, -5.101128101348877, 0.38010451197624207
16626, 0.0753537118434906, -0.26977357268333435, -0.07521044462919235, 0.09223250299692154, -0.2239786684513092, -0.11651318520307541, -0.003521156730130315, -0.0014911137986928225, 0.9995903968811035, -0.38166114687919617, -5.109045505523682, 0.38067761063575745, 0.0, 0.0, 0.0, 0, 0, 0, 0, 0, 0, -0.38166114687919617, -5.109045505523682, 0.38067761063575745
16636, 0.07552239298820496, -0.2691323161125183, -0.07647570222616196, 0.12619003653526306, 0.03887172415852547, -0.12189952284097672, -0.003106337273493409, -0.00387572031468153, 1.0010219812393188, -0.38118016719818115, -5.11696720123291, 0.38125038146972656, 0.0, 0.0, 0.0, 0, 0, 0, 0, 0, 0, -0.38118016719818115, -5.11696720123291, 0.38125038146972656
16646, 0.0762568786740303, -0.2681116759777069, -0.07603110373020172, 0.056554168462753296, -0.1728729009628296, 0.0646623969078064, -0.002375883748754859, -0.008144669234752655, 1.0017786026000977, -0.38069766759872437, -5.1248931884765625, 0.3818233907222748, 0.0, 0.0, 0.0, 0, 0, 0, 0, 0, 0, -0.38069766759872437, -5.1248931884765625, 0.3818233907222748
16656, 0.07649584114551544, -0.2663814127445221, -0.077138252556324, -0.04142754152417183, -0.16830959916114807, -0.17536120116710663, -0.0048339758068323135, -0.006626225542277098, 1.0011600255966187, -0.3802131116390228, -5.13282585144043, 0.3823975622653961, 0.0, 0.0, 0.0, 0, 0, 0, 0, 0, 0, -0.3802131116390228, -5.13282585144043, 0.3823975622653961
16666, 0.0768057107925415, -0.26812124252319336, -0.07645264267921448, 0.15335923433303833, 0.2537420392036438, 0.10876478999853134, -0.004932780284434557, -0.004849577788263559, 1.0001016855239868, -0.37972724437713623, -5.140766620635986, 0.38297316431999207, 0.0, 0.0, 0.0, 0, 0, 0, 0, 0, 0, -0.37972724437713623, -5.140766620635986, 0.38297316431999207
16676, 0.07533199340105057, -0.27016282081604004, -0.0758286565542221, -0.2612714469432831, 0.30938196182250977, -0.11165447533130646, -0.002035648562014103, -0.005291617475450039, 1.0015406608581543, -0.37924134731292725, -5.148714542388916, 0.3835495412349701, 0.0, 0.0, 0.0, 0, 0, 0, 0, 0, 0, -0.37924134731292725, -5.148714542388916, 0.3835495412349701
16686, 0.07574184983968735, -0.26953038573265076, -0.07513722777366638, -0.02534409798681736, 0.004904996603727341, 0.13612402975559235, -0.0008760776254348457, -0.005920930299907923, 1.0012162923812866, -0.3787543475627899, -5.156668663024902, 0.3841266930103302, 0.0, 0.0, 0.0, 0, 0, 0, 0, 0, 0, -0.3787543475627899, -5.156668663024902, 0.3841266930103302
16696, 0.07592367380857468, -0.2685849666595459, -0.07451725006103516, 0.08613619953393936, 0.013543416745960712, 0.21257030963897705, -0.0014304366195574403, -0.005637340247631073, 1.0015442371368408, -0.3782644271850586, -5.1646294593811035, 0.3847050070762634, 0.0, 0.0, 0.0, 0, 0, 0, 0, 0, 0, -0.3782644271850586, -5.1646294593811035, 0.3847050070762634
16706, 0.07649422436952591, -0.26915544271469116, -0.07487324625253677, 0.08500155061483383, -0.010437782853841782, 0.0014775005402043462, -0.0033818427473306656, -0.005996827967464924, 1.0006967782974243, -0.37777116894721985, -5.172597408294678, 0.3852846920490265, 0.0, 0.0, 0.0, 0, 0, 0, 0, 0, 0, -0.37777116894721985, -5.172597408294678, 0.3852846920490265
16716, 0.07684388011693954, -0.2713436484336853, -0.07357002794742584, -0.016685152426362038, 0.22669851779937744, 0.04794091358780861, -0.004709251224994659, -0.0031629272270947695, 1.0027738809585571, -0.3772755563259125, -5.180572509765625, 0.3858656585216522, 0.0, 0.0, 0.0, 0, 0, 0, 0, 0, 0, -0.3772755563259125, -5.180572509765625, 0.3858656585216522
16726, 0.07797735184431076, -0.2702973186969757, -0.07376642525196075, 0.1235966756939888, -0.0964236855506897, -0.07616369426250458, -0.003570491448044777, -0.006165158934891224, 0.9995700120925903, -0.3767790198326111, -5.188553333282471, 0.38644829392433167, 0.0, 0.0, 0.0, 0, 0, 0, 0, 0, 0, -0.3767790198326111, -5.188553333282471, 0.38644829392433167
16736, 0.07862972468137741, -0.26922351121902466, -0.07374876737594604, 0.1423054188489914, -0.06480591744184494, 0.04057127609848976, -0.001358120352961123, -0.0075539168901741505, 0.9999067187309265, -0.3762817978858948, -5.196539878845215, 0.3870321810245514, 0.0, 0.0, 0.0, 0, 0, 0, 0, 0, 0, -0.3762817978858948, -5.196539878845215, 0.3870321810245514
16746, 0.07804219424724579, -0.26819100975990295, -0.0738610029220581, -0.17389097809791565, -0.06939687579870224, 0.027711620554327965, -0.0015098421135917306, -0.005813886411488056, 1.0005637407302856, -0.37578248977661133, -5.204534530639648, 0.3876160979270935, 0.0, 0.0, 0.0, 0, 0, 0, 0, 0, 0, -0.37578248977661133, -5.204534530639648, 0.3876160979270935
16756, 0.07810536026954651, -0.26694029569625854, -0.0760955661535263, -0.12293418496847153, -0.11545459181070328, -0.26139530539512634, -0.002389715751633048, -0.004160478711128235, 1.0029816627502441, -0.37528014183044434, -5.212536811828613, 0.3882003128528595, 0.0, 0.0, 0.0, 0, 0, 0, 0, 0, 0, -0.37528014183044434, -5.212536811828613, 0.3882003128528595
16766, 0.078415147960186, -0.26803508400917053, -0.0753963515162468, -0.014115151949226856, 0.22898995876312256, 0.10028161108493805, -0.0016611538594588637, -0.0023495014756917953, 0.9999101161956787, -0.3747750520706177, -5.220545291900635, 0.3887861371040344, 0.0, 0.0, 0.0, 0, 0, 0, 0, 0, 0, -0.3747750520706177, -5.220545291900635, 0.3887861371040344
16776, 0.07845906168222427, -0.26749029755592346, -0.0753011554479599, 0.04598788917064667, 0.051312219351530075, 0.04068480804562569, -0.0019200174137949944, -0.004752288106828928, 1.0023384094238281, -0.3742673397064209, -5.228558540344238, 0.38937345147132874, 0.0, 0.0, 0.0, 0, 0, 0, 0, 0, 0, -0.3742673397064209, -5.228558540344238, 0.38937345147132874
16786, 0.07940960675477982, -0.26828768849372864, -0.07472259551286697, 0.12006177753210068, 0.19538646936416626, 0.06342024356126785, -0.0027026257012039423, -0.006342549808323383, 1.0021120309829712, -0.37375694513320923, -5.236577033996582, 0.38996198773384094, 0.0, 0.0, 0.0, 0, 0, 0, 0, 0, 0, -0.37375694513320923, -5.236577033996582, 0.38996198773384094
16796, 0.07916132360696793, -0.2688070833683014, -0.0741160586476326, -0.027653809636831284, 0.026136988773941994, 0.2414781004190445, -0.0007126783602871001, -0.005720461718738079, 0.9998615980148315, -0.3732440769672394, -5.244601726531982, 0.39055243134498596, 0.0, 0.0, 0.0, 0, 0, 0, 0, 0, 0, -0.3732440769672394, -5.244601726531982, 0.39055243134498596
16806, 0.07944907993078232, -0.2687113881111145, -0.07393889874219894, 0.007830321788787842, 0.06784627586603165, 0.11978322267532349, -0.002505473094061017, -0.007448331452906132, 0.9998751282691956, -0.37272822856903076, -5.252633571624756, 0.39114388823509216, 0.0, 0.0, 0.0, 0, 0, 0, 0, 0, 0, -0.37272822856903076, -5.252633571624756, 0.39114388823509216
16816, 0.07910408824682236, -0.2688160836696625, -0.07504499703645706, -0.14133331179618835, 0.1318385750055313, -0.16475285589694977, -0.001633073203265667, -0.004795794375240803, 1.0007504224777222, -0.37220948934555054, -5.260673522949219, 0.39173537492752075, 0.0, 0.0, 0.0, 0, 0, 0, 0, 0, 0, -0.37220948934555054, -5.260673522949219, 0.39173537492752075
16826, 0.07933730632066727, -0.26843491196632385, -0.07658480852842331, 0.10079392045736313, 0.08235575258731842, -0.14180141687393188, -0.003336053341627121, -0.003828686662018299, 1.0011732578277588, -0.3716883659362793, -5.268720626831055, 0.3923271894454956, 0.0, 0.0, 0.0, 0, 0, 0, 0, 0, 0, -0.3716883659362793, -5.268720626831055, 0.3923271894454956
16836, 0.07945084571838379, -0.2688695788383484, -0.07458393275737762, 0.012799471616744995, 0.10803278535604477, 0.3529354929924011, -0.0021709620486944914, -0.0049916598945856094, 1.0021183490753174, -0.371165007352829, -5.276773452758789, 0.3929200768470764, 0.0, 0.0, 0.0, 0, 0, 0, 0, 0, 0, -0.371165007352829, -5.276773452758789, 0.3929200768470764
16846, 0.079416923224926, -0.2704434096813202, -0.07285680621862411, -0.03207432106137276, 0.10327031463384628, 0.1895473301410675, -0.002072380855679512, -0.004558228887617588, 0.9986421465873718, -0.3706395924091339, -5.284832000732422, 0.3935145139694214, 0.0, 0.0, 0.0, 0, 0, 0, 0, 0, 0, -0.3706395924091339, -5.284832000732422, 0.3935145139694214
16856, 0.08023406565189362, -0.2687394917011261, -0.07343345135450363, 0.1573607176542282, -0.3182377815246582, -0.16564087569713593, -0.00239390111528337, -0.004379658959805965, 0.9995013475418091, -0.37011170387268066, -5.292896747589111, 0.39410924911499023, 0.0, 0.0, 0.0, 0, 0, 0, 0, 0, 0, -0.37011170387268066, -5.292896747589111, 0.39410924911499023
16866, 0.07950695604085922, -0.26961076259613037, -0.07472498714923859, -0.07470504939556122, 0.05753803253173828, -0.17734591662883759, -0.0036234650760889053, -0.007305760867893696, 1.001393437385559, -0.3695814609527588, -5.300967216491699, 0.3947032392024994, 0.0, 0.0, 0.0, 0, 0, 0, 0, 0, 0, -0.3695814609527588, -5.300967216491699, 0.3947032392024994
16876, 0.07967889308929443, -0.2685891091823578, -0.07380251586437225, -0.0003259059740230441, -0.07038822025060654, 0.1140127182006836, -0.004257524851709604, -0.0073557705618441105, 0.9992195963859558, -0.36904963850975037, -5.30904483795166, 0.39529770612716675, 0.0, 0.0, 0.0, 0, 0, 0, 0, 0, 0, -0.36904963850975037, -5.30904483795166, 0.39529770612716675
16886, 0.07939659059047699, -0.2687981128692627, -0.07264825701713562, -0.025663409382104874, 0.18339183926582336, 0.033008873462677, -0.0030071076471358538, -0.004407252185046673, 1.0008305311203003, -0.3685170114040375, -5.317131042480469, 0.3958927392959595, 0.0, 0.0, 0.0, 0, 0, 0, 0, 0, 0, -0.3685170114040375, -5.317131042480469, 0.3958927392959595
16896, 0.07889584451913834, -0.26937511563301086, -0.073305144906044, -0.1779545694589615, 0.22121268510818481, -0.2473757416009903, -0.004136426839977503, -0.003282359102740884, 1.000651478767395, -0.3679833710193634, -5.325224876403809, 0.39648789167404175, 0.0, 0.0, 0.0, 0, 0, 0, 0, 0, 0, -0.3679833710193634, -5.325224876403809, 0.39648789167404175
16906, 0.0787021741271019, -0.2700199782848358, -0.07280615717172623, 0.09379460662603378, 0.16150203347206116, 0.11908654868602753, -0.0010707122273743153, -0.0020559760741889477, 1.002025842666626, -0.36744874715805054, -5.333323955535889, 0.3970837891101837, 0.0, 0.0, 0.0, 0, 0, 0, 0, 0, 0, -0.36744874715805054, -5.333323955535889, 0.3970837891101837
16916, 0.07850945740938187, -0.26792627573013306, -0.0727173388004303, -0.03018822707235813, -0.18743976950645447, -0.003360598813742399, 3.498883233987726e-05, -0.002673198003321886, 0.9999403357505798, -0.366912305355072, -5.341426849365234, 0.3976811170578003, 0.0, 0.0, 0.0, 0, 0, 0, 0, 0, 0, -0.366912305355072, -5.341426849365234, 0.3976811170578003
16926, 0.07875575125217438, -0.2677662670612335, -0.07302235066890717, 0.10999687761068344, -0.011982573196291924, -0.15935072302818298, -0.0011440332746133208, -0.0054039116948843, 1.0009918212890625, -0.36637207865715027, -5.349533557891846, 0.3982795476913452, 0.0, 0.0, 0.0, 0, 0, 0, 0, 0, 0, -0.36637207865715027, -5.349533557891846, 0.3982795476913452
16936, 0.0777612030506134, -0.2680014669895172, -0.07316141575574875, -0.02944822795689106, 0.08479335904121399, -0.028101155534386635, -0.006114664021879435, -0.004960779566317797, 0.9998034834861755, -0.3658280074596405, -5.357645511627197, 0.39887842535972595, 0.0, 0.0, 0.0, 0, 0, 0, 0, 0, 0, -0.3658280074596405, -5.357645511627197, 0.39887842535972595
16946, 0.07861823588609695, -0.269059956073761, -0.07235933095216751, 0.17225492000579834, 0.2997577488422394, 0.15277810394763947, -0.003650638274848461, -0.005614446941763163, 0.9987876415252686, -0.36528271436691284, -5.3657636642456055, 0.3994773328304291, 0.0, 0.0, 0.0, 0, 0, 0, 0, 0, 0, -0.36528271436691284, -5.3657636642456055, 0.3994773328304291
16956, 0.07867928594350815, -0.2681722640991211, -0.07206259667873383, -0.05112457275390625, -0.023395847529172897, -0.03078349307179451, -0.001279822550714016, -0.005661646835505962, 0.9989321827888489, -0.3647373914718628, -5.3738884925842285, 0.40007543563842773, 0.0, 0.0, 0.0, 0, 0, 0, 0, 0, 0, -0.3647373914718628, -5.3738884925842285, 0.40007543563842773
16966, 0.07870983332395554, -0.27012869715690613, -0.07202226668596268, 0.06081380695104599, 0.30826079845428467, -0.0070791542530059814, -0.00042587469215504825, -0.003786595305427909, 1.0005574226379395, -0.36419010162353516, -5.382019996643066, 0.40067258477211, 0.0, 0.0, 0.0, 0, 0, 0, 0, 0, 0, -0.36419010162353516, -5.382019996643066, 0.40067258477211
16976, 0.07889238744974136, -0.2693696916103363, -0.0712750181555748, 0.0179936233907938, -0.10794751346111298, 0.053108688443899155, -0.00040870264638215303, -0.004265795927494764, 1.000020146369934, -0.36363911628723145, -5.390157699584961, 0.40126949548721313, 0.0, 0.0, 0.0, 0, 0, 0, 0, 0, 0, -0.36363911628723145, -5.390157699584961, 0.40126949548721313
16986, 0.07836693525314331, -0.27033740282058716, -0.0705445259809494, -0.06292343139648438, 0.19977231323719025, 0.1154073029756546, -0.0021529707591980696, -0.004588910844177008, 1.0004571676254272, -0.36308392882347107, -5.398300647735596, 0.40186646580696106, 0.0, 0.0, 0.0, 0, 0, 0, 0, 0, 0, -0.36308392882347107, -5.398300647735596, 0.40186646580696106
16996, 0.07867250591516495, -0.26764965057373047, -0.07102188467979431, 0.07499966025352478, -0.3528939187526703, -0.1621619462966919, -0.0032692905515432358, -0.004514067433774471, 1.00067937374115, -0.36252543330192566, -5.406449317932129, 0.4024635851383209, 0.0, 0.0, 0.0, 0, 0, 0, 0, 0, 0, -0.36252543330192566, -5.406449317932129, 0.4024635851383209
17006, 0.07866682857275009, -0.2661357522010803, -0.07188192754983902, -0.0063580055721104145, -0.1510392427444458, -0.1721138060092926, 0.0006679324433207512, -0.003289294894784689, 0.998706579208374, -0.3619649410247803, -5.4146037101745605, 0.4030614197254181, 0.0, 0.0, 0.0, 0, 0, 0, 0, 0, 0, -0.3619649410247803, -5.4146037101745605, 0.4030614197254181
17016, 0.0795043334364891, -0.26387152075767517, -0.07032721489667892, 0.12720344960689545, -0.19931356608867645, 0.3758954703807831, -0.0004007763636764139, -0.004581059794872999, 0.999744713306427, -0.3614012598991394, -5.422763824462891, 0.40365925431251526, 0.0, 0.0, 0.0, 0, 0, 0, 0, 0, 0, -0.3614012598991394, -5.422763824462891, 0.40365925431251526
17026, 0.07893253117799759, -0.26313212513923645, -0.07102254778146744, -0.047253500670194626, -0.007796376012265682, -0.18744170665740967, -0.0006952120456844568, -0.0056934356689453125, 0.9984098672866821, -0.3608330488204956, -5.430929183959961, 0.4042564332485199, 0.0, 0.0, 0.0, 0, 0, 0, 0, 0, 0, -0.3608330488204956, -5.430929183959961, 0.4042564332485199
17036, 0.07941724359989166, -0.2635071277618408, -0.07106322795152664, 0.04361472651362419, -0.05417899414896965, -0.005951657425612211, -0.003274692455306649, -0.0032799579203128815, 0.9992912411689758, -0.3602607548236847, -5.439100742340088, 0.40485283732414246, 0.0, 0.0, 0.0, 0, 0, 0, 0, 0, 0, -0.3602607548236847, -5.439100742340088, 0.40485283732414246
17046, 0.07960634678602219, -0.2639518678188324, -0.07087915390729904, 0.020937003195285797, 0.019815482199192047, -0.06741204857826233, -0.003947860095649958, -0.0028577931225299835, 0.9996775388717651, -0.35968565940856934, -5.447278022766113, 0.40544819831848145, 0.0, 0.0, 0.0, 0, 0, 0, 0, 0, 0, -0.35968565940856934, -5.447278022766113, 0.40544819831848145
