timeTick, roll, pitch, yaw, gyroX, gyroY, gyroZ, accX, accY, accZ, stateX, stateY, stateZ, target_x, target_y, target_z, otX, otY, otZ, otRoll, otPitch, otYaw, kalX, kalY, kalZ
13975, 0.0670931413769722, -0.07149195671081543, 0.06454850733280182, 0, 0, 0, 0, 0, 0, 0, 0, 0, 0, 0, 0, 0, 0, 0, 0, 0, 0, 0, 0, 0
13985, 0.06644222140312195, -0.07276421785354614, 0.06359296292066574, 0.0859777182340622, -0.07229216396808624, 0.012163565494120121, -0.0007823018240742385, -0.004188643302768469, 1.00071382522583, -0.2263360470533371, -3.6620445251464844, 0.0443195141851902, 0.0, 0.0, 0.0, 0, 0, 0, 0, 0, 0, -0.2263360470533371, -3.6620445251464844, 0.0443195141851902
13995, 0.06611212342977524, -0.07401730865240097, 0.0654224082827568, 0.0630296990275383, 0.17088089883327484, 0.052726153284311295, -0.0018497442360967398, -0.003369851503521204, 1.0007516145706177, -0.22646456956863403, -3.6689038276672363, 0.04436453431844711, 0.0, 0.0, 0.0, 0, 0, 0, 0, 0, 0, -0.22646456956863403, -3.6689038276672363, 0.04436453431844711
14005, 0.06638714671134949, -0.07351186126470566, 0.06518782675266266, -0.1357845962047577, -0.11205203831195831, 0.03047712706029415, -0.001763728680089116, -0.005672896280884743, 0.999083936214447, -0.22659341990947723, -3.6757683753967285, 0.04441004619002342, 0.0, 0.0, 0.0, 0, 0, 0, 0, 0, 0, -0.22659341990947723, -3.6757683753967285, 0.04441004619002342
14015, 0.06625699996948242, -0.07292131334543228, 0.06539475172758102, -0.13982191681861877, 0.24615296721458435, -0.010129502043128014, 0.00039627397200092673, -0.005593585316091776, 1.001630187034607, -0.2267226129770279, -3.6826391220092773, 0.04445571452379227, 0.0, 0.0, 0.0, 0, 0, 0, 0, 0, 0, -0.2267226129770279, -3.6826391220092773, 0.04445571452379227
14025, 0.06598091870546341, -0.07381387054920197, 0.06589848548173904, 0.03923492506146431, -0.10190176218748093, 0.027498170733451843, 0.0016662926645949483, -0.004984498023986816, 1.0006498098373413, -0.22685036063194275, -3.68951678276062, 0.044502004981040955, 0.0, 0.0, 0.0, 0, 0, 0, 0, 0, 0, -0.22685036063194275, -3.68951678276062, 0.044502004981040955
14035, 0.06568983197212219, -0.07316423952579498, 0.06489669531583786, 0.18230128288269043, -0.22754007577896118, 0.06279149651527405, 9.48850647546351e-05, -0.004360211081802845, 1.0013426542282104, -0.226975679397583, -3.6964004039764404, 0.04454931616783142, 0.0, 0.0, 0.0, 0, 0, 0, 0, 0, 0, -0.226975679397583, -3.6964004039764404, 0.04454931616783142
14045, 0.06651042401790619, -0.07291704416275024, 0.0650327280163765, -0.032877665013074875, 0.3362858295440674, -0.058768048882484436, -0.00030087950290180743, -0.007009608205407858, 1.0013272762298584, -0.22709932923316956, -3.7032899856567383, 0.044597841799259186, 0.0, 0.0, 0.0, 0, 0, 0, 0, 0, 0, -0.22709932923316956, -3.7032899856567383, 0.044597841799259186
14055, 0.06573792546987534, -0.07292583584785461, 0.0642886683344841, 0.041101936250925064, -0.13893428444862366, -0.012614263221621513, -0.0008745919330976903, -0.006361974403262138, 1.0006598234176636, -0.22722192108631134, -3.7101869583129883, 0.04464775696396828, 0.0, 0.0, 0.0, 0, 0, 0, 0, 0, 0, -0.22722192108631134, -3.7101869583129883, 0.04464775696396828
14065, 0.06594228744506836, -0.07304374873638153, 0.06431683897972107, 0.08315609395503998, 0.19616183638572693, -0.005838172044605017, -0.0017575514502823353, -0.007024796213954687, 0.9972541332244873, -0.22734388709068298, -3.7170917987823486, 0.0446980856359005, 0.0, 0.0, 0.0, 0, 0, 0, 0, 0, 0, -0.22734388709068298, -3.7170917987823486, 0.0446980856359005
14075, 0.06564894318580627, -0.07437761127948761, 0.06272250413894653, -0.09979027509689331, -0.04800914600491524, -0.30537205934524536, -0.002709104912355542, -0.007444802206009626, 0.998647153377533, -0.22746609151363373, -3.7240042686462402, 0.044746898114681244, 0.0, 0.0, 0.0, 0, 0, 0, 0, 0, 0, -0.22746609151363373, -3.7240042686462402, 0.044746898114681244
14085, 0.06519398093223572, -0.07296301424503326, 0.06184592470526695, 0.08859036862850189, -0.06816013902425766, -0.1339854896068573, -0.0015749110607430339, -0.006070077884942293, 0.9988915920257568, -0.22758923470973969, -3.730924606323242, 0.044793881475925446, 0.0, 0.0, 0.0, 0, 0, 0, 0, 0, 0, -0.22758923470973969, -3.730924606323242, 0.044793881475925446
14095, 0.06486473232507706, -0.07290453463792801, 0.061541903764009476, -0.010470799170434475, 0.04044027999043465, 0.12472201138734818, -0.0020626788027584553, -0.0060692718252539635, 0.9986964464187622, -0.2277129888534546, -3.7378525733947754, 0.04483960196375847, 0.0, 0.0, 0.0, 0, 0, 0, 0, 0, 0, -0.2277129888534546, -3.7378525733947754, 0.04483960196375847
14105, 0.06549090147018433, -0.07289951294660568, 0.06278939545154572, 0.000132095578010194, 0.14753516018390656, -0.08361371606588364, -0.0026467253919690847, -0.007108320016413927, 1.0005260705947876, -0.2278374433517456, -3.7447876930236816, 0.04488420486450195, 0.0, 0.0, 0.0, 0, 0, 0, 0, 0, 0, -0.2278374433517456, -3.7447876930236816, 0.04488420486450195
14115, 0.06543325632810593, -0.07383407652378082, 0.061693839728832245, 0.09669020026922226, -0.25321340560913086, 0.22691009938716888, -0.001958164619281888, -0.004767289850860834, 0.9996997117996216, -0.22796285152435303, -3.75173020362854, 0.044928744435310364, 0.0, 0.0, 0.0, 0, 0, 0, 0, 0, 0, -0.22796285152435303, -3.75173020362854, 0.044928744435310364
14125, 0.06465145945549011, -0.07293485105037689, 0.06133927032351494, 0.04416697472333908, -0.12053456157445908, -0.10302538424730301, 0.0009876596741378307, -0.005135116167366505, 0.9999059438705444, -0.2280886322259903, -3.7586793899536133, 0.044973425567150116, 0.0, 0.0, 0.0, 0, 0, 0, 0, 0, 0, -0.2280886322259903, -3.7586793899536133, 0.044973425567150116
14135, 0.06338780373334885, -0.07152432948350906, 0.06003215163946152, -0.1602948158979416, -0.09427241235971451, -0.026559634134173393, -0.00010612487676553428, -0.005325951147824526, 0.9993945956230164, -0.22821304202079773, -3.765634536743164, 0.04501807317137718, 0.0, 0.0, 0.0, 0, 0, 0, 0, 0, 0, -0.22821304202079773, -3.765634536743164, 0.04501807317137718
14145, 0.06302261352539062, -0.0735158622264862, 0.060382064431905746, -0.04131295159459114, 0.05220045894384384, 0.12826821208000183, -0.00040748261380940676, -0.0059767188504338264, 1.0005388259887695, -0.2283354103565216, -3.7725958824157715, 0.04506267234683037, 0.0, 0.0, 0.0, 0, 0, 0, 0, 0, 0, -0.2283354103565216, -3.7725958824157715, 0.04506267234683037
14155, 0.06246201694011688, -0.07429870963096619, 0.06043010205030441, -0.10161891579627991, 0.10679994523525238, 0.14416725933551788, -0.0006898051942698658, -0.006875885184854269, 1.0003803968429565, -0.2284570336341858, -3.779564142227173, 0.04510734975337982, 0.0, 0.0, 0.0, 0, 0, 0, 0, 0, 0, -0.2284570336341858, -3.779564142227173, 0.04510734975337982
14165, 0.06207204982638359, -0.07539458572864532, 0.060692302882671356, -0.038027241826057434, 0.02667626552283764, 0.27997004985809326, 0.00016159587539732456, -0.00506493728607893, 1.0015863180160522, -0.22857791185379028, -3.7865400314331055, 0.04515295475721359, 0.0, 0.0, 0.0, 0, 0, 0, 0, 0, 0, -0.22857791185379028, -3.7865400314331055, 0.04515295475721359
14175, 0.0615478977560997, -0.07577276974916458, 0.06124263256788254, -0.03137380629777908, 0.03178470954298973, -0.25303396582603455, -0.001711307093501091, -0.0032482342794537544, 1.0020091533660889, -0.22869795560836792, -3.793522357940674, 0.04520013555884361, 0.0, 0.0, 0.0, 0, 0, 0, 0, 0, 0, -0.22869795560836792, -3.793522357940674, 0.04520013555884361
14185, 0.06200723350048065, -0.07561738789081573, 0.061692651361227036, 0.09500908851623535, -0.16391006112098694, -0.0691683366894722, -0.001518509816378355, -0.0038669933564960957, 0.9986982941627502, -0.22881782054901123, -3.8005096912384033, 0.04524848610162735, 0.0, 0.0, 0.0, 0, 0, 0, 0, 0, 0, -0.22881782054901123, -3.8005096912384033, 0.04524848610162735
14195, 0.062161996960639954, -0.07557719945907593, 0.06108711287379265, -0.21233955025672913, 0.14806336164474487, 0.24323609471321106, -0.0004898579209111631, -0.006724258419126272, 1.002345323562622, -0.22893768548965454, -3.807502031326294, 0.04529707506299019, 0.0, 0.0, 0.0, 0, 0, 0, 0, 0, 0, -0.22893768548965454, -3.807502031326294, 0.04529707506299019
14205, 0.06209748983383179, -0.0776190236210823, 0.061587270349264145, 0.022989630699157715, 0.10983536392450333, 0.1851382553577423, -0.0009947667131200433, -0.005811506416648626, 1.001058578491211, -0.22905729711055756, -3.8145010471343994, 0.045346710830926895, 0.0, 0.0, 0.0, 0, 0, 0, 0, 0, 0, -0.22905729711055756, -3.8145010471343994, 0.045346710830926895
14215, 0.06225685030221939, -0.07734609395265579, 0.06252830475568771, -0.07645059376955032, -0.07054854929447174, 0.05176710709929466, -0.002422336721792817, -0.005512197967618704, 0.9996019601821899, -0.22917644679546356, -3.821507215499878, 0.045397862792015076, 0.0, 0.0, 0.0, 0, 0, 0, 0, 0, 0, -0.22917644679546356, -3.821507215499878, 0.045397862792015076
14225, 0.062093187123537064, -0.07790998369455338, 0.06336620450019836, 0.004042306449264288, -0.09062287956476212, -0.006570124067366123, -0.001390584628097713, -0.006510770879685879, 0.9979287385940552, -0.22929583489894867, -3.828519821166992, 0.045449208468198776, 0.0, 0.0, 0.0, 0, 0, 0, 0, 0, 0, -0.22929583489894867, -3.828519821166992, 0.045449208468198776
14235, 0.06400264799594879, -0.07684139162302017, 0.06402792036533356, 0.05926546826958656, -0.12773987650871277, -0.029879625886678696, -0.001849282649345696, -0.006876362953335047, 0.9990028142929077, -0.22941558063030243, -3.8355395793914795, 0.045499272644519806, 0.0, 0.0, 0.0, 0, 0, 0, 0, 0, 0, -0.22941558063030243, -3.8355395793914795, 0.045499272644519806
14245, 0.0639176219701767, -0.07572324573993683, 0.06330743432044983, 0.06823954731225967, -0.07400159537792206, -0.23255541920661926, -0.0006662603700533509, -0.0058888099156320095, 1.0015649795532227, -0.22953520715236664, -3.842566967010498, 0.045548371970653534, 0.0, 0.0, 0.0, 0, 0, 0, 0, 0, 0, -0.22953520715236664, -3.842566967010498, 0.045548371970653534
14255, 0.06318545341491699, -0.07531321048736572, 0.06338021904230118, -0.07628335803747177, -0.4251546561717987, 0.1540219485759735, -0.00022064756194595248, -0.006337863393127918, 1.0000591278076172, -0.22965475916862488, -3.8496015071868896, 0.045597806572914124, 0.0, 0.0, 0.0, 0, 0, 0, 0, 0, 0, -0.22965475916862488, -3.8496015071868896, 0.045597806572914124
14265, 0.06304065883159637, -0.07240594178438187, 0.0641622543334961, -0.020258957520127296, 0.0017366086831316352, 0.13258901238441467, 0.0018649949925020337, -0.007199846673756838, 1.0009245872497559, -0.22977325320243835, -3.8566431999206543, 0.04564804583787918, 0.0, 0.0, 0.0, 0, 0, 0, 0, 0, 0, -0.22977325320243835, -3.8566431999206543, 0.04564804583787918
14275, 0.06365397572517395, -0.07132148742675781, 0.06361549347639084, -0.003463139757514, 0.047632846981287, 0.16070155799388885, -0.0026588498149067163, -0.0064832549542188644, 0.9993306398391724, -0.22988976538181305, -3.86369252204895, 0.045698899775743484, 0.0, 0.0, 0.0, 0, 0, 0, 0, 0, 0, -0.22988976538181305, -3.86369252204895, 0.045698899775743484
14285, 0.06352783739566803, -0.07141363620758057, 0.06486515700817108, -0.002683438127860427, 0.12698981165885925, -0.15524956583976746, -0.002313872566446662, -0.005019380711019039, 1.0004023313522339, -0.23000594973564148, -3.8707494735717773, 0.04574970528483391, 0.0, 0.0, 0.0, 0, 0, 0, 0, 0, 0, -0.23000594973564148, -3.8707494735717773, 0.04574970528483391
14295, 0.06344955414533615, -0.07196861505508423, 0.06399509310722351, -0.019529584795236588, 0.21487177908420563, 0.1684494912624359, -0.0007025033119134605, -0.005509097129106522, 0.9995430707931519, -0.2301231175661087, -3.8778128623962402, 0.04580048844218254, 0.0, 0.0, 0.0, 0, 0, 0, 0, 0, 0, -0.2301231175661087, -3.8778128623962402, 0.04580048844218254
14305, 0.06329630315303802, -0.07238698750734329, 0.06474736332893372, 0.12649962306022644, 0.36030223965644836, 0.1914253830909729, -0.00019919523037970066, -0.00626690499484539, 1.000289797782898, -0.23024019598960876, -3.884882688522339, 0.045851197093725204, 0.0, 0.0, 0.0, 0, 0, 0, 0, 0, 0, -0.23024019598960876, -3.884882688522339, 0.045851197093725204
14315, 0.06267406046390533, -0.07409878820180893, 0.0652831569314003, -0.10125146806240082, 0.08873473852872849, -0.3252468705177307, -0.001284605823457241, -0.006027608644217253, 1.0007503032684326, -0.23036839067935944, -3.8926680088043213, 0.04590710997581482, 0.0, 0.0, 0.0, 0, 0, 0, 0, 0, 0, -0.23036839067935944, -3.8926680088043213, 0.04590710997581482
14325, 0.06303179264068604, -0.07408570498228073, 0.06448069214820862, -0.07980559766292572, -0.015804272145032883, 0.10170043259859085, -0.00032006698893383145, -0.005905406549572945, 1.0017032623291016, -0.23048491775989532, -3.8997530937194824, 0.045958492904901505, 0.0, 0.0, 0.0, 0, 0, 0, 0, 0, 0, -0.23048491775989532, -3.8997530937194824, 0.045958492904901505
14335, 0.06217333301901817, -0.07480072975158691, 0.06360319256782532, 0.12645845115184784, 0.18426449596881866, -0.12516161799430847, 0.0002637499419506639, -0.005794076714664698, 1.0017828941345215, -0.23060081899166107, -3.9068453311920166, 0.04601108655333519, 0.0, 0.0, 0.0, 0, 0, 0, 0, 0, 0, -0.23060081899166107, -3.9068453311920166, 0.04601108655333519
14345, 0.062343474477529526, -0.07711372524499893, 0.064039446413517, -0.06353481858968735, 0.23059017956256866, 0.0915338546037674, -0.0007943313685245812, -0.0029600299894809723, 1.0036410093307495, -0.23071527481079102, -3.9139440059661865, 0.04606596380472183, 0.0, 0.0, 0.0, 0, 0, 0, 0, 0, 0, -0.23071527481079102, -3.9139440059661865, 0.04606596380472183
14355, 0.06240710988640785, -0.07791575789451599, 0.06379331648349762, 0.09638457745313644, 0.1822446584701538, -0.11284255236387253, -0.0016315157990902662, -0.0062942043878138065, 1.000836968421936, -0.2308291643857956, -3.9210479259490967, 0.046123385429382324, 0.0, 0.0, 0.0, 0, 0, 0, 0, 0, 0, -0.2308291643857956, -3.9210479259490967, 0.046123385429382324
14365, 0.06299760937690735, -0.07725641876459122, 0.06370163708925247, 0.11521374434232712, -0.35070860385894775, -0.007438561413437128, -0.0023131496272981167, -0.006748294923454523, 0.9995050430297852, -0.23094330728054047, -3.9281578063964844, 0.046182118356227875, 0.0, 0.0, 0.0, 0, 0, 0, 0, 0, 0, -0.23094330728054047, -3.9281578063964844, 0.046182118356227875
14375, 0.06288699060678482, -0.07689807564020157, 0.06329309940338135, -0.037109870463609695, 0.17341788113117218, 0.19368161261081696, 0.0002399681106908247, -0.008715907111763954, 1.0017883777618408, -0.23105758428573608, -3.9352757930755615, 0.04624123126268387, 0.0, 0.0, 0.0, 0, 0, 0, 0, 0, 0, -0.23105758428573608, -3.9352757930755615, 0.04624123126268387
14385, 0.06305018812417984, -0.07769429683685303, 0.06476230919361115, -0.0989074781537056, -0.13591307401657104, 0.04016371816396713, 0.0015449809143319726, -0.006008455995470285, 1.001259207725525, -0.23117083311080933, -3.9424021244049072, 0.0463017001748085, 0.0, 0.0, 0.0, 0, 0, 0, 0, 0, 0, -0.23117083311080933, -3.9424021244049072, 0.0463017001748085
14395, 0.06233951821923256, -0.07900890707969666, 0.0643487200140953, -0.048716600984334946, 0.2662571668624878, -0.09950374811887741, 0.00019693341164384037, -0.006016628351062536, 1.0000839233398438, -0.2312818467617035, -3.949536085128784, 0.046363431960344315, 0.0, 0.0, 0.0, 0, 0, 0, 0, 0, 0, -0.2312818467617035, -3.949536085128784, 0.046363431960344315
14405, 0.06277302652597427, -0.07857239246368408, 0.0655422955751419, 0.2035471498966217, 0.034987907856702805, 0.2820702791213989, -0.000999314128421247, -0.005282254423946142, 0.9992191791534424, -0.23139126598834991, -3.956676721572876, 0.04642526060342789, 0.0, 0.0, 0.0, 0, 0, 0, 0, 0, 0, -0.23139126598834991, -3.956676721572876, 0.04642526060342789
14415, 0.062465231865644455, -0.07806072384119034, 0.06575649976730347, 0.17540349066257477, -0.005418908782303333, -0.04628240317106247, 0.0011185138719156384, -0.006598157342523336, 0.9994716048240662, -0.23149974644184113, -3.9638240337371826, 0.04648665711283684, 0.0, 0.0, 0.0, 0, 0, 0, 0, 0, 0, -0.23149974644184113, -3.9638240337371826, 0.04648665711283684
14425, 0.06387483328580856, -0.07820022851228714, 0.06573231518268585, -0.005262376740574837, -0.20042645931243896, 0.050432078540325165, -0.00038514193147420883, -0.006653136108070612, 1.0001591444015503, -0.23160682618618011, -3.9709787368774414, 0.04654758796095848, 0.0, 0.0, 0.0, 0, 0, 0, 0, 0, 0, -0.23160682618618011, -3.9709787368774414, 0.04654758796095848
14435, 0.06342432647943497, -0.0771963968873024, 0.06489507108926773, 0.09808357059955597, 0.10333175212144852, 0.0664580911397934, -0.00016471961862407625, -0.00557498587295413, 1.0003793239593506, -0.23171262443065643, -3.9781408309936523, 0.046608321368694305, 0.0, 0.0, 0.0, 0, 0, 0, 0, 0, 0, -0.23171262443065643, -3.9781408309936523, 0.046608321368694305
14445, 0.06263401359319687, -0.0785648301243782, 0.06413140147924423, -0.22536629438400269, 0.2232876569032669, -0.21475547552108765, -0.001738660503178835, -0.0056175668723881245, 1.0017832517623901, -0.23181793093681335, -3.985309362411499, 0.04666972905397415, 0.0, 0.0, 0.0, 0, 0, 0, 0, 0, 0, -0.23181793093681335, -3.985309362411499, 0.04666972905397415
14455, 0.06234017387032509, -0.07789147645235062, 0.06471714377403259, -0.031538307666778564, -0.11165864020586014, -0.02879432588815689, 0.0006102679180912673, -0.0038640571292489767, 1.002171277999878, -0.2319231480360031, -3.9924840927124023, 0.0467328205704689, 0.0, 0.0, 0.0, 0, 0, 0, 0, 0, 0, -0.2319231480360031, -3.9924840927124023, 0.0467328205704689
14465, 0.06245928257703781, -0.0791369378566742, 0.06582999974489212, 0.07736676931381226, 0.1587655395269394, 0.226339653134346, -0.0009549678070470691, -0.0033501877915114164, 1.00197434425354, -0.23202763497829437, -3.999664068222046, 0.04679795354604721, 0.0, 0.0, 0.0, 0, 0, 0, 0, 0, 0, -0.23202763497829437, -3.999664068222046, 0.04679795354604721
14475, 0.06344184279441833, -0.07750978320837021, 0.0648321658372879, 0.22516129910945892, -0.114338718354702, 0.169014111161232, -0.0019114048918709159, -0.004949731286615133, 0.9979158043861389, -0.2321312576532364, -4.0068488121032715, 0.04686415195465088, 0.0, 0.0, 0.0, 0, 0, 0, 0, 0, 0, -0.2321312576532364, -4.0068488121032715, 0.04686415195465088
14485, 0.06410790234804153, -0.07719944417476654, 0.06489934772253036, -0.09252892434597015, -0.32247868180274963, -0.0908040702342987, -0.0012977677397429943, -0.005750223062932491, 0.9988046884536743, -0.23223482072353363, -4.014039039611816, 0.046929482370615005, 0.0, 0.0, 0.0, 0, 0, 0, 0, 0, 0, -0.23223482072353363, -4.014039039611816, 0.046929482370615005
14495, 0.06315700709819794, -0.07750461250543594, 0.0649542510509491, 0.0703369602560997, -0.04207921400666237, 0.0004810069513041526, 0.0008502612472511828, -0.00749570457264781, 0.9993863105773926, -0.23233778774738312, -4.021236419677734, 0.046993330121040344, 0.0, 0.0, 0.0, 0, 0, 0, 0, 0, 0, -0.23233778774738312, -4.021236419677734, 0.046993330121040344
14505, 0.06424252688884735, -0.07588844001293182, 0.06452328711748123, -0.05696051940321922, 0.1059519425034523, -0.028153495863080025, -0.001629229518584907, -0.006654603872448206, 0.9995129108428955, -0.2324398010969162, -4.028441905975342, 0.047056324779987335, 0.0, 0.0, 0.0, 0, 0, 0, 0, 0, 0, -0.2324398010969162, -4.028441905975342, 0.047056324779987335
14515, 0.06363345682621002, -0.07538436353206635, 0.0646001324057579, -0.029245687648653984, 0.11343394219875336, -0.046371232718229294, -0.0034475415013730526, -0.006886637303978205, 0.9984150528907776, -0.23254191875457764, -4.0356550216674805, 0.04711846634745598, 0.0, 0.0, 0.0, 0, 0, 0, 0, 0, 0, -0.23254191875457764, -4.0356550216674805, 0.04711846634745598
14525, 0.06404677778482437, -0.07588852196931839, 0.06377315521240234, -0.006245265249162912, 0.219075545668602, 0.08983267843723297, -0.001428846619091928, -0.00760395172983408, 1.0000026226043701, -0.23264539241790771, -4.042876243591309, 0.047179609537124634, 0.0, 0.0, 0.0, 0, 0, 0, 0, 0, 0, -0.23264539241790771, -4.042876243591309, 0.047179609537124634
14535, 0.06461605429649353, -0.07621639221906662, 0.06435476243495941, 0.07252947986125946, -0.0629635602235794, 0.014545419253408909, -0.0007783306646160781, -0.0069596972316503525, 1.0000133514404297, -0.23274961113929749, -4.050105571746826, 0.047240301966667175, 0.0, 0.0, 0.0, 0, 0, 0, 0, 0, 0, -0.23274961113929749, -4.050105571746826, 0.047240301966667175
14545, 0.0642494261264801, -0.0757402628660202, 0.06355002522468567, 0.02515488862991333, -0.03515508770942688, -0.13884322345256805, -0.0008554700762033463, -0.008691353723406792, 1.002116322517395, -0.23285336792469025, -4.057343482971191, 0.04730159044265747, 0.0, 0.0, 0.0, 0, 0, 0, 0, 0, 0, -0.23285336792469025, -4.057343482971191, 0.04730159044265747
14555, 0.06464167684316635, -0.07500248402357101, 0.06302031129598618, -0.015098880976438522, -0.04720620438456535, 0.20054493844509125, -0.0006984579958952963, -0.00479962769895792, 1.001179575920105, -0.23295652866363525, -4.064589977264404, 0.047364551573991776, 0.0, 0.0, 0.0, 0, 0, 0, 0, 0, 0, -0.23295652866363525, -4.064589977264404, 0.047364551573991776
14565, 0.06430838257074356, -0.07598774880170822, 0.0626254603266716, 0.10595131665468216, 0.24365660548210144, -0.036078862845897675, -0.0013809057418256998, -0.0038315695710480213, 0.9970917701721191, -0.23305948078632355, -4.071843147277832, 0.04742826148867607, 0.0, 0.0, 0.0, 0, 0, 0, 0, 0, 0, -0.23305948078632355, -4.071843147277832, 0.04742826148867607
14575, 0.06460469216108322, -0.07572890818119049, 0.06302350759506226, -0.03940192237496376, -0.012083013541996479, 0.09242969751358032, -7.40153482183814e-05, -0.005230380222201347, 0.9982893466949463, -0.23316220939159393, -4.0791015625, 0.047490306198596954, 0.0, 0.0, 0.0, 0, 0, 0, 0, 0, 0, -0.23316220939159393, -4.0791015625, 0.047490306198596954
14585, 0.06459671258926392, -0.07561984658241272, 0.06203971803188324, -0.008376258425414562, 0.11535538733005524, -0.12251219898462296, 5.8125780924456194e-05, -0.004094271920621395, 1.000346302986145, -0.2332642525434494, -4.086365222930908, 0.04755055904388428, 0.0, 0.0, 0.0, 0, 0, 0, 0, 0, 0, -0.2332642525434494, -4.086365222930908, 0.04755055904388428
14595, 0.0646493136882782, -0.07561273872852325, 0.0625484362244606, -0.07998807728290558, 0.138303741812706, 0.12425127625465393, 0.001231811591424048, -0.006297537125647068, 1.0011166334152222, -0.23336492478847504, -4.093635082244873, 0.04761083796620369, 0.0, 0.0, 0.0, 0, 0, 0, 0, 0, 0, -0.23336492478847504, -4.093635082244873, 0.04761083796620369
14605, 0.06388577818870544, -0.07591830939054489, 0.061589114367961884, 0.2129065841436386, -0.17502819001674652, 0.147588849067688, -0.002045570407062769, -0.0044499835930764675, 0.9994769096374512, -0.23346398770809174, -4.100911617279053, 0.04767198488116264, 0.0, 0.0, 0.0, 0, 0, 0, 0, 0, 0, -0.23346398770809174, -4.100911617279053, 0.04767198488116264
14615, 0.06513813138008118, -0.0758582353591919, 0.06307768076658249, 0.1842065453529358, 0.18813030421733856, -0.01977521926164627, -0.001229959772899747, -0.008443951606750488, 1.000267744064331, -0.23356248438358307, -4.108194351196289, 0.04773344472050667, 0.0, 0.0, 0.0, 0, 0, 0, 0, 0, 0, -0.23356248438358307, -4.108194351196289, 0.04773344472050667
14625, 0.06534890085458755, -0.0745435282588005, 0.06290517002344131, -0.0346270315349102, -0.2430935800075531, -0.1760333627462387, -0.0025526497047394514, -0.006817181129008532, 1.001029133796692, -0.23366154730319977, -4.115485668182373, 0.04779493808746338, 0.0, 0.0, 0.0, 0, 0, 0, 0, 0, 0, -0.23366154730319977, -4.115485668182373, 0.04779493808746338
14635, 0.0662129670381546, -0.07590819150209427, 0.06339477747678757, 0.09656721353530884, 0.2961808443069458, -0.09363210201263428, -0.002034578938037157, -0.005897001828998327, 0.9999046325683594, -0.23376168310642242, -4.122784614562988, 0.04785662889480591, 0.0, 0.0, 0.0, 0, 0, 0, 0, 0, 0, -0.23376168310642242, -4.122784614562988, 0.04785662889480591
14645, 0.06476150453090668, -0.07567388564348221, 0.0628412738442421, 0.005786510184407234, 0.20249538123607635, 0.259380042552948, -0.0020576040260493755, -0.006097604986280203, 1.000031590461731, -0.23386253416538239, -4.130090713500977, 0.04791848361492157, 0.0, 0.0, 0.0, 0, 0, 0, 0, 0, 0, -0.23386253416538239, -4.130090713500977, 0.04791848361492157
14655, 0.06485473364591599, -0.07659575343132019, 0.06334253400564194, 0.04724840447306633, 0.05852731689810753, 0.16646169126033783, -0.002393308561295271, -0.006976285949349403, 0.997356116771698, -0.2339640110731125, -4.137403964996338, 0.04797995090484619, 0.0, 0.0, 0.0, 0, 0, 0, 0, 0, 0, -0.2339640110731125, -4.137403964996338, 0.04797995090484619
14665, 0.06591250002384186, -0.0758812204003334, 0.06261956691741943, 0.236349418759346, 0.03514794632792473, -0.027532244101166725, -0.0015491103986278176, -0.00550989992916584, 0.9987962245941162, -0.2340664267539978, -4.1447248458862305, 0.048039838671684265, 0.0, 0.0, 0.0, 0, 0, 0, 0, 0, 0, -0.2340664267539978, -4.1447248458862305, 0.048039838671684265
14675, 0.06652642041444778, -0.07533440738916397, 0.06370197981595993, -0.10576827824115753, 0.22367702424526215, 0.03837484121322632, -0.0017235829727724195, -0.005143350921571255, 0.999161958694458, -0.234169602394104, -4.152052402496338, 0.048098135739564896, 0.0, 0.0, 0.0, 0, 0, 0, 0, 0, 0, -0.234169602394104, -4.152052402496338, 0.048098135739564896
14685, 0.06632839888334274, -0.0770038366317749, 0.06468802690505981, -0.03630265220999718, 0.06337154656648636, 0.20466618239879608, -0.0016009507235139608, -0.0062677301466465, 1.0000758171081543, -0.23427331447601318, -4.159386157989502, 0.04815588518977165, 0.0, 0.0, 0.0, 0, 0, 0, 0, 0, 0, -0.23427331447601318, -4.159386157989502, 0.04815588518977165
14695, 0.06666981428861618, -0.07837241888046265, 0.0649331584572792, -0.007485588546842337, -0.06677617132663727, -0.012897131033241749, -0.0020053572952747345, -0.005208063870668411, 1.0003361701965332, -0.2343774437904358, -4.166726589202881, 0.04821394383907318, 0.0, 0.0, 0.0, 0, 0, 0, 0, 0, 0, -0.2343774437904358, -4.166726589202881, 0.04821394383907318
14705, 0.06690899282693863, -0.0767192542552948, 0.06428959965705872, 0.015378902666270733, -0.14926335215568542, -0.0758509635925293, -0.00039748084964230657, -0.0055279480293393135, 0.9979817271232605, -0.23448169231414795, -4.174073696136475, 0.048271965235471725, 0.0, 0.0, 0.0, 0, 0, 0, 0, 0, 0, -0.23448169231414795, -4.174073696136475, 0.048271965235471725
14715, 0.06794667989015579, -0.07807721197605133, 0.06436105072498322, 0.03373875468969345, -0.24278448522090912, 0.05898887664079666, -0.0008052812190726399, -0.005207519978284836, 0.9989778995513916, -0.23458556830883026, -4.181427001953125, 0.04832887277007103, 0.0, 0.0, 0.0, 0, 0, 0, 0, 0, 0, -0.23458556830883026, -4.181427001953125, 0.04832887277007103
14725, 0.06728571653366089, -0.07767395675182343, 0.06436921656131744, 0.006685386411845684, 0.38320857286453247, 0.12738467752933502, -0.0026125204749405384, -0.007286790758371353, 1.0009281635284424, -0.23468932509422302, -4.18878698348999, 0.048384666442871094, 0.0, 0.0, 0.0, 0, 0, 0, 0, 0, 0, -0.23468932509422302, -4.18878698348999, 0.048384666442871094
14735, 0.06741362065076828, -0.08052415400743484, 0.06410461664199829, 0.09462719410657883, 0.08337633311748505, -0.17904065549373627, -0.0015571149997413158, -0.00801464170217514, 1.0002490282058716, -0.23479360342025757, -4.196155071258545, 0.048440780490636826, 0.0, 0.0, 0.0, 0, 0, 0, 0, 0, 0, -0.23479360342025757, -4.196155071258545, 0.048440780490636826
14745, 0.06783060729503632, -0.08190678060054779, 0.06479457020759583, -0.01940542832016945, 0.2064683437347412, 0.03270488604903221, -0.00018300165538676083, -0.005431343335658312, 0.9993978142738342, -0.23489812016487122, -4.203530788421631, 0.04849759116768837, 0.0, 0.0, 0.0, 0, 0, 0, 0, 0, 0, -0.23489812016487122, -4.203530788421631, 0.04849759116768837
14755, 0.0672602429986, -0.0837368369102478, 0.0658571645617485, -0.06054775044322014, 0.1578715592622757, 0.003955451771616936, -0.0006642602966167033, -0.00617732759565115, 0.9991336464881897, -0.23500171303749084, -4.210914134979248, 0.04855406656861305, 0.0, 0.0, 0.0, 0, 0, 0, 0, 0, 0, -0.23500171303749084, -4.210914134979248, 0.04855406656861305
14765, 0.0672566145658493, -0.08157794922590256, 0.06586068868637085, 0.014024145901203156, -0.3298177421092987, -0.15797139704227448, -0.002641618950292468, -0.0068322899751365185, 0.9994993805885315, -0.2351044863462448, -4.218304634094238, 0.048609718680381775, 0.0, 0.0, 0.0, 0, 0, 0, 0, 0, 0, -0.2351044863462448, -4.218304634094238, 0.048609718680381775
14775, 0.06811068207025528, -0.0810890793800354, 0.06524214148521423, 0.13306671380996704, 0.17311328649520874, 0.02369658090174198, -0.002646293956786394, -0.007964782416820526, 1.0005375146865845, -0.2352079451084137, -4.225703239440918, 0.04866480082273483, 0.0, 0.0, 0.0, 0, 0, 0, 0, 0, 0, -0.2352079451084137, -4.225703239440918, 0.04866480082273483
14785, 0.06915171444416046, -0.08156558871269226, 0.06627123057842255, -0.04735540226101875, 0.08978777378797531, -0.049088772386312485, -8.883030204742681e-07, -0.007926201447844505, 1.000998854637146, -0.2353120893239975, -4.2331109046936035, 0.04872003570199013, 0.0, 0.0, 0.0, 0, 0, 0, 0, 0, 0, -0.2353120893239975, -4.2331109046936035, 0.04872003570199013
14795, 0.06928005069494247, -0.08179934322834015, 0.06619931012392044, -0.0025088037364184856, 0.00569378724321723, 0.003760888474062085, -0.002462545642629266, -0.007504958659410477, 1.0011333227157593, -0.23541608452796936, -4.240527153015137, 0.04877621680498123, 0.0, 0.0, 0.0, 0, 0, 0, 0, 0, 0, -0.23541608452796936, -4.240527153015137, 0.04877621680498123
14805, 0.06842822581529617, -0.07980339974164963, 0.06762998551130295, -0.03895416855812073, -0.10878296196460724, 0.02794814296066761, -0.0021619335748255253, -0.007615276146680117, 0.9996809363365173, -0.23552022874355316, -4.247951984405518, 0.04883331060409546, 0.0, 0.0, 0.0, 0, 0, 0, 0, 0, 0, -0.23552022874355316, -4.247951984405518, 0.04883331060409546
14815, 0.06806808710098267, -0.0810999944806099, 0.06769619882106781, -0.05716382712125778, 0.2532907724380493, -0.09887424856424332, 1.6929661796893924e-05, -0.0070893289521336555, 1.0004979372024536, -0.23562470078468323, -4.255385875701904, 0.04889080300927162, 0.0, 0.0, 0.0, 0, 0, 0, 0, 0, 0, -0.23562470078468323, -4.255385875701904, 0.04889080300927162
14825, 0.06885544955730438, -0.08279436826705933, 0.06815427541732788, 0.10401271283626556, -0.01630781590938568, 0.0135145653039217, 0.0002892472257371992, -0.004329472780227661, 1.0003995895385742, -0.23572832345962524, -4.262827396392822, 0.04894855618476868, 0.0, 0.0, 0.0, 0, 0, 0, 0, 0, 0, -0.23572832345962524, -4.262827396392822, 0.04894855618476868
14835, 0.06781578809022903, -0.08350840955972672, 0.06716419756412506, -0.16263867914676666, 0.09674869477748871, -0.13828086853027344, 0.0020999382250010967, -0.004546473268419504, 0.9978792071342468, -0.235830157995224, -4.270274639129639, 0.04900609701871872, 0.0, 0.0, 0.0, 0, 0, 0, 0, 0, 0, -0.235830157995224, -4.270274639129639, 0.04900609701871872
14845, 0.0673883929848671, -0.08461500704288483, 0.06817706674337387, 0.15579363703727722, 0.21403169631958008, 0.0621190220117569, -0.00028917143936268985, -0.003659079782664776, 1.0017911195755005, -0.2359294891357422, -4.2777276039123535, 0.04906294867396355, 0.0, 0.0, 0.0, 0, 0, 0, 0, 0, 0, -0.2359294891357422, -4.2777276039123535, 0.04906294867396355
14855, 0.06668610870838165, -0.08561572432518005, 0.06962387263774872, -0.05381566286087036, 0.030816389247775078, 0.26990363001823425, -0.00022794546384830028, -0.005984847899526358, 1.0008699893951416, -0.23602695763111115, -4.285186290740967, 0.04912029579281807, 0.0, 0.0, 0.0, 0, 0, 0, 0, 0, 0, -0.23602695763111115, -4.285186290740967, 0.04912029579281807
14865, 0.06701092422008514, -0.08702965080738068, 0.06863109022378922, -0.018373295664787292, 0.07073774188756943, 0.007840600796043873, -0.0014096606755629182, -0.005094901658594608, 0.9993691444396973, -0.23612359166145325, -4.292651176452637, 0.04917848855257034, 0.0, 0.0, 0.0, 0, 0, 0, 0, 0, 0, -0.23612359166145325, -4.292651176452637, 0.04917848855257034
14875, 0.06588386744260788, -0.08693220466375351, 0.06746742129325867, -0.0430058091878891, 0.020942343398928642, -0.11665936559438705, -0.00033274744055233896, -0.007624384015798569, 0.9992304444313049, -0.23621951043605804, -4.30012321472168, 0.04923630878329277, 0.0, 0.0, 0.0, 0, 0, 0, 0, 0, 0, -0.23621951043605804, -4.30012321472168, 0.04923630878329277
14885, 0.06703857332468033, -0.08639192581176758, 0.06723015755414963, 0.10230620950460434, -0.008332965895533562, 0.12860947847366333, 2.491764462320134e-05, -0.007044218480587006, 0.9994315505027771, -0.2363142967224121, -4.307602882385254, 0.049293484538793564, 0.0, 0.0, 0.0, 0, 0, 0, 0, 0, 0, -0.2363142967224121, -4.307602882385254, 0.049293484538793564
14895, 0.06754184514284134, -0.08498509228229523, 0.06889480352401733, 0.016682030633091927, 0.06611699610948563, 0.1841847449541092, -0.0011106791207566857, -0.006705127190798521, 1.0002989768981934, -0.23640763759613037, -4.315090179443359, 0.04935041815042496, 0.0, 0.0, 0.0, 0, 0, 0, 0, 0, 0, -0.23640763759613037, -4.315090179443359, 0.04935041815042496
14905, 0.06775569170713425, -0.0846768468618393, 0.06816648691892624, 0.18543002009391785, -0.06846380233764648, -0.26927289366722107, -0.0012204243103042245, -0.007387907709926367, 0.9992191791534424, -0.23650044202804565, -4.322585582733154, 0.04940734803676605, 0.0, 0.0, 0.0, 0, 0, 0, 0, 0, 0, -0.23650044202804565, -4.322585582733154, 0.04940734803676605
14915, 0.0687018483877182, -0.08170914649963379, 0.06808343529701233, 0.15037035942077637, -0.3924533724784851, 0.05720241367816925, -0.0021618823520839214, -0.00551675446331501, 0.9979969263076782, -0.2365933507680893, -4.3300886154174805, 0.04946363344788551, 0.0, 0.0, 0.0, 0, 0, 0, 0, 0, 0, -0.2365933507680893, -4.3300886154174805, 0.04946363344788551
14925, 0.06916292756795883, -0.08064696937799454, 0.06957446783781052, -0.056279685348272324, 0.2041996270418167, 0.31934311985969543, -0.0021686539985239506, -0.007254680152982473, 1.0015597343444824, -0.23668667674064636, -4.337599277496338, 0.04951898753643036, 0.0, 0.0, 0.0, 0, 0, 0, 0, 0, 0, -0.23668667674064636, -4.337599277496338, 0.04951898753643036
14935, 0.06920231133699417, -0.08256609737873077, 0.06990805268287659, 0.07002340257167816, 0.043024834245443344, 0.027589786797761917, -0.00223001791164279, -0.006351880729198456, 1.000178337097168, -0.23678073287010193, -4.345117568969727, 0.04957479238510132, 0.0, 0.0, 0.0, 0, 0, 0, 0, 0, 0, -0.23678073287010193, -4.345117568969727, 0.04957479238510132
14945, 0.06790927052497864, -0.07959932088851929, 0.06859666854143143, 0.07945958524942398, -0.3040480613708496, -0.12986217439174652, -0.003319967770949006, -0.004562205169349909, 1.000295877456665, -0.23687532544136047, -4.352643013000488, 0.049631521105766296, 0.0, 0.0, 0.0, 0, 0, 0, 0, 0, 0, -0.23687532544136047, -4.352643013000488, 0.049631521105766296
14955, 0.06806597858667374, -0.07957294583320618, 0.0684201791882515, 0.008993278257548809, -0.01164750475436449, 0.14828814566135406, -0.0020257753785699606, -0.004912144038826227, 1.0009422302246094, -0.23697127401828766, -4.360175132751465, 0.04968855902552605, 0.0, 0.0, 0.0, 0, 0, 0, 0, 0, 0, -0.23697127401828766, -4.360175132751465, 0.04968855902552605
14965, 0.0686655193567276, -0.08007842302322388, 0.07057089358568192, 0.028699031099677086, 0.2504625916481018, 0.1774216890335083, 0.0006734492490068078, -0.0038525245618075132, 1.0004042387008667, -0.23706771433353424, -4.36771297454834, 0.049746323376894, 0.0, 0.0, 0.0, 0, 0, 0, 0, 0, 0, -0.23706771433353424, -4.36771297454834, 0.049746323376894
14975, 0.06941897422075272, -0.0803648978471756, 0.0707070603966713, 0.049101997166872025, 0.05399616062641144, 0.015602067112922668, -0.0018830039771273732, -0.004199279006570578, 0.9994576573371887, -0.2371632605791092, -4.375256061553955, 0.049804627895355225, 0.0, 0.0, 0.0, 0, 0, 0, 0, 0, 0, -0.2371632605791092, -4.375256061553955, 0.049804627895355225
14985, 0.06920261681079865, -0.08317234367132187, 0.07281586527824402, 0.08735036104917526, 0.3095758259296417, 0.1254761517047882, -0.0004953002789989114, -0.007696603424847126, 0.9992170333862305, -0.2372584044933319, -4.382804870605469, 0.04986240714788437, 0.0, 0.0, 0.0, 0, 0, 0, 0, 0, 0, -0.2372584044933319, -4.382804870605469, 0.04986240714788437
14995, 0.07005718350410461, -0.08379900455474854, 0.07336054742336273, -0.07381892949342728, 0.25931158661842346, 0.057419147342443466, 0.0002711079432629049, -0.005873197223991156, 0.9993147850036621, -0.23735259473323822, -4.390361309051514, 0.04991947486996651, 0.0, 0.0, 0.0, 0, 0, 0, 0, 0, 0, -0.23735259473323822, -4.390361309051514, 0.04991947486996651
15005, 0.06940771639347076, -0.0850829929113388, 0.07404832541942596, -0.09403964132070541, 0.13419947028160095, 0.05318508297204971, -0.0031867995858192444, -0.004227262455970049, 0.9989696741104126, -0.23744620382785797, -4.397924900054932, 0.049975886940956116, 0.0, 0.0, 0.0, 0, 0, 0, 0, 0, 0, -0.23744620382785797, -4.397924900054932, 0.049975886940956116
15015, 0.06919776648283005, -0.08496616780757904, 0.07429136335849762, 0.08233455568552017, 0.22137551009655, 0.20272375643253326, 0.00034473888808861375, -0.005805443041026592, 1.0011488199234009, -0.23754015564918518, -4.405494689941406, 0.050031743943691254, 0.0, 0.0, 0.0, 0, 0, 0, 0, 0, 0, -0.23754015564918518, -4.405494689941406, 0.050031743943691254
15025, 0.06953883171081543, -0.08609589189291, 0.07641734182834625, -0.05433432757854462, -0.14423394203186035, 0.30843210220336914, -0.0005340785719454288, -0.004185009747743607, 1.0007269382476807, -0.23763345181941986, -4.413070201873779, 0.050088152289390564, 0.0, 0.0, 0.0, 0, 0, 0, 0, 0, 0, -0.23763345181941986, -4.413070201873779, 0.050088152289390564
15035, 0.0698305144906044, -0.08497237414121628, 0.07593438029289246, -0.07024300843477249, -0.038987092673778534, -0.04465925320982933, -0.0020496987272053957, -0.0035108705051243305, 0.9980043768882751, -0.23772591352462769, -4.420651435852051, 0.05014508590102196, 0.0, 0.0, 0.0, 0, 0, 0, 0, 0, 0, -0.23772591352462769, -4.420651435852051, 0.05014508590102196
15045, 0.06914157420396805, -0.08361008018255234, 0.07609160244464874, 0.05484555661678314, -0.13365039229393005, 0.05285010486841202, 0.0003275706258136779, -0.006042078137397766, 1.0000087022781372, -0.2378181517124176, -4.4282379150390625, 0.05020119994878769, 0.0, 0.0, 0.0, 0, 0, 0, 0, 0, 0, -0.2378181517124176, -4.4282379150390625, 0.05020119994878769
15055, 0.0686248317360878, -0.08274029940366745, 0.07551133632659912, -0.04789022356271744, -0.0886709913611412, 0.1448802351951599, -0.0011462022084742785, -0.005827068816870451, 0.9995636940002441, -0.23790942132472992, -4.435830593109131, 0.05025678873062134, 0.0, 0.0, 0.0, 0, 0, 0, 0, 0, 0, -0.23790942132472992, -4.435830593109131, 0.05025678873062134
15065, 0.06794533133506775, -0.08304236084222794, 0.07610033452510834, 0.0794239193201065, 0.0814758688211441, 0.19558949768543243, -0.003815567586570978, -0.005237393081188202, 0.9990033507347107, -0.23800042271614075, -4.443429946899414, 0.050312068313360214, 0.0, 0.0, 0.0, 0, 0, 0, 0, 0, 0, -0.23800042271614075, -4.443429946899414, 0.050312068313360214
15075, 0.06811875849962234, -0.08397166430950165, 0.0774562656879425, -0.01782103069126606, -0.06186659261584282, -0.027174631133675575, -0.0002270093245897442, -0.004903392866253853, 0.9988402128219604, -0.23809245228767395, -4.451035976409912, 0.050366319715976715, 0.0, 0.0, 0.0, 0, 0, 0, 0, 0, 0, -0.23809245228767395, -4.451035976409912, 0.050366319715976715
15085, 0.06837708503007889, -0.08431742340326309, 0.07747312635183334, 0.0038665703032165766, 0.15453468263149261, -0.1109863817691803, -6.439517892431468e-05, -0.004981439560651779, 0.9979417324066162, -0.23818440735340118, -4.458648204803467, 0.05041929706931114, 0.0, 0.0, 0.0, 0, 0, 0, 0, 0, 0, -0.23818440735340118, -4.458648204803467, 0.05041929706931114
15095, 0.06810741871595383, -0.08246605098247528, 0.07693779468536377, 0.23610720038414001, -0.20448970794677734, 0.0860988199710846, -5.388204590417445e-05, -0.006352859083563089, 0.9996367692947388, -0.23827484250068665, -4.46626615524292, 0.05047097057104111, 0.0, 0.0, 0.0, 0, 0, 0, 0, 0, 0, -0.23827484250068665, -4.46626615524292, 0.05047097057104111
15105, 0.06796644628047943, -0.08323154598474503, 0.07686339318752289, 0.012110288254916668, 0.12090378999710083, -0.12669089436531067, 6.183483492350206e-05, -0.007845875807106495, 0.9982810020446777, -0.23836374282836914, -4.473891258239746, 0.05052164942026138, 0.0, 0.0, 0.0, 0, 0, 0, 0, 0, 0, -0.23836374282836914, -4.473891258239746, 0.05052164942026138
15115, 0.0675760954618454, -0.08315078914165497, 0.07654719054698944, 0.07756620645523071, 0.07343622297048569, 0.3303162455558777, -0.00017992741777561605, -0.006552809849381447, 0.9983590841293335, -0.238451287150383, -4.48152494430542, 0.05057106912136078, 0.0, 0.0, 0.0, 0, 0, 0, 0, 0, 0, -0.238451287150383, -4.48152494430542, 0.05057106912136078
15125, 0.06701928377151489, -0.08333297818899155, 0.0779450535774231, -0.05329042300581932, 0.0511225089430809, 0.07085919380187988, -0.0008808091515675187, -0.005723760463297367, 0.9999662041664124, -0.23853759467601776, -4.489166259765625, 0.05061906576156616, 0.0, 0.0, 0.0, 0, 0, 0, 0, 0, 0, -0.23853759467601776, -4.489166259765625, 0.05061906576156616
15135, 0.0677902102470398, -0.08226209133863449, 0.0772014781832695, 0.15276920795440674, 0.09090320020914078, -0.2607734501361847, -0.0008110040798783302, -0.006400671321898699, 1.0002739429473877, -0.2386230230331421, -4.496814727783203, 0.05066670849919319, 0.0, 0.0, 0.0, 0, 0, 0, 0, 0, 0, -0.2386230230331421, -4.496814727783203, 0.05066670849919319
15145, 0.06652848422527313, -0.08336660265922546, 0.07746638357639313, -0.09857313334941864, -0.23233142495155334, 0.13664652407169342, -0.00018850574269890785, -0.00586243299767375, 0.9991227984428406, -0.23871596157550812, -4.505236625671387, 0.0507192499935627, 0.0, 0.0, 0.0, 0, 0, 0, 0, 0, 0, -0.23871596157550812, -4.505236625671387, 0.0507192499935627
15155, 0.06660901755094528, -0.0827258825302124, 0.07738588750362396, -0.06066484376788139, -0.12887096405029297, -0.2653408944606781, -0.0015268208226189017, -0.005357779562473297, 0.9997288584709167, -0.23871596157550812, -4.505236625671387, 0.0507192499935627, 0.0, 0.0, 0.0, 0, 0, 0, 0, 0, 0, -0.23879964649677277, -4.512899875640869, 0.05076657980680466
15165, 0.06620989739894867, -0.08132282644510269, 0.0769963413476944, 0.03448496013879776, -0.35107406973838806, -0.21769200265407562, -0.000735536334104836, -0.004650556948035955, 1.0008996725082397, -0.23888294398784637, -4.520569324493408, 0.05081408843398094, 0.0, 0.0, 0.0, 0, 0, 0, 0, 0, 0, -0.23888294398784637, -4.520569324493408, 0.05081408843398094
15175, 0.06604708731174469, -0.08033150434494019, 0.07627697288990021, -0.08396691083908081, -0.3124541938304901, 0.2267163097858429, -0.0024004727602005005, -0.007467405870556831, 1.001720666885376, -0.23888294398784637, -4.520569324493408, 0.05081408843398094, 0.0, 0.0, 0.0, 0, 0, 0, 0, 0, 0, -0.23896612226963043, -4.528244972229004, 0.05086253210902214
15185, 0.06460441648960114, -0.07913800328969955, 0.07599378377199173, -0.08829694241285324, -0.029674401506781578, -0.13527102768421173, -0.0019248472526669502, -0.008047166280448437, 1.0013206005096436, -0.23904989659786224, -4.535928726196289, 0.05091241002082825, 0.0, 0.0, 0.0, 0, 0, 0, 0, 0, 0, -0.23904989659786224, -4.535928726196289, 0.05091241002082825
15195, 0.06386491656303406, -0.0800328329205513, 0.07572709023952484, -0.10731838643550873, 0.16237428784370422, 0.09061581641435623, -0.0005110548227094114, -0.0040457225404679775, 0.9996629953384399, -0.23904989659786224, -4.535928726196289, 0.05091241002082825, 0.0, 0.0, 0.0, 0, 0, 0, 0, 0, 0, -0.23913410305976868, -4.5436201095581055, 0.05096355453133583
15205, 0.06396284699440002, -0.07918890565633774, 0.07585720717906952, -0.026813430711627007, -0.06620418280363083, 0.10835358500480652, -0.0015490229707211256, -0.0030743118841201067, 0.9989413022994995, -0.23913410305976868, -4.5436201095581055, 0.05096355453133583, 0.0, 0.0, 0.0, 0, 0, 0, 0, 0, 0, -0.23921802639961243, -4.5513176918029785, 0.05101444199681282
15215, 0.06415735185146332, -0.07903111726045609, 0.07625000923871994, 0.1218942329287529, 0.022580213844776154, 0.13388307392597198, -0.0013243018183857203, -0.004844133276492357, 1.000983476638794, -0.23921802639961243, -4.5513176918029785, 0.05101444199681282, 0.0, 0.0, 0.0, 0, 0, 0, 0, 0, 0, -0.23930975794792175, -4.55979061126709, 0.05107000842690468
15225, 0.06371086835861206, -0.08109740167856216, 0.07729961723089218, -0.019511697813868523, 0.2535320818424225, -0.001978735439479351, -0.0008251303224824369, -0.006481250282377005, 1.0014874935150146, -0.23930975794792175, -4.55979061126709, 0.05107000842690468, 0.0, 0.0, 0.0, 0, 0, 0, 0, 0, 0, -0.23940101265907288, -4.568270206451416, 0.05112670361995697
15235, 0.06458660215139389, -0.08072888106107712, 0.0787585899233818, 0.1940537989139557, -0.07634738832712173, 0.13973158597946167, -0.000308478920487687, -0.00574901606887579, 1.0003944635391235, -0.23940101265907288, -4.568270206451416, 0.05112670361995697, 0.0, 0.0, 0.0, 0, 0, 0, 0, 0, 0, -0.2394832968711853, -4.575986385345459, 0.051179490983486176
15245, 0.06351195275783539, -0.07871565967798233, 0.0782739594578743, -0.06771023571491241, -0.3792189955711365, -0.025629693642258644, -0.0006062899483367801, -0.006057578604668379, 1.0012285709381104, -0.2394832968711853, -4.575986385345459, 0.051179490983486176, 0.0, 0.0, 0.0, 0, 0, 0, 0, 0, 0, -0.23956455290317535, -4.583709239959717, 0.051233094185590744
15255, 0.06413474678993225, -0.07871159166097641, 0.07861224561929703, 0.12284369021654129, -0.03248929977416992, 0.22642748057842255, -0.0003837220137938857, -0.005660909693688154, 1.000035285949707, -0.23956455290317535, -4.583709239959717, 0.051233094185590744, 0.0, 0.0, 0.0, 0, 0, 0, 0, 0, 0, -0.23964489996433258, -4.591439247131348, 0.051287341862916946
15265, 0.06370394676923752, -0.07885667681694031, 0.07770668715238571, -0.08676572889089584, 0.18959328532218933, 0.09470084309577942, 0.0004555945051833987, -0.0032468352001160383, 0.9995575547218323, -0.23964489996433258, -4.591439247131348, 0.051287341862916946, 0.0, 0.0, 0.0, 0, 0, 0, 0, 0, 0, -0.23972392082214355, -4.599174976348877, 0.0513417012989521
15275, 0.06411708146333694, -0.07790350914001465, 0.07687029987573624, -0.12519288063049316, -0.003314259694889188, -0.1595798134803772, -0.00329150864854455, -0.006188822910189629, 0.998497486114502, -0.23972392082214355, -4.599174976348877, 0.0513417012989521, 0.0, 0.0, 0.0, 0, 0, 0, 0, 0, 0, -0.2398025095462799, -4.606916427612305, 0.05139540135860443
15285, 0.06562506407499313, -0.07562059164047241, 0.0785488486289978, 0.21466369926929474, -0.3731253147125244, 0.20334100723266602, -0.0023860796354711056, -0.005404585041105747, 0.9993048310279846, -0.2398025095462799, -4.606916427612305, 0.05139540135860443, 0.0, 0.0, 0.0, 0, 0, 0, 0, 0, 0, -0.23988226056098938, -4.614664554595947, 0.0514480397105217
15295, 0.06579690426588058, -0.07517381757497787, 0.079897940158844, 0.010645928792655468, -0.07262423634529114, 0.21477621793746948, 0.0001524138788226992, -0.00594703946262598, 0.9991084337234497, -0.23988226056098938, -4.614664554595947, 0.0514480397105217, 0.0, 0.0, 0.0, 0, 0, 0, 0, 0, 0, -0.2399623543024063, -4.622419357299805, 0.051499899476766586
15305, 0.0660448968410492, -0.07391437143087387, 0.0800192579627037, -0.015055617317557335, -0.1915951818227768, 0.19084049761295319, -0.001322094351053238, -0.007662699557840824, 0.9974455237388611, -0.2399623543024063, -4.622419357299805, 0.051499899476766586, 0.0, 0.0, 0.0, 0, 0, 0, 0, 0, 0, -0.2400418072938919, -4.630181789398193, 0.051550351083278656
15315, 0.0649944543838501, -0.07632549852132797, 0.0795578882098198, -0.0175536647439003, 0.3391188979148865, -0.06481127440929413, -0.0002039100945694372, -0.006898908410221338, 0.9976152777671814, -0.2400418072938919, -4.630181789398193, 0.051550351083278656, 0.0, 0.0, 0.0, 0, 0, 0, 0, 0, 0, -0.2401207983493805, -4.6379523277282715, 0.05159858241677284
15325, 0.0647868886590004, -0.07723621279001236, 0.0794302225112915, -0.05589620769023895, 0.10243368148803711, 0.13002903759479523, -0.0010193410562351346, -0.006183958146721125, 0.9989129900932312, -0.2401207983493805, -4.6379523277282715, 0.05159858241677284, 0.0, 0.0, 0.0, 0, 0, 0, 0, 0, 0, -0.24019914865493774, -4.645730495452881, 0.05164496973156929
15335, 0.06493738293647766, -0.07699576765298843, 0.07925458997488022, 0.06356373429298401, -0.20966006815433502, -0.041180189698934555, -0.0012747152941301465, -0.004833792336285114, 0.9993364214897156, -0.24019914865493774, -4.645730495452881, 0.05164496973156929, 0.0, 0.0, 0.0, 0, 0, 0, 0, 0, 0, -0.24027705192565918, -4.653515815734863, 0.05169033259153366
15345, 0.06483061611652374, -0.07558368891477585, 0.0779811292886734, 0.05922997370362282, -0.20913028717041016, -0.04789697751402855, 0.0003322704287711531, -0.006505751516669989, 1.0003950595855713, -0.24027705192565918, -4.653515815734863, 0.05169033259153366, 0.0, 0.0, 0.0, 0, 0, 0, 0, 0, 0, -0.24035419523715973, -4.661307334899902, 0.05173541232943535
15355, 0.06336107105016708, -0.07673786580562592, 0.07724892348051071, -0.12135817110538483, 0.18839627504348755, -0.0863637924194336, -0.0013467440148815513, -0.007290899287909269, 0.9992015361785889, -0.24035419523715973, -4.661307334899902, 0.05173541232943535, 0.0, 0.0, 0.0, 0, 0, 0, 0, 0, 0, -0.240430548787117, -4.669106483459473, 0.051780302077531815
15365, 0.06318541616201401, -0.07850848138332367, 0.07768891006708145, 0.06873095035552979, 0.1272863745689392, 0.1417456865310669, -0.0004460271738935262, -0.005542111583054066, 0.9964446425437927, -0.240430548787117, -4.669106483459473, 0.051780302077531815, 0.0, 0.0, 0.0, 0, 0, 0, 0, 0, 0, -0.24050652980804443, -4.676913261413574, 0.05182356387376785
15375, 0.06302200257778168, -0.07671259343624115, 0.0769629180431366, 0.060139525681734085, -0.3195990025997162, 0.029164856299757957, -0.002518453635275364, -0.006235569715499878, 0.9981735944747925, -0.24050652980804443, -4.676913261413574, 0.05182356387376785, 0.0, 0.0, 0.0, 0, 0, 0, 0, 0, 0, -0.24058251082897186, -4.684727191925049, 0.05186393857002258
15385, 0.06410404294729233, -0.07605700939893723, 0.0774361789226532, 0.12041869014501572, 0.10871589928865433, 0.3219420313835144, 0.0002290940610691905, -0.003795997239649296, 1.0003132820129395, -0.24058251082897186, -4.684727191925049, 0.05186393857002258, 0.0, 0.0, 0.0, 0, 0, 0, 0, 0, 0, -0.24065819382667542, -4.692547798156738, 0.051902830600738525
15395, 0.06454888731241226, -0.07729414105415344, 0.07688945531845093, 0.07940617203712463, 0.07692781090736389, -0.12207121402025223, 0.0009822339052334428, -0.0036803369875997305, 0.9994853138923645, -0.24065819382667542, -4.692547798156738, 0.051902830600738525, 0.0, 0.0, 0.0, 0, 0, 0, 0, 0, 0, -0.24073229730129242, -4.700373649597168, 0.051941558718681335
15405, 0.0644419938325882, -0.07762578874826431, 0.07644186913967133, 0.00739835761487484, 0.010822565294802189, 0.11006426811218262, -0.0011755165178328753, -0.0047862837091088295, 0.9993493556976318, -0.24073229730129242, -4.700373649597168, 0.051941558718681335, 0.0, 0.0, 0.0, 0, 0, 0, 0, 0, 0, -0.2408052235841751, -4.70820426940918, 0.051979899406433105
15415, 0.06444773077964783, -0.07765255123376846, 0.07632961124181747, 0.053268272429704666, -0.019618796184659004, 0.034182339906692505, -0.0016722881700843573, -0.0077667138539254665, 0.9995393753051758, -0.2408052235841751, -4.70820426940918, 0.051979899406433105, 0.0, 0.0, 0.0, 0, 0, 0, 0, 0, 0, -0.24087822437286377, -4.716041564941406, 0.05201781913638115
15425, 0.06486400961875916, -0.07817672938108444, 0.0761437714099884, 0.0643409863114357, 0.2092023342847824, -0.04293511435389519, -0.0012308747973293066, -0.0072186971083283424, 1.0018144845962524, -0.24087822437286377, -4.716041564941406, 0.05201781913638115, 0.0, 0.0, 0.0, 0, 0, 0, 0, 0, 0, -0.24095140397548676, -4.723886966705322, 0.05205626040697098
15435, 0.06435786187648773, -0.08068057149648666, 0.07477293163537979, 0.013471513986587524, 0.3438567817211151, -0.2407565712928772, -0.0021590013056993484, -0.007987258955836296, 0.9992524981498718, -0.24095140397548676, -4.723886966705322, 0.05205626040697098, 0.0, 0.0, 0.0, 0, 0, 0, 0, 0, 0, -0.24102483689785004, -4.731740951538086, 0.0520952008664608
15445, 0.06462161988019943, -0.08077134191989899, 0.07473751902580261, 0.12273498624563217, -0.11643429100513458, 0.03783604875206947, -0.0028410095255821943, -0.005832768976688385, 1.0027316808700562, -0.24102483689785004, -4.731740951538086, 0.0520952008664608, 0.0, 0.0, 0.0, 0, 0, 0, 0, 0, 0, -0.24109923839569092, -4.739603042602539, 0.05213494971394539
15455, 0.06429765373468399, -0.08156036585569382, 0.07419705390930176, -0.03634105622768402, 0.14487726986408234, -0.0630960762500763, -0.0009707759018056095, -0.0034009215887635946, 1.0007169246673584, -0.24109923839569092, -4.739603042602539, 0.05213494971394539, 0.0, 0.0, 0.0, 0, 0, 0, 0, 0, 0, -0.24117417633533478, -4.747471332550049, 0.05217616260051727
15465, 0.06457514315843582, -0.08303642272949219, 0.07378340512514114, -0.046488337218761444, 0.19487117230892181, -0.1261351853609085, 0.0002398533106315881, -0.006365146022289991, 1.0010716915130615, -0.24117417633533478, -4.747471332550049, 0.05217616260051727, 0.0, 0.0, 0.0, 0, 0, 0, 0, 0, 0, -0.2412482649087906, -4.755345344543457, 0.052218131721019745
15475, 0.06344606727361679, -0.08234798163175583, 0.07345855981111526, -0.22175146639347076, -0.11587556451559067, 0.029232438653707504, 0.0014312842395156622, -0.006757021881639957, 1.0002464056015015, -0.2412482649087906, -4.755345344543457, 0.052218131721019745, 0.0, 0.0, 0.0, 0, 0, 0, 0, 0, 0, -0.24132035672664642, -4.763226509094238, 0.05226079374551773
15485, 0.06395334005355835, -0.08459065109491348, 0.0737111046910286, 0.0608757846057415, 0.23963558673858643, 0.09000273048877716, -0.0010424369247630239, -0.006273902952671051, 0.9994897246360779, -0.24132035672664642, -4.763226509094238, 0.05226079374551773, 0.0, 0.0, 0.0, 0, 0, 0, 0, 0, 0, -0.24139054119586945, -4.771115303039551, 0.052303727716207504
15495, 0.0639582946896553, -0.08518318086862564, 0.07367409765720367, -0.01655634306371212, -0.10975206643342972, -0.0907844826579094, -0.0029201062861829996, -0.006717382930219173, 1.0010286569595337, -0.24139054119586945, -4.771115303039551, 0.052303727716207504, 0.0, 0.0, 0.0, 0, 0, 0, 0, 0, 0, -0.24146103858947754, -4.779011249542236, 0.052346713840961456
15505, 0.06422054767608643, -0.08408114314079285, 0.07363969087600708, -0.03852199763059616, -0.1016029343008995, -0.058047741651535034, -0.001076672924682498, -0.00483336579054594, 1.000732660293579, -0.24146103858947754, -4.779011249542236, 0.052346713840961456, 0.0, 0.0, 0.0, 0, 0, 0, 0, 0, 0, -0.24153250455856323, -4.786914348602295, 0.05239007622003555
15515, 0.063177190721035, -0.08341124653816223, 0.0739053413271904, -0.13499879837036133, -0.05663587898015976, 0.02282419614493847, -0.0018235476454719901, -0.005325708072632551, 1.0005027055740356, -0.24153250455856323, -4.786914348602295, 0.05239007622003555, 0.0, 0.0, 0.0, 0, 0, 0, 0, 0, 0, -0.2416037917137146, -4.794823169708252, 0.052433960139751434
15525, 0.06430917233228683, -0.0836980938911438, 0.07538386434316635, 0.17793940007686615, 0.045682959258556366, 0.15063078701496124, -0.002352943876758218, -0.005741120781749487, 0.9994856119155884, -0.2416037917137146, -4.794823169708252, 0.052433960139751434, 0.0, 0.0, 0.0, 0, 0, 0, 0, 0, 0, -0.24167555570602417, -4.802738666534424, 0.0524778813123703
15535, 0.06289070099592209, -0.08605192601680756, 0.07511384040117264, -0.01665131002664566, 0.21502746641635895, -0.03493807464838028, -0.003063553711399436, -0.0060292379930615425, 0.9987172484397888, -0.24167555570602417, -4.802738666534424, 0.0524778813123703, 0.0, 0.0, 0.0, 0, 0, 0, 0, 0, 0, -0.2417486011981964, -4.8106608390808105, 0.05252108722925186
15545, 0.06247637793421745, -0.08697670698165894, 0.07488490641117096, 0.015330479480326176, 0.020731329917907715, 0.0515369176864624, 0.00016436248552054167, -0.004399455618113279, 0.9996271133422852, -0.2417486011981964, -4.8106608390808105, 0.05252108722925186, 0.0, 0.0, 0.0, 0, 0, 0, 0, 0, 0, -0.24182191491127014, -4.818589687347412, 0.052563440054655075
15555, 0.061394933611154556, -0.08812183141708374, 0.07440587878227234, -0.02508654072880745, 0.13166692852973938, 0.009018953889608383, -0.0007664661388844252, -0.00350815593264997, 0.9993353486061096, -0.24182191491127014, -4.818589687347412, 0.052563440054655075, 0.0, 0.0, 0.0, 0, 0, 0, 0, 0, 0, -0.2418944239616394, -4.826523780822754, 0.05260513350367546
15565, 0.060038819909095764, -0.08763961493968964, 0.07434454560279846, -0.21913692355155945, -0.04145539924502373, -0.02275388315320015, -0.0008856105268932879, -0.006738335359841585, 1.0011682510375977, -0.2418944239616394, -4.826523780822754, 0.05260513350367546, 0.0, 0.0, 0.0, 0, 0, 0, 0, 0, 0, -0.24196629226207733, -4.834463596343994, 0.0526469461619854
15575, 0.05980107933282852, -0.08942575752735138, 0.07446461170911789, -0.1094202846288681, 0.21893587708473206, 0.07398762553930283, -0.0022217233199626207, -0.005834975279867649, 1.0016508102416992, -0.24196629226207733, -4.834463596343994, 0.0526469461619854, 0.0, 0.0, 0.0, 0, 0, 0, 0, 0, 0, -0.24203801155090332, -4.842410564422607, 0.052689988166093826
15585, 0.05930805578827858, -0.08871249109506607, 0.07350388914346695, -0.10052737593650818, -0.06469450891017914, -0.12837456166744232, -0.0017576501704752445, -0.006256189197301865, 0.99949049949646, -0.24203801155090332, -4.842410564422607, 0.052689988166093826, 0.0, 0.0, 0.0, 0, 0, 0, 0, 0, 0, -0.242110013961792, -4.8503642082214355, 0.05273400992155075
15595, 0.06046442687511444, -0.08633781224489212, 0.0753423199057579, 0.13683028519153595, -0.308910995721817, 0.1839701235294342, -0.0007193897617980838, -0.005647127982228994, 0.9999271035194397, -0.242110013961792, -4.8503642082214355, 0.05273400992155075, 0.0, 0.0, 0.0, 0, 0, 0, 0, 0, 0, -0.2421819567680359, -4.8583245277404785, 0.05277802422642708
15605, 0.06204722821712494, -0.08615469932556152, 0.07670809328556061, 0.16617843508720398, 0.0798286572098732, 0.10073520988225937, -0.0021693166345357895, -0.00489549245685339, 1.0004295110702515, -0.2421819567680359, -4.8583245277404785, 0.05277802422642708, 0.0, 0.0, 0.0, 0, 0, 0, 0, 0, 0, -0.2422538548707962, -4.866291522979736, 0.05282209813594818
15615, 0.06187351420521736, -0.08719426393508911, 0.0758204460144043, -0.06275881081819534, 0.1476716846227646, -0.08890687674283981, -0.000426207174314186, -0.007740012835711241, 0.9992309808731079, -0.2422538548707962, -4.866291522979736, 0.05282209813594818, 0.0, 0.0, 0.0, 0, 0, 0, 0, 0, 0, -0.24232563376426697, -4.874265193939209, 0.05286626145243645
15625, 0.06103536859154701, -0.08743146806955338, 0.07552763819694519, -0.08897873014211655, 0.07656103372573853, -0.03520958870649338, -0.0008653782424516976, -0.007678553927689791, 1.001295804977417, -0.24232563376426697, -4.874265193939209, 0.05286626145243645, 0.0, 0.0, 0.0, 0, 0, 0, 0, 0, 0, -0.24239669740200043, -4.882247447967529, 0.05291060358285904
