timeTick, roll, pitch, yaw, gyroX, gyroY, gyroZ, accX, accY, accZ, stateX, stateY, stateZ, target_x, target_y, target_z, otX, otY, otZ, otRoll, otPitch, otYaw, kalX, kalY, kalZ
338918, 0.08211173862218857, -0.08067318052053452, 0.07435005158185959, 0, 0, 0, 0, 0, 0, 0, 0, 0, 0, 0, 0, 0, 0, 0, 0, 0, 0, 0, 0, 0
338928, 0.08199965953826904, -0.07841568440198898, 0.07452902942895889, -0.03593473881483078, -0.2633858621120453, -0.031070781871676445, 0.0489446260035038, -0.003149265656247735, 0.9985442161560059, 31.051177978515625, -1.8834048509597778, -1.208136796951294, 0.0, 0.0, 0.0, 0, 0, 0, 0, 0, 0, 31.051177978515625, -1.8834048509597778, -1.208136796951294
338938, 0.08178995549678802, -0.0784599632024765, 0.0748138427734375, -0.021999580785632133, 0.013624808751046658, 0.1140587329864502, 0.04952287673950195, -0.001750841038301587, 0.9968323707580566, 31.106063842773438, -1.8869211673736572, -1.2102700471878052, 0.0, 0.0, 0.0, 0, 0, 0, 0, 0, 0, 31.106063842773438, -1.8869211673736572, -1.2102700471878052
338948, 0.08210151642560959, -0.08012890815734863, 0.07494085282087326, -0.011270866729319096, 0.14803308248519897, 0.06003300100564957, 0.04889213293790817, -0.0036980407312512398, 0.9957615733146667, 31.160999298095703, -1.8904411792755127, -1.212405800819397, 0.0, 0.0, 0.0, 0, 0, 0, 0, 0, 0, 31.160999298095703, -1.8904411792755127, -1.212405800819397
338958, 0.08277880400419235, -0.08057783544063568, 0.07452207058668137, 0.07041177898645401, 0.05765001103281975, -0.19809623062610626, 0.04837386682629585, -0.0028843721374869347, 0.997393012046814, 31.215984344482422, -1.8939653635025024, -1.2145452499389648, 0.0, 0.0, 0.0, 0, 0, 0, 0, 0, 0, 31.215984344482422, -1.8939653635025024, -1.2145452499389648
338968, 0.08169391006231308, -0.07889408618211746, 0.07509288936853409, -0.20038171112537384, -0.13174688816070557, 0.10120345652103424, 0.048511896282434464, -0.002613592427223921, 0.9983001351356506, 31.271018981933594, -1.8974943161010742, -1.2166879177093506, 0.0, 0.0, 0.0, 0, 0, 0, 0, 0, 0, 31.271018981933594, -1.8974943161010742, -1.2166879177093506
338978, 0.08237464725971222, -0.07831282913684845, 0.07484090328216553, 0.03771679103374481, -0.10249253362417221, -0.13710275292396545, 0.04746313393115997, -0.002640791004523635, 0.9973709583282471, 31.32610321044922, -1.9010274410247803, -1.2188327312469482, 0.0, 0.0, 0.0, 0, 0, 0, 0, 0, 0, 31.32610321044922, -1.9010274410247803, -1.2188327312469482
338988, 0.08321022987365723, -0.08020731061697006, 0.07537318021059036, -0.01967073790729046, 0.17717725038528442, 0.006252392660826445, 0.04877640679478645, -0.0020719997119158506, 0.9985952377319336, 31.381235122680664, -1.9045644998550415, -1.2209794521331787, 0.0, 0.0, 0.0, 0, 0, 0, 0, 0, 0, 31.381235122680664, -1.9045644998550415, -1.2209794521331787
338998, 0.08331262320280075, -0.07777144014835358, 0.07321719825267792, 0.017216747626662254, -0.18727032840251923, -0.22013038396835327, 0.048834428191185, -0.001941890106536448, 0.9960218667984009, 31.436416625976562, -1.9081051349639893, -1.223128080368042, 0.0, 0.0, 0.0, 0, 0, 0, 0, 0, 0, 31.436416625976562, -1.9081051349639893, -1.223128080368042
339008, 0.08459677547216415, -0.07787013053894043, 0.07409289479255676, 0.20146922767162323, 0.04639760032296181, 0.07699278742074966, 0.04728497564792633, -0.0012456363765522838, 0.9975117444992065, 31.49164581298828, -1.9116491079330444, -1.2252793312072754, 0.0, 0.0, 0.0, 0, 0, 0, 0, 0, 0, 31.49164581298828, -1.9116491079330444, -1.2252793312072754
339018, 0.08463285118341446, -0.07637161016464233, 0.07351437211036682, -0.029551560059189796, -0.24538961052894592, -0.12050752341747284, 0.04898644611239433, 0.0008487961604259908, 0.9967477321624756, 31.546924591064453, -1.9151959419250488, -1.227433681488037, 0.0, 0.0, 0.0, 0, 0, 0, 0, 0, 0, 31.546924591064453, -1.9151959419250488, -1.227433681488037
339028, 0.08437679708003998, -0.0765158161520958, 0.07401926070451736, -0.03841540589928627, 0.10410080850124359, 0.05947141349315643, 0.04712420329451561, -0.001365689910016954, 0.9976872801780701, 31.602251052856445, -1.9187445640563965, -1.2295910120010376, 0.0, 0.0, 0.0, 0, 0, 0, 0, 0, 0, 31.602251052856445, -1.9187445640563965, -1.2295910120010376
339038, 0.08365985751152039, -0.07729237526655197, 0.07430647313594818, -0.06783201545476913, 0.0911574736237526, 0.10745469480752945, 0.04918286204338074, 0.00011011034075636417, 1.000304102897644, 31.65762710571289, -1.9222949743270874, -1.2317509651184082, 0.0, 0.0, 0.0, 0, 0, 0, 0, 0, 0, 31.65762710571289, -1.9222949743270874, -1.2317509651184082
339048, 0.08463212847709656, -0.0764307901263237, 0.07337375730276108, 0.19067955017089844, 0.04837736114859581, 0.038836006075143814, 0.04688434675335884, -0.0018798214150592685, 0.9979321360588074, 31.713050842285156, -1.9258471727371216, -1.2339119911193848, 0.0, 0.0, 0.0, 0, 0, 0, 0, 0, 0, 31.713050842285156, -1.9258471727371216, -1.2339119911193848
339058, 0.0847540944814682, -0.0757078155875206, 0.07219872623682022, -0.0028938024770468473, -0.21755225956439972, -0.055460017174482346, 0.046797528862953186, -0.0028000667225569487, 0.9976621866226196, 31.768524169921875, -1.9294018745422363, -1.2360739707946777, 0.0, 0.0, 0.0, 0, 0, 0, 0, 0, 0, 31.768524169921875, -1.9294018745422363, -1.2360739707946777
339068, 0.08408375084400177, -0.07633413374423981, 0.07181783765554428, -0.06316757202148438, 0.17096760869026184, 0.019973434507846832, 0.04711207374930382, -0.003055362496525049, 0.9973899722099304, 31.82404327392578, -1.9329602718353271, -1.2382380962371826, 0.0, 0.0, 0.0, 0, 0, 0, 0, 0, 0, 31.82404327392578, -1.9329602718353271, -1.2382380962371826
339078, 0.08392523974180222, -0.0752851665019989, 0.074032723903656, -0.07791109383106232, -0.0350944921374321, 0.2801141142845154, 0.049556925892829895, -0.00345697533339262, 0.9991335272789001, 31.879610061645508, -1.9365229606628418, -1.240404486656189, 0.0, 0.0, 0.0, 0, 0, 0, 0, 0, 0, 31.879610061645508, -1.9365229606628418, -1.240404486656189
339088, 0.08400093764066696, -0.07311581820249557, 0.07343391329050064, -0.05744612589478493, -0.23638536036014557, -0.005814478732645512, 0.05114569514989853, -0.0036890271585434675, 0.9973528385162354, 31.935226440429688, -1.940090298652649, -1.242572546005249, 0.0, 0.0, 0.0, 0, 0, 0, 0, 0, 0, 31.935226440429688, -1.940090298652649, -1.242572546005249
339098, 0.08367998152971268, -0.07246049493551254, 0.07212202996015549, -0.05996691435575485, -0.017154613509774208, -0.1711982935667038, 0.05159791186451912, -0.002369852038100362, 0.9973334670066833, 31.99089241027832, -1.9436625242233276, -1.2447423934936523, 0.0, 0.0, 0.0, 0, 0, 0, 0, 0, 0, 31.99089241027832, -1.9436625242233276, -1.2447423934936523
339108, 0.08357378095388412, -0.07384832203388214, 0.07173823565244675, -0.07372338324785233, 0.17067620158195496, 0.014099773950874805, 0.04857549071311951, -0.0026467053685337305, 0.9963408708572388, 32.04661178588867, -1.9472391605377197, -1.2469147443771362, 0.0, 0.0, 0.0, 0, 0, 0, 0, 0, 0, 32.04661178588867, -1.9472391605377197, -1.2469147443771362
339118, 0.08344383537769318, -0.07298094779253006, 0.07235097140073776, 0.07536765933036804, -0.16166147589683533, 0.1610834151506424, 0.047560568898916245, -0.004690247587859631, 0.9976117610931396, 32.102378845214844, -1.9508198499679565, -1.2490901947021484, 0.0, 0.0, 0.0, 0, 0, 0, 0, 0, 0, 32.102378845214844, -1.9508198499679565, -1.2490901947021484
339128, 0.08304019272327423, -0.07465215772390366, 0.07149054855108261, -0.0682707130908966, 0.11461798846721649, -0.13641688227653503, 0.047172583639621735, -0.0019416895229369402, 0.9973578453063965, 32.15819549560547, -1.9544055461883545, -1.2512685060501099, 0.0, 0.0, 0.0, 0, 0, 0, 0, 0, 0, 32.15819549560547, -1.9544055461883545, -1.2512685060501099
339138, 0.08295555412769318, -0.07629399746656418, 0.07117334753274918, -0.011894701048731804, 0.18939416110515594, -0.10495573282241821, 0.04869246482849121, -0.0003819997946266085, 0.9980366230010986, 32.21406173706055, -1.9579956531524658, -1.2534490823745728, 0.0, 0.0, 0.0, 0, 0, 0, 0, 0, 0, 32.21406173706055, -1.9579956531524658, -1.2534490823745728
339148, 0.0823981910943985, -0.0769885703921318, 0.0707034021615982, -0.03694133460521698, 0.08467031270265579, 0.014951637014746666, 0.04897268861532211, -0.002214487176388502, 0.9990895390510559, 32.26997375488281, -1.9615883827209473, -1.2556318044662476, 0.0, 0.0, 0.0, 0, 0, 0, 0, 0, 0, 32.26997375488281, -1.9615883827209473, -1.2556318044662476
339158, 0.0809352919459343, -0.07700619101524353, 0.07086534053087234, -0.028054971247911453, -0.1435345709323883, 0.22055743634700775, 0.04906515032052994, -0.004993099719285965, 0.9983218312263489, 32.32593536376953, -1.9651840925216675, -1.2578160762786865, 0.0, 0.0, 0.0, 0, 0, 0, 0, 0, 0, 32.32593536376953, -1.9651840925216675, -1.2578160762786865
339168, 0.08096229285001755, -0.077516108751297, 0.07053129374980927, 0.06630200892686844, -0.1893160194158554, 0.05592089891433716, 0.04766277223825455, -0.00541112432256341, 0.9967383146286011, 32.3819465637207, -1.9687849283218384, -1.2600017786026, 0.0, 0.0, 0.0, 0, 0, 0, 0, 0, 0, 32.3819465637207, -1.9687849283218384, -1.2600017786026
339178, 0.08151032775640488, -0.07774259150028229, 0.07120693475008011, 0.1623888611793518, 0.004106640350073576, 0.12573333084583282, 0.04922562092542648, -0.004012078512459993, 0.9990932941436768, 32.43800735473633, -1.9723920822143555, -1.2621898651123047, 0.0, 0.0, 0.0, 0, 0, 0, 0, 0, 0, 32.43800735473633, -1.9723920822143555, -1.2621898651123047
339188, 0.08209013193845749, -0.0802970826625824, 0.07359911501407623, 0.02818114683032036, 0.3739287555217743, 0.35106638073921204, 0.046680137515068054, -0.0035350765101611614, 0.9983901381492615, 32.494117736816406, -1.97600519657135, -1.264379858970642, 0.0, 0.0, 0.0, 0, 0, 0, 0, 0, 0, 32.494117736816406, -1.97600519657135, -1.264379858970642
339198, 0.08225332945585251, -0.08099132031202316, 0.07533211261034012, 6.485443009296432e-05, -0.04969623312354088, 0.041781459003686905, 0.04928450658917427, -0.002871630946174264, 1.0004842281341553, 32.55027389526367, -1.9796234369277954, -1.2665709257125854, 0.0, 0.0, 0.0, 0, 0, 0, 0, 0, 0, 32.55027389526367, -1.9796234369277954, -1.2665709257125854
339208, 0.08256009221076965, -0.08094409853219986, 0.07545198500156403, 0.05902289226651192, -0.13728027045726776, -0.029099714010953903, 0.048046939074993134, -0.002314724028110504, 0.9971970915794373, 32.60647964477539, -1.9832459688186646, -1.268762469291687, 0.0, 0.0, 0.0, 0, 0, 0, 0, 0, 0, 32.60647964477539, -1.9832459688186646, -1.268762469291687
339218, 0.08092696219682693, -0.08168285340070724, 0.07487516850233078, -0.20526035130023956, 0.2969956696033478, 0.01409716997295618, 0.04723941907286644, -0.00210936670191586, 0.9982439279556274, 32.66273498535156, -1.9868720769882202, -1.2709548473358154, 0.0, 0.0, 0.0, 0, 0, 0, 0, 0, 0, 32.66273498535156, -1.9868720769882202, -1.2709548473358154
339228, 0.08033594489097595, -0.08172906190156937, 0.0745084285736084, -0.0775894746184349, 0.04123089835047722, 0.042936764657497406, 0.04680309072136879, -0.0031238435767591, 0.9969198107719421, 32.71903991699219, -1.9905016422271729, -1.2731492519378662, 0.0, 0.0, 0.0, 0, 0, 0, 0, 0, 0, 32.71903991699219, -1.9905016422271729, -1.2731492519378662
339238, 0.07992249727249146, -0.0792311504483223, 0.0742446556687355, 0.06936319917440414, -0.13566803932189941, 0.04521844536066055, 0.04656344652175903, -0.00019279999833088368, 0.9991820454597473, 32.775390625, -1.9941349029541016, -1.2753461599349976, 0.0, 0.0, 0.0, 0, 0, 0, 0, 0, 0, 32.775390625, -1.9941349029541016, -1.2753461599349976
339248, 0.08121053129434586, -0.07877470552921295, 0.07505054026842117, 0.261038213968277, 0.08365035057067871, 0.16583691537380219, 0.04885371774435043, -0.0006566564552485943, 1.000954031944275, 32.831787109375, -1.997771143913269, -1.2775448560714722, 0.0, 0.0, 0.0, 0, 0, 0, 0, 0, 0, 32.831787109375, -1.997771143913269, -1.2775448560714722
339258, 0.08074739575386047, -0.0798306092619896, 0.07472816854715347, 0.004783886019140482, 0.13651816546916962, 0.18410852551460266, 0.048214033246040344, -0.0011841986561194062, 1.000031590461731, 32.88823318481445, -2.0014092922210693, -1.2797435522079468, 0.0, 0.0, 0.0, 0, 0, 0, 0, 0, 0, 32.88823318481445, -2.0014092922210693, -1.2797435522079468
339268, 0.08022184669971466, -0.07836682349443436, 0.0743030458688736, 0.07467784732580185, -0.2751171588897705, 0.060686152428388596, 0.04951271787285805, -0.003104891162365675, 0.9992371201515198, 32.94472885131836, -2.005049705505371, -1.2819417715072632, 0.0, 0.0, 0.0, 0, 0, 0, 0, 0, 0, 32.94472885131836, -2.005049705505371, -1.2819417715072632
339278, 0.08001451194286346, -0.07888484746217728, 0.0751996785402298, 0.06504687666893005, 0.06734471023082733, 0.22721749544143677, 0.04847387969493866, -0.0010760631412267685, 0.9973243474960327, 33.00127410888672, -2.0086936950683594, -1.2841404676437378, 0.0, 0.0, 0.0, 0, 0, 0, 0, 0, 0, 33.00127410888672, -2.0086936950683594, -1.2841404676437378
339288, 0.07980968058109283, -0.07864758372306824, 0.07465357333421707, 0.10778773576021194, 0.07628282159566879, 0.09602712839841843, 0.04842288792133331, 0.0003066416538786143, 0.9971023201942444, 33.05786895751953, -2.012341022491455, -1.2863410711288452, 0.0, 0.0, 0.0, 0, 0, 0, 0, 0, 0, 33.05786895751953, -2.012341022491455, -1.2863410711288452
339298, 0.08003059029579163, -0.0793350338935852, 0.07387638092041016, 0.18890267610549927, 0.05848252773284912, -0.010455898940563202, 0.04720932990312576, -0.0035657817497849464, 0.998445451259613, 33.11450958251953, -2.0159902572631836, -1.2885444164276123, 0.0, 0.0, 0.0, 0, 0, 0, 0, 0, 0, 33.11450958251953, -2.0159902572631836, -1.2885444164276123
339308, 0.0804949551820755, -0.0798862874507904, 0.07339536398649216, 0.10088111460208893, 0.0682029277086258, 0.020812854170799255, 0.050218675285577774, -0.0041788253001868725, 0.9988207221031189, 33.171199798583984, -2.0196423530578613, -1.2907497882843018, 0.0, 0.0, 0.0, 0, 0, 0, 0, 0, 0, 33.171199798583984, -2.0196423530578613, -1.2907497882843018
339318, 0.0807088240981102, -0.07852236926555634, 0.07365752011537552, 0.09709613025188446, -0.2270243912935257, 0.09834697842597961, 0.048929911106824875, -0.0018881778232753277, 0.9976292252540588, 33.22793960571289, -2.0232996940612793, -1.2929565906524658, 0.0, 0.0, 0.0, 0, 0, 0, 0, 0, 0, 33.22793960571289, -2.0232996940612793, -1.2929565906524658
339328, 0.0808536633849144, -0.07788040488958359, 0.07530295103788376, 0.047558046877384186, -0.019391486421227455, 0.2566039562225342, 0.04683876037597656, -0.0004075604083482176, 0.9984670281410217, 33.28472900390625, -2.026961326599121, -1.2951653003692627, 0.0, 0.0, 0.0, 0, 0, 0, 0, 0, 0, 33.28472900390625, -2.026961326599121, -1.2951653003692627
339338, 0.08199502527713776, -0.07901737838983536, 0.07530056685209274, 0.16848058998584747, 0.368219256401062, -0.0029802443459630013, 0.05008378624916077, 0.00012310451711528003, 0.9991521239280701, 33.34156799316406, -2.030625343322754, -1.2973757982254028, 0.0, 0.0, 0.0, 0, 0, 0, 0, 0, 0, 33.34156799316406, -2.030625343322754, -1.2973757982254028
339348, 0.0832267627120018, -0.07697869837284088, 0.0758795514702797, 0.16099748015403748, -0.245669424533844, 0.048953067511320114, 0.050251614302396774, -0.003261601086705923, 0.9982818961143494, 33.39845275878906, -2.0342910289764404, -1.2995872497558594, 0.0, 0.0, 0.0, 0, 0, 0, 0, 0, 0, 33.39845275878906, -2.0342910289764404, -1.2995872497558594
339358, 0.08288998901844025, -0.07643065601587296, 0.07530701905488968, -0.10972673445940018, -0.02535860799252987, -0.13626070320606232, 0.049241676926612854, -0.003964846953749657, 0.9965757727622986, 33.45539093017578, -2.0379598140716553, -1.3017998933792114, 0.0, 0.0, 0.0, 0, 0, 0, 0, 0, 0, 33.45539093017578, -2.0379598140716553, -1.3017998933792114
339368, 0.08309759199619293, -0.07744227349758148, 0.07520236819982529, 0.01486277300864458, 0.13608825206756592, 0.05991904437541962, 0.04896276816725731, -0.0021068912465125322, 0.9949451088905334, 33.51237869262695, -2.041633367538452, -1.304015040397644, 0.0, 0.0, 0.0, 0, 0, 0, 0, 0, 0, 33.51237869262695, -2.041633367538452, -1.304015040397644
339378, 0.08374115824699402, -0.07702380418777466, 0.07459398359060287, 0.029884018003940582, -0.27265429496765137, -0.13100537657737732, 0.047640610486269, -0.002746944548562169, 0.9982869029045105, 33.56941604614258, -2.0453109741210938, -1.3062341213226318, 0.0, 0.0, 0.0, 0, 0, 0, 0, 0, 0, 33.56941604614258, -2.0453109741210938, -1.3062341213226318
339388, 0.08259980380535126, -0.07713738828897476, 0.07515155524015427, -0.20907413959503174, 0.058947883546352386, 0.09038959443569183, 0.04904242977499962, -0.0016568538267165422, 0.9996510148048401, 33.626502990722656, -2.048992395401001, -1.308456301689148, 0.0, 0.0, 0.0, 0, 0, 0, 0, 0, 0, 33.626502990722656, -2.048992395401001, -1.308456301689148
339398, 0.0821964368224144, -0.07732457667589188, 0.07610298693180084, -0.060492534190416336, -0.1595548391342163, 0.10795176774263382, 0.049226466566324234, -0.002086272230371833, 0.9989942312240601, 33.68363571166992, -2.0526773929595947, -1.3106796741485596, 0.0, 0.0, 0.0, 0, 0, 0, 0, 0, 0, 33.68363571166992, -2.0526773929595947, -1.3106796741485596
339408, 0.08305730670690536, -0.07756832987070084, 0.07704471796751022, 0.196794331073761, -0.061142146587371826, 0.02313775010406971, 0.048279933631420135, -0.0037544644437730312, 0.997774064540863, 33.74081802368164, -2.056365489959717, -1.3129037618637085, 0.0, 0.0, 0.0, 0, 0, 0, 0, 0, 0, 33.74081802368164, -2.056365489959717, -1.3129037618637085
339418, 0.08352664858102798, -0.07888475060462952, 0.07507386803627014, 0.15341098606586456, 0.2307857871055603, -0.29899320006370544, 0.04806622117757797, -0.0018796167569234967, 0.9980531334877014, 33.79804992675781, -2.0600576400756836, -1.3151293992996216, 0.0, 0.0, 0.0, 0, 0, 0, 0, 0, 0, 33.79804992675781, -2.0600576400756836, -1.3151293992996216
339428, 0.08377663791179657, -0.07976852357387543, 0.07569707185029984, 0.0830499529838562, 0.022584499791264534, -0.0071450890973210335, 0.046635158360004425, -0.0029976689256727695, 0.9971579313278198, 33.85533142089844, -2.063754081726074, -1.3173571825027466, 0.0, 0.0, 0.0, 0, 0, 0, 0, 0, 0, 33.85533142089844, -2.063754081726074, -1.3173571825027466
339438, 0.08290092647075653, -0.08122261613607407, 0.07528916001319885, -0.10468817502260208, 0.16083061695098877, -0.07939255237579346, 0.049103111028671265, -0.0029498941730707884, 0.9967131614685059, 33.91265869140625, -2.0674543380737305, -1.3195874691009521, 0.0, 0.0, 0.0, 0, 0, 0, 0, 0, 0, 33.91265869140625, -2.0674543380737305, -1.3195874691009521
339448, 0.08298860490322113, -0.07974687963724136, 0.07472793757915497, -0.0060540600679814816, -0.2839127779006958, -0.0018719793297350407, 0.049793511629104614, -0.0015315847704187036, 0.9963588714599609, 33.970035552978516, -2.0711591243743896, -1.321820855140686, 0.0, 0.0, 0.0, 0, 0, 0, 0, 0, 0, 33.970035552978516, -2.0711591243743896, -1.321820855140686
339458, 0.08395542949438095, -0.08055038005113602, 0.07547806203365326, 0.16159740090370178, -0.03329603001475334, 0.027123432606458664, 0.05049801245331764, -0.0033230590634047985, 0.9986174702644348, 34.027462005615234, -2.0748677253723145, -1.3240575790405273, 0.0, 0.0, 0.0, 0, 0, 0, 0, 0, 0, 34.027462005615234, -2.0748677253723145, -1.3240575790405273
339468, 0.08370570838451385, -0.08109695464372635, 0.0747586339712143, 0.08223871141672134, -0.02089955285191536, -0.13544726371765137, 0.04896486923098564, -0.003200075589120388, 0.9980776906013489, 34.084938049316406, -2.078580141067505, -1.3262965679168701, 0.0, 0.0, 0.0, 0, 0, 0, 0, 0, 0, 34.084938049316406, -2.078580141067505, -1.3262965679168701
339478, 0.0843745693564415, -0.08058291673660278, 0.07693582773208618, 0.09106283634901047, -0.15889990329742432, 0.216681569814682, 0.04987722635269165, -0.002660302445292473, 0.9973489046096802, 34.1424674987793, -2.0822970867156982, -1.3285373449325562, 0.0, 0.0, 0.0, 0, 0, 0, 0, 0, 0, 34.1424674987793, -2.0822970867156982, -1.3285373449325562
339488, 0.08470506966114044, -0.08065894991159439, 0.07694430649280548, 0.0603879913687706, 0.11064662784337997, -0.06382685899734497, 0.04858504235744476, -0.0022877762094140053, 0.9979415535926819, 34.20004653930664, -2.0860183238983154, -1.3307803869247437, 0.0, 0.0, 0.0, 0, 0, 0, 0, 0, 0, 34.20004653930664, -2.0860183238983154, -1.3307803869247437
339498, 0.08334850519895554, -0.08066831529140472, 0.07756910473108292, -0.19836169481277466, -0.06523356586694717, -0.049364123493433, 0.048481933772563934, -0.004000585526227951, 0.9966973066329956, 34.25767517089844, -2.0897433757781982, -1.3330258131027222, 0.0, 0.0, 0.0, 0, 0, 0, 0, 0, 0, 34.25767517089844, -2.0897433757781982, -1.3330258131027222
339508, 0.08413752168416977, -0.08021685481071472, 0.07847237586975098, 0.03460698574781418, 0.014224187470972538, 0.15234436094760895, 0.04842352122068405, -0.0026050028391182423, 0.9977535009384155, 34.31534957885742, -2.093472957611084, -1.3352738618850708, 0.0, 0.0, 0.0, 0, 0, 0, 0, 0, 0, 34.31534957885742, -2.093472957611084, -1.3352738618850708
339518, 0.0842299684882164, -0.0807698667049408, 0.07844796031713486, 0.010991576127707958, 0.06182853505015373, -0.02667878195643425, 0.04944497346878052, -0.0035009272396564484, 0.9995105266571045, 34.37307357788086, -2.0972070693969727, -1.3375242948532104, 0.0, 0.0, 0.0, 0, 0, 0, 0, 0, 0, 34.37307357788086, -2.0972070693969727, -1.3375242948532104
339528, 0.08419586718082428, -0.08160676062107086, 0.07788478583097458, 0.0009270846494473517, 0.32943761348724365, -0.13481369614601135, 0.04932834208011627, -0.001990821212530136, 1.0002601146697998, 34.43084716796875, -2.100945472717285, -1.3397759199142456, 0.0, 0.0, 0.0, 0, 0, 0, 0, 0, 0, 34.43084716796875, -2.100945472717285, -1.3397759199142456
339538, 0.0831780806183815, -0.08007922768592834, 0.07892846316099167, -0.1939024180173874, -0.15873025357723236, 0.03177361935377121, 0.04927513748407364, -0.0027841515839099884, 0.9985929727554321, 34.488670349121094, -2.1046881675720215, -1.3420277833938599, 0.0, 0.0, 0.0, 0, 0, 0, 0, 0, 0, 34.488670349121094, -2.1046881675720215, -1.3420277833938599
339548, 0.0831073671579361, -0.07785681635141373, 0.08000414818525314, 0.028341718018054962, -0.23571373522281647, 0.035285476595163345, 0.048413049429655075, -0.002895831363275647, 0.9968447089195251, 34.54654312133789, -2.1084349155426025, -1.3442803621292114, 0.0, 0.0, 0.0, 0, 0, 0, 0, 0, 0, 34.54654312133789, -2.1084349155426025, -1.3442803621292114
339558, 0.08317552506923676, -0.07404441386461258, 0.07891473174095154, -0.00781707838177681, -0.3314076066017151, -0.06780107319355011, 0.04910219460725784, -0.004071270581334829, 0.9961252808570862, 34.60446548461914, -2.1121859550476074, -1.3465352058410645, 0.0, 0.0, 0.0, 0, 0, 0, 0, 0, 0, 34.60446548461914, -2.1121859550476074, -1.3465352058410645
339568, 0.08333670347929001, -0.07337802648544312, 0.078272745013237, -0.021918127313256264, 0.07004933804273605, -0.04800938069820404, 0.04863409325480461, -0.003969477955251932, 0.999436616897583, 34.662437438964844, -2.1159420013427734, -1.348793387413025, 0.0, 0.0, 0.0, 0, 0, 0, 0, 0, 0, 34.662437438964844, -2.1159420013427734, -1.348793387413025
339578, 0.08322606980800629, -0.0758451521396637, 0.07699533551931381, -0.04560614377260208, 0.147294819355011, -0.15990537405014038, 0.04778756946325302, -0.0028571831062436104, 0.9992620944976807, 34.720458984375, -2.1197028160095215, -1.3510537147521973, 0.0, 0.0, 0.0, 0, 0, 0, 0, 0, 0, 34.720458984375, -2.1197028160095215, -1.3510537147521973
339588, 0.0838594138622284, -0.0769285261631012, 0.0789579227566719, -0.013283057138323784, 0.04963930696249008, 0.21720272302627563, 0.04644342139363289, -0.004284600727260113, 0.9992045760154724, 34.77853012084961, -2.1234681606292725, -1.3533148765563965, 0.0, 0.0, 0.0, 0, 0, 0, 0, 0, 0, 34.836647033691406, -2.1272382736206055, -1.355576753616333
339598, 0.08356469124555588, -0.07536152005195618, 0.07931012660264969, -0.08408209681510925, -0.28839197754859924, -0.06858442723751068, 0.04838336259126663, -0.0050725750625133514, 0.999335527420044, 34.836647033691406, -2.1272382736206055, -1.355576753616333, 0.0, 0.0, 0.0, 0, 0, 0, 0, 0, 0, 34.894813537597656, -2.131014347076416, -1.3578394651412964
339608, 0.08292467147111893, -0.07537700235843658, 0.0781860277056694, 0.02825324796140194, 0.033442046493291855, -0.13825298845767975, 0.04734846577048302, -0.0035454549361020327, 0.9976324439048767, 34.894813537597656, -2.131014347076416, -1.3578394651412964, 0.0, 0.0, 0.0, 0, 0, 0, 0, 0, 0, 34.953025817871094, -2.134796380996704, -1.3601034879684448
339618, 0.08226917684078217, -0.07541467994451523, 0.07757152616977692, -0.09727898240089417, 0.03378508612513542, -0.1097717210650444, 0.04886983707547188, -0.0011601776350289583, 0.9999169707298279, 34.953025817871094, -2.134796380996704, -1.3601034879684448, 0.0, 0.0, 0.0, 0, 0, 0, 0, 0, 0, 35.011287689208984, -2.138582229614258, -1.3623684644699097
339628, 0.08142805099487305, -0.0758177787065506, 0.0768643468618393, -0.10237302631139755, 0.025328077375888824, -0.03627363219857216, 0.050161972641944885, 6.676716293441132e-05, 0.9990266561508179, 35.011287689208984, -2.138582229614258, -1.3623684644699097, 0.0, 0.0, 0.0, 0, 0, 0, 0, 0, 0, 35.06959915161133, -2.1423702239990234, -1.3646340370178223
339638, 0.08177695423364639, -0.07515864074230194, 0.07607632130384445, -0.022492293268442154, -0.12744727730751038, -0.1570856124162674, 0.04942530393600464, -0.0016321790171787143, 0.9988034963607788, 35.06959915161133, -2.1423702239990234, -1.3646340370178223, 0.0, 0.0, 0.0, 0, 0, 0, 0, 0, 0, 35.127960205078125, -2.146160364151001, -1.3669008016586304
339648, 0.08062426000833511, -0.07451893389225006, 0.07499739527702332, -0.13885384798049927, -0.12398236244916916, 0.06551198661327362, 0.0496719628572464, -0.0017156510148197412, 0.9973907470703125, 35.127960205078125, -2.146160364151001, -1.3669008016586304, 0.0, 0.0, 0.0, 0, 0, 0, 0, 0, 0, 35.186370849609375, -2.149953603744507, -1.3691695928573608
339658, 0.08179359883069992, -0.0732463076710701, 0.07604894042015076, 0.2576131224632263, -0.11278238892555237, 0.3565782904624939, 0.047543320804834366, -0.002903521293774247, 0.9992622137069702, 35.186370849609375, -2.149953603744507, -1.3691695928573608, 0.0, 0.0, 0.0, 0, 0, 0, 0, 0, 0, 35.24483108520508, -2.1537508964538574, -1.371440052986145
339668, 0.08210211992263794, -0.0736195296049118, 0.0767570286989212, 0.0969560369849205, 0.17025046050548553, 0.15021651983261108, 0.048107750713825226, -0.003462909022346139, 0.9997149705886841, 35.24483108520508, -2.1537508964538574, -1.371440052986145, 0.0, 0.0, 0.0, 0, 0, 0, 0, 0, 0, 35.303340911865234, -2.15755295753479, -1.3737112283706665
339678, 0.08254463225603104, -0.07224548608064651, 0.07636454701423645, 0.11441108584403992, -0.20130100846290588, -0.2022704780101776, 0.04733455553650856, -0.0033631667029112577, 0.9980441927909851, 35.303340911865234, -2.15755295753479, -1.3737112283706665, 0.0, 0.0, 0.0, 0, 0, 0, 0, 0, 0, 35.36189651489258, -2.161360025405884, -1.3759835958480835
339688, 0.08293584734201431, -0.06987707316875458, 0.0760793685913086, 0.13407929241657257, -0.24193167686462402, -0.15322420001029968, 0.046855442225933075, -0.002421802142634988, 0.9974464774131775, 35.36189651489258, -2.161360025405884, -1.3759835958480835, 0.0, 0.0, 0.0, 0, 0, 0, 0, 0, 0, 35.420501708984375, -2.1651713848114014, -1.3782579898834229
339698, 0.08354697376489639, -0.07004866003990173, 0.07577954977750778, 0.20417849719524384, 0.1905406266450882, 0.01622406579554081, 0.04802946001291275, -0.002366821514442563, 0.9976637363433838, 35.420501708984375, -2.1651713848114014, -1.3782579898834229, 0.0, 0.0, 0.0, 0, 0, 0, 0, 0, 0, 35.420501708984375, -2.1651713848114014, -1.3782579898834229
339708, 0.0834367498755455, -0.06929181516170502, 0.07551941275596619, 0.015602953732013702, 0.06465502083301544, 0.004101743455976248, 0.04843180999159813, -0.0025075178127735853, 0.9981471300125122, 35.47915267944336, -2.1689867973327637, -1.3805347681045532, 0.0, 0.0, 0.0, 0, 0, 0, 0, 0, 0, 35.47915267944336, -2.1689867973327637, -1.3805347681045532
339718, 0.08318547904491425, -0.06893710047006607, 0.07587745785713196, -0.042341943830251694, 0.04723315313458443, 0.044297557324171066, 0.04725896567106247, -0.002352554816752672, 0.9999575614929199, 35.5378532409668, -2.1728060245513916, -1.3828136920928955, 0.0, 0.0, 0.0, 0, 0, 0, 0, 0, 0, 35.5378532409668, -2.1728060245513916, -1.3828136920928955
339728, 0.08268821239471436, -0.06826478242874146, 0.07373382151126862, -0.100501149892807, 0.021764852106571198, -0.18739035725593567, 0.04702773317694664, -0.0026847419794648886, 0.9977032542228699, 35.59659957885742, -2.176628828048706, -1.3850935697555542, 0.0, 0.0, 0.0, 0, 0, 0, 0, 0, 0, 35.59659957885742, -2.176628828048706, -1.3850935697555542
339738, 0.08310392498970032, -0.06831368058919907, 0.07207795977592468, 0.05887547507882118, -0.08540579676628113, -0.13599365949630737, 0.04951448738574982, -0.002879953011870384, 0.9974489212036133, 35.6553955078125, -2.180455446243286, -1.3873745203018188, 0.0, 0.0, 0.0, 0, 0, 0, 0, 0, 0, 35.6553955078125, -2.180455446243286, -1.3873745203018188
339748, 0.08298172801733017, -0.06945378333330154, 0.07137394696474075, 0.09583042562007904, 0.16901129484176636, -0.14143170416355133, 0.05062471330165863, -0.0012630902929231524, 0.9953692555427551, 35.71424102783203, -2.184286117553711, -1.389657974243164, 0.0, 0.0, 0.0, 0, 0, 0, 0, 0, 0, 35.71424102783203, -2.184286117553711, -1.389657974243164
339758, 0.08242891728878021, -0.07059427350759506, 0.0713476911187172, 0.004918879829347134, -0.02358705922961235, 0.010204668156802654, 0.04927719384431839, 0.00027409393806010485, 0.9970402717590332, 35.773136138916016, -2.188119888305664, -1.3919450044631958, 0.0, 0.0, 0.0, 0, 0, 0, 0, 0, 0, 35.773136138916016, -2.188119888305664, -1.3919450044631958
339768, 0.08220496773719788, -0.06896223872900009, 0.07258853316307068, 0.05490007996559143, -0.1315561980009079, 0.19249458611011505, 0.04854002967476845, -0.00391134200617671, 0.998065710067749, 35.83208084106445, -2.191956043243408, -1.394235610961914, 0.0, 0.0, 0.0, 0, 0, 0, 0, 0, 0, 35.83208084106445, -2.191956043243408, -1.394235610961914
339778, 0.08258799463510513, -0.06978608667850494, 0.07242235541343689, 0.09440834075212479, 0.14232689142227173, -0.047608766704797745, 0.05014777556061745, -0.0052907695062458515, 1.0001747608184814, 35.891075134277344, -2.195796012878418, -1.3965286016464233, 0.0, 0.0, 0.0, 0, 0, 0, 0, 0, 0, 35.891075134277344, -2.195796012878418, -1.3965286016464233
339788, 0.08229196816682816, -0.06757313758134842, 0.07307085394859314, 0.0623064748942852, -0.24887268245220184, 0.1734618842601776, 0.05074901878833771, -0.0035836335737258196, 0.9992780089378357, 35.95011901855469, -2.1996419429779053, -1.39882230758667, 0.0, 0.0, 0.0, 0, 0, 0, 0, 0, 0, 35.95011901855469, -2.1996419429779053, -1.39882230758667
339798, 0.08249770849943161, -0.06906336545944214, 0.07308312505483627, 0.10288282483816147, 0.21523472666740417, 0.04728759080171585, 0.04887763783335686, -0.0012713512405753136, 0.9969924688339233, 36.009212493896484, -2.203493595123291, -1.4011164903640747, 0.0, 0.0, 0.0, 0, 0, 0, 0, 0, 0, 36.009212493896484, -2.203493595123291, -1.4011164903640747
339808, 0.08251558244228363, -0.07031723111867905, 0.0726059153676033, -0.049830447882413864, 0.11849404126405716, -0.148923859000206, 0.04786341264843941, -0.0017444990808144212, 0.9963440299034119, 36.068355560302734, -2.2073488235473633, -1.4034123420715332, 0.0, 0.0, 0.0, 0, 0, 0, 0, 0, 0, 36.068355560302734, -2.2073488235473633, -1.4034123420715332
339818, 0.08253184705972672, -0.0706680566072464, 0.07269316911697388, -0.02032335102558136, -0.07531499117612839, 0.008497840724885464, 0.047552578151226044, -0.0036419988609850407, 0.9991129040718079, 36.12754821777344, -2.211207151412964, -1.40571129322052, 0.0, 0.0, 0.0, 0, 0, 0, 0, 0, 0, 36.12754821777344, -2.211207151412964, -1.40571129322052
339828, 0.08309667557477951, -0.07109978795051575, 0.07267057150602341, 0.05532050505280495, -0.1032024696469307, -0.1383303552865982, 0.04566499590873718, -0.003232268849387765, 0.998917818069458, 36.18678665161133, -2.215069532394409, -1.4080123901367188, 0.0, 0.0, 0.0, 0, 0, 0, 0, 0, 0, 36.18678665161133, -2.215069532394409, -1.4080123901367188
339838, 0.08401700854301453, -0.07045258581638336, 0.07371606677770615, 0.032296229153871536, -0.1478789895772934, 0.12231434881687164, 0.04644763097167015, -0.0033635562285780907, 0.9972673654556274, 36.24607467651367, -2.2189366817474365, -1.4103144407272339, 0.0, 0.0, 0.0, 0, 0, 0, 0, 0, 0, 36.24607467651367, -2.2189366817474365, -1.4103144407272339
339848, 0.08365906774997711, -0.06930594891309738, 0.07371290773153305, 0.05354561284184456, -0.23337140679359436, 0.007209908217191696, 0.04888872429728508, -0.002302951877936721, 0.9988811016082764, 36.3054084777832, -2.222808599472046, -1.4126182794570923, 0.0, 0.0, 0.0, 0, 0, 0, 0, 0, 0, 36.3054084777832, -2.222808599472046, -1.4126182794570923
339858, 0.08360975235700607, -0.06793742626905441, 0.07380872219800949, -0.014221185818314552, -0.13639862835407257, -0.0024713538587093353, 0.04874976724386215, -0.0009989322861656547, 0.9966441988945007, 36.36478805541992, -2.226684808731079, -1.414924144744873, 0.0, 0.0, 0.0, 0, 0, 0, 0, 0, 0, 36.36478805541992, -2.226684808731079, -1.414924144744873
339868, 0.08377305418252945, -0.06695666164159775, 0.07319393008947372, -0.020778128877282143, 0.24089427292346954, -0.1570904701948166, 0.049228232353925705, -0.0019398320000618696, 0.9967683553695679, 36.424217224121094, -2.2305638790130615, -1.4172322750091553, 0.0, 0.0, 0.0, 0, 0, 0, 0, 0, 0, 36.424217224121094, -2.2305638790130615, -1.4172322750091553
339878, 0.0844080001115799, -0.06609399616718292, 0.07454126328229904, -0.023374633863568306, -0.1665860116481781, 0.03477197140455246, 0.04962917044758797, -0.0026999625843018293, 0.9958641529083252, 36.48369598388672, -2.234445810317993, -1.4195433855056763, 0.0, 0.0, 0.0, 0, 0, 0, 0, 0, 0, 36.48369598388672, -2.234445810317993, -1.4195433855056763
339888, 0.08512602746486664, -0.06787731498479843, 0.07565706968307495, 0.027773352339863777, 0.18381719291210175, 0.018196197226643562, 0.050591565668582916, -0.003130756551399827, 0.9975627660751343, 36.5432243347168, -2.2383315563201904, -1.4218579530715942, 0.0, 0.0, 0.0, 0, 0, 0, 0, 0, 0, 36.5432243347168, -2.2383315563201904, -1.4218579530715942
339898, 0.08374611288309097, -0.06751501560211182, 0.07479938119649887, -0.1738622933626175, 0.013974298723042011, -0.16695599257946014, 0.0486472062766552, -0.002275648759678006, 0.9963009357452393, 36.602806091308594, -2.2422215938568115, -1.4241758584976196, 0.0, 0.0, 0.0, 0, 0, 0, 0, 0, 0, 36.602806091308594, -2.2422215938568115, -1.4241758584976196
339908, 0.08357638120651245, -0.06839463859796524, 0.07512413710355759, -0.044629134237766266, 0.021342938765883446, 0.019357075914740562, 0.049255166202783585, -0.003421486122533679, 0.9968672394752502, 36.662437438964844, -2.2461159229278564, -1.426496982574463, 0.0, 0.0, 0.0, 0, 0, 0, 0, 0, 0, 36.662437438964844, -2.2461159229278564, -1.426496982574463
339918, 0.08492474257946014, -0.06800288707017899, 0.07520908117294312, 0.21105113625526428, 0.060133785009384155, 0.09732884168624878, 0.04852702468633652, -0.0008081672131083906, 0.9979791045188904, 36.72211837768555, -2.250014543533325, -1.4288215637207031, 0.0, 0.0, 0.0, 0, 0, 0, 0, 0, 0, 36.72211837768555, -2.250014543533325, -1.4288215637207031
339928, 0.08532485365867615, -0.06828111410140991, 0.07532553374767303, -0.049485620111227036, 0.12193335592746735, -0.02013891562819481, 0.04859745875000954, -0.0019136082846671343, 0.9977982044219971, 36.78184509277344, -2.2539167404174805, -1.431148648262024, 0.0, 0.0, 0.0, 0, 0, 0, 0, 0, 0, 36.78184509277344, -2.2539167404174805, -1.431148648262024
339938, 0.08490316569805145, -0.06954625993967056, 0.07553652673959732, -0.04410748928785324, 0.18158632516860962, -0.059485163539648056, 0.047023091465234756, -0.0041700019501149654, 0.9998420476913452, 36.84162139892578, -2.257822275161743, -1.433477759361267, 0.0, 0.0, 0.0, 0, 0, 0, 0, 0, 0, 36.84162139892578, -2.257822275161743, -1.433477759361267
339948, 0.08580001443624496, -0.07087410986423492, 0.07667765021324158, 0.18346722424030304, 0.3321724236011505, 0.2224992960691452, 0.04684432968497276, -0.002702142111957073, 0.9994760155677795, 36.90144729614258, -2.261732339859009, -1.4358079433441162, 0.0, 0.0, 0.0, 0, 0, 0, 0, 0, 0, 36.90144729614258, -2.261732339859009, -1.4358079433441162
339958, 0.08509335666894913, -0.07011760771274567, 0.07690172642469406, -0.1164540946483612, -0.06989972293376923, 0.08982503414154053, 0.04789668321609497, -0.0019889920949935913, 0.9975966811180115, 36.96131896972656, -2.2656471729278564, -1.4381383657455444, 0.0, 0.0, 0.0, 0, 0, 0, 0, 0, 0, 36.96131896972656, -2.2656471729278564, -1.4381383657455444
339968, 0.08555276691913605, -0.06808900833129883, 0.07786450535058975, 0.181282639503479, -0.4233021140098572, 0.07399684190750122, 0.04700494557619095, -0.002954796887934208, 0.9965415596961975, 37.021240234375, -2.269566059112549, -1.4404702186584473, 0.0, 0.0, 0.0, 0, 0, 0, 0, 0, 0, 37.021240234375, -2.269566059112549, -1.4404702186584473
339978, 0.08576621860265732, -0.06849677115678787, 0.0784524604678154, 0.12017524987459183, -0.07244156301021576, 0.09082888066768646, 0.047886922955513, -0.0022555433679372072, 0.9964309334754944, 37.081207275390625, -2.273488998413086, -1.4428049325942993, 0.0, 0.0, 0.0, 0, 0, 0, 0, 0, 0, 37.081207275390625, -2.273488998413086, -1.4428049325942993
339988, 0.08541889488697052, -0.06795856356620789, 0.07825308293104172, 0.015235756523907185, -0.18029150366783142, -0.09206186980009079, 0.0468565858900547, -0.0018774262862280011, 0.996731698513031, 37.1412239074707, -2.2774159908294678, -1.4451429843902588, 0.0, 0.0, 0.0, 0, 0, 0, 0, 0, 0, 37.1412239074707, -2.2774159908294678, -1.4451429843902588
339998, 0.08472638577222824, -0.07072830945253372, 0.07902845740318298, -0.0222121961414814, 0.30200934410095215, -0.014371853321790695, 0.04818129539489746, -9.069968655239791e-05, 0.9963590502738953, 37.20128631591797, -2.281346082687378, -1.4474843740463257, 0.0, 0.0, 0.0, 0, 0, 0, 0, 0, 0, 37.20128631591797, -2.281346082687378, -1.4474843740463257
340008, 0.0848483219742775, -0.07120886445045471, 0.07999277859926224, -0.008454547263681889, 0.09780152887105942, 0.1868637204170227, 0.048321500420570374, -0.0005170052172616124, 0.9960611462593079, 37.26139831542969, -2.285278558731079, -1.449829339981079, 0.0, 0.0, 0.0, 0, 0, 0, 0, 0, 0, 37.26139831542969, -2.285278558731079, -1.449829339981079
340018, 0.08578620105981827, -0.0704517588019371, 0.08001980930566788, 0.17080166935920715, -0.09700912982225418, 0.13846538960933685, 0.04851771891117096, -0.0007074004388414323, 0.9981673955917358, 37.321556091308594, -2.289212942123413, -1.452177882194519, 0.0, 0.0, 0.0, 0, 0, 0, 0, 0, 0, 37.321556091308594, -2.289212942123413, -1.452177882194519
340028, 0.08555406332015991, -0.0689355880022049, 0.07981699705123901, 0.009500743821263313, -0.12811477482318878, 0.2849544584751129, 0.04782618209719658, -0.0021280169021338224, 0.9958667159080505, 37.38176345825195, -2.293149471282959, -1.4545291662216187, 0.0, 0.0, 0.0, 0, 0, 0, 0, 0, 0, 37.38176345825195, -2.293149471282959, -1.4545291662216187
340038, 0.08571567386388779, -0.06883041560649872, 0.07894500344991684, -0.04221651703119278, 0.024179760366678238, -0.21255230903625488, 0.047698963433504105, -0.0017801116919144988, 0.9964182376861572, 37.442020416259766, -2.297088623046875, -1.456883430480957, 0.0, 0.0, 0.0, 0, 0, 0, 0, 0, 0, 37.442020416259766, -2.297088623046875, -1.456883430480957
340048, 0.08601219207048416, -0.0702161118388176, 0.0777476578950882, -0.01766105741262436, 0.3176427185535431, -0.2130769044160843, 0.0468653067946434, -0.00399639131501317, 0.9975568652153015, 37.502323150634766, -2.3010311126708984, -1.459241271018982, 0.0, 0.0, 0.0, 0, 0, 0, 0, 0, 0, 37.502323150634766, -2.3010311126708984, -1.459241271018982
340058, 0.08665552735328674, -0.0684291273355484, 0.0778515413403511, -0.006721743382513523, -0.4244304597377777, 0.1440885066986084, 0.04965682327747345, -0.004541161935776472, 1.0000841617584229, 37.56267547607422, -2.304978132247925, -1.4616018533706665, 0.0, 0.0, 0.0, 0, 0, 0, 0, 0, 0, 37.56267547607422, -2.304978132247925, -1.4616018533706665
340068, 0.08703609555959702, -0.06856842339038849, 0.0791105404496193, -0.002115422859787941, 0.17267152667045593, 0.2144012749195099, 0.048922475427389145, -0.004371077753603458, 0.9981309175491333, 37.623077392578125, -2.3089308738708496, -1.463963508605957, 0.0, 0.0, 0.0, 0, 0, 0, 0, 0, 0, 37.623077392578125, -2.3089308738708496, -1.463963508605957
340078, 0.08673080801963806, -0.06976233422756195, 0.07916976511478424, -0.08093222975730896, 0.10709438472986221, 0.04818094149231911, 0.04874804615974426, -0.003922533243894577, 0.9963837265968323, 37.683528900146484, -2.312889575958252, -1.4663259983062744, 0.0, 0.0, 0.0, 0, 0, 0, 0, 0, 0, 37.683528900146484, -2.312889575958252, -1.4663259983062744
340088, 0.08727654814720154, -0.07016211748123169, 0.07855910062789917, 0.04965094476938248, -0.11786524206399918, 0.00901719368994236, 0.04818487539887428, -0.002295974176377058, 0.997776448726654, 37.7440299987793, -2.3168537616729736, -1.468691110610962, 0.0, 0.0, 0.0, 0, 0, 0, 0, 0, 0, 37.7440299987793, -2.3168537616729736, -1.468691110610962
340098, 0.08782274276018143, -0.06855390220880508, 0.07855642586946487, 0.11669929325580597, -0.2100578099489212, 0.03281639516353607, 0.04768945276737213, -0.002181244781240821, 0.9967274069786072, 37.8045768737793, -2.3208227157592773, -1.4710590839385986, 0.0, 0.0, 0.0, 0, 0, 0, 0, 0, 0, 37.8045768737793, -2.3208227157592773, -1.4710590839385986
340108, 0.08815504610538483, -0.06782093644142151, 0.07886269688606262, 0.10163068771362305, 0.0575602650642395, 0.08342635631561279, 0.04915934428572655, -0.004447237588465214, 0.9957645535469055, 37.86517333984375, -2.324795722961426, -1.4734299182891846, 0.0, 0.0, 0.0, 0, 0, 0, 0, 0, 0, 37.86517333984375, -2.324795722961426, -1.4734299182891846
340118, 0.08692565560340881, -0.06704994291067123, 0.07964280992746353, -0.14407125115394592, -0.11199235171079636, -0.013378610834479332, 0.049689747393131256, -0.00018609654216561466, 0.9965797662734985, 37.925819396972656, -2.328773260116577, -1.4758044481277466, 0.0, 0.0, 0.0, 0, 0, 0, 0, 0, 0, 37.925819396972656, -2.328773260116577, -1.4758044481277466
340128, 0.08796170353889465, -0.06709061563014984, 0.07998146116733551, 0.17479859292507172, -0.049563780426979065, -0.05028165131807327, 0.04922455549240112, -0.002238278975710273, 0.9998342394828796, 37.986515045166016, -2.332754611968994, -1.4781826734542847, 0.0, 0.0, 0.0, 0, 0, 0, 0, 0, 0, 37.986515045166016, -2.332754611968994, -1.4781826734542847
340138, 0.08791059255599976, -0.06744316965341568, 0.08059681206941605, 0.14527137577533722, 0.06993444263935089, 0.13109399378299713, 0.049210600554943085, -0.0046234456822276115, 0.9994482398033142, 38.04726028442383, -2.3367390632629395, -1.480562686920166, 0.0, 0.0, 0.0, 0, 0, 0, 0, 0, 0, 38.04726028442383, -2.3367390632629395, -1.480562686920166
340148, 0.08696143329143524, -0.06608638167381287, 0.08012569695711136, -0.039000749588012695, -0.3212130069732666, 0.055602122098207474, 0.04911752790212631, -0.0029309778474271297, 0.9983052015304565, 38.108055114746094, -2.340728282928467, -1.4829434156417847, 0.0, 0.0, 0.0, 0, 0, 0, 0, 0, 0, 38.108055114746094, -2.340728282928467, -1.4829434156417847
340158, 0.08681332319974899, -0.06491032242774963, 0.07959433645009995, 0.02013864926993847, -0.27506253123283386, -0.010193007066845894, 0.04944564029574394, -0.0019522870425134897, 0.9974980354309082, 38.16889953613281, -2.3447227478027344, -1.4853253364562988, 0.0, 0.0, 0.0, 0, 0, 0, 0, 0, 0, 38.16889953613281, -2.3447227478027344, -1.4853253364562988
340168, 0.0878121554851532, -0.06542286276817322, 0.07949238270521164, 0.19603921473026276, 0.22318068146705627, 0.02792656607925892, 0.04712957143783569, -0.002924046479165554, 0.9978511929512024, 38.229793548583984, -2.3487212657928467, -1.4877092838287354, 0.0, 0.0, 0.0, 0, 0, 0, 0, 0, 0, 38.229793548583984, -2.3487212657928467, -1.4877092838287354
340178, 0.08703115582466125, -0.06450766324996948, 0.07976599037647247, -0.0870581641793251, -0.05431041494011879, 0.13255271315574646, 0.04814068600535393, -0.004498429596424103, 0.997531533241272, 38.290733337402344, -2.352724075317383, -1.4900953769683838, 0.0, 0.0, 0.0, 0, 0, 0, 0, 0, 0, 38.290733337402344, -2.352724075317383, -1.4900953769683838
340188, 0.08729428797960281, -0.06461059302091599, 0.07874801754951477, 0.056261345744132996, -0.08772612363100052, -0.2118145078420639, 0.04739787429571152, -0.003585315775126219, 0.9969176054000854, 38.351722717285156, -2.356731653213501, -1.4924837350845337, 0.0, 0.0, 0.0, 0, 0, 0, 0, 0, 0, 38.351722717285156, -2.356731653213501, -1.4924837350845337
340198, 0.08683482557535172, -0.0655369907617569, 0.0779966190457344, 0.012441815808415413, 0.34499219059944153, 0.08029733598232269, 0.04895098879933357, -0.0014456314966082573, 0.9982849359512329, 38.412757873535156, -2.3607444763183594, -1.4948745965957642, 0.0, 0.0, 0.0, 0, 0, 0, 0, 0, 0, 38.412757873535156, -2.3607444763183594, -1.4948745965957642
340208, 0.08708708733320236, -0.0645555853843689, 0.0774177834391594, 0.06332212686538696, -0.13794034719467163, -0.051179539412260056, 0.04854719340801239, 0.0004947847337462008, 0.9963090419769287, 38.47384262084961, -2.3647613525390625, -1.4972676038742065, 0.0, 0.0, 0.0, 0, 0, 0, 0, 0, 0, 38.47384262084961, -2.3647613525390625, -1.4972676038742065
340218, 0.087923064827919, -0.06396985054016113, 0.0765998512506485, 0.030133191496133804, -0.044722020626068115, -0.1510472595691681, 0.04954684525728226, -0.00020383262017276138, 0.9956715106964111, 38.534976959228516, -2.3687801361083984, -1.499663233757019, 0.0, 0.0, 0.0, 0, 0, 0, 0, 0, 0, 38.534976959228516, -2.3687801361083984, -1.499663233757019
340228, 0.0878257006406784, -0.06377366930246353, 0.07592326402664185, -0.1532517373561859, 0.05464964359998703, -0.12737563252449036, 0.04862821102142334, -0.00282283965498209, 0.9965909719467163, 38.596160888671875, -2.372800588607788, -1.5020626783370972, 0.0, 0.0, 0.0, 0, 0, 0, 0, 0, 0, 38.596160888671875, -2.372800588607788, -1.5020626783370972
340238, 0.08853244036436081, -0.06282930821180344, 0.07464579492807388, 0.1835462749004364, 0.011942998506128788, 0.06141993775963783, 0.04703297093510628, -0.0023891539312899113, 0.9964160919189453, 38.65739440917969, -2.376823902130127, -1.5044660568237305, 0.0, 0.0, 0.0, 0, 0, 0, 0, 0, 0, 38.65739440917969, -2.376823902130127, -1.5044660568237305
340248, 0.08824697881937027, -0.06223265081644058, 0.0740235447883606, -0.003750395029783249, -0.0073397415690124035, -0.03246881812810898, 0.047861043363809586, -0.0026556323282420635, 0.9968273639678955, 38.71867370605469, -2.3808510303497314, -1.5068728923797607, 0.0, 0.0, 0.0, 0, 0, 0, 0, 0, 0, 38.71867370605469, -2.3808510303497314, -1.5068728923797607
340258, 0.088744156062603, -0.06306181102991104, 0.07522212713956833, -0.03787919133901596, 0.08403746783733368, 0.15260596573352814, 0.04982409253716469, -0.0016739389393478632, 0.9993810653686523, 38.78000259399414, -2.3848822116851807, -1.5092828273773193, 0.0, 0.0, 0.0, 0, 0, 0, 0, 0, 0, 38.78000259399414, -2.3848822116851807, -1.5092828273773193
340268, 0.08956244587898254, -0.06451082974672318, 0.07632889598608017, -0.02000037394464016, 0.1039823591709137, 0.0701361894607544, 0.04867593199014664, -0.0016189097659662366, 0.9984360337257385, 38.84138107299805, -2.3889169692993164, -1.5116946697235107, 0.0, 0.0, 0.0, 0, 0, 0, 0, 0, 0, 38.84138107299805, -2.3889169692993164, -1.5116946697235107
340278, 0.08855584263801575, -0.06545031815767288, 0.0748974084854126, -0.06933041661977768, 0.07184191793203354, -0.23011431097984314, 0.04903227090835571, -0.0016332888044416904, 0.9979699850082397, 38.902809143066406, -2.3929550647735596, -1.5141077041625977, 0.0, 0.0, 0.0, 0, 0, 0, 0, 0, 0, 38.902809143066406, -2.3929550647735596, -1.5141077041625977
340288, 0.08846993744373322, -0.06488464027643204, 0.076400525867939, -0.06157805398106575, -0.05040964111685753, 0.17160937190055847, 0.048546455800533295, -0.0012063205940648913, 0.9979946613311768, 38.96428680419922, -2.396996259689331, -1.5165225267410278, 0.0, 0.0, 0.0, 0, 0, 0, 0, 0, 0, 38.96428680419922, -2.396996259689331, -1.5165225267410278
340298, 0.08893012255430222, -0.06632917374372482, 0.07653922587633133, 0.10423213988542557, 0.23099251091480255, -0.045370571315288544, 0.04761859402060509, -0.003280493663623929, 0.9963738322257996, 39.02581024169922, -2.4010403156280518, -1.5189393758773804, 0.0, 0.0, 0.0, 0, 0, 0, 0, 0, 0, 39.02581024169922, -2.4010403156280518, -1.5189393758773804
340308, 0.08891783654689789, -0.06624391674995422, 0.07692821323871613, 0.05665834620594978, -0.10010504722595215, -0.09386923164129257, 0.04753826931118965, -0.0019113661255687475, 0.9964342713356018, 39.08738327026367, -2.405088186264038, -1.5213589668273926, 0.0, 0.0, 0.0, 0, 0, 0, 0, 0, 0, 39.08738327026367, -2.405088186264038, -1.5213589668273926
340318, 0.09013231098651886, -0.06620161235332489, 0.07838477939367294, 0.18756192922592163, -0.14654037356376648, 0.186739981174469, 0.047759514302015305, -8.800526120467111e-05, 0.9988678693771362, 39.14900588989258, -2.40913987159729, -1.5237820148468018, 0.0, 0.0, 0.0, 0, 0, 0, 0, 0, 0, 39.14900588989258, -2.40913987159729, -1.5237820148468018
340328, 0.08887715637683868, -0.06723201274871826, 0.07954265922307968, -0.08291863650083542, 0.16038602590560913, 0.13293419778347015, 0.04738950356841087, -0.002729513216763735, 0.9979639649391174, 39.21067428588867, -2.413194417953491, -1.5262073278427124, 0.0, 0.0, 0.0, 0, 0, 0, 0, 0, 0, 39.21067428588867, -2.413194417953491, -1.5262073278427124
340338, 0.08874215185642242, -0.06742417067289352, 0.08043312281370163, 0.021736593917012215, -0.044139426201581955, 0.0350845530629158, 0.04852640628814697, -0.0033915226813405752, 0.9989194273948669, 39.27239227294922, -2.4172520637512207, -1.5286344289779663, 0.0, 0.0, 0.0, 0, 0, 0, 0, 0, 0, 39.27239227294922, -2.4172520637512207, -1.5286344289779663
340348, 0.0880788192152977, -0.06818895041942596, 0.08070292323827744, -0.03833075985312462, 0.1145782470703125, 0.10510261356830597, 0.047247856855392456, -0.0013619851088151336, 0.997595489025116, 39.33415603637695, -2.421314001083374, -1.5310628414154053, 0.0, 0.0, 0.0, 0, 0, 0, 0, 0, 0, 39.33415603637695, -2.421314001083374, -1.5310628414154053
340358, 0.08744604885578156, -0.06771750748157501, 0.08143788576126099, -0.07184085994958878, 0.12810344994068146, -0.00638993177562952, 0.04761682078242302, -0.0006347621674649417, 0.9975989460945129, 39.39596939086914, -2.425379753112793, -1.533492922782898, 0.0, 0.0, 0.0, 0, 0, 0, 0, 0, 0, 39.39596939086914, -2.425379753112793, -1.533492922782898
340368, 0.08696941286325455, -0.06513852626085281, 0.08017296344041824, -0.08775260299444199, -0.34850847721099854, -0.14301156997680664, 0.04939033091068268, -0.0015924684703350067, 0.9989290237426758, 39.457828521728516, -2.429448127746582, -1.5359251499176025, 0.0, 0.0, 0.0, 0, 0, 0, 0, 0, 0, 39.457828521728516, -2.429448127746582, -1.5359251499176025
340378, 0.086920365691185, -0.06644852459430695, 0.07999467849731445, -0.024549368768930435, 0.16228069365024567, -0.029422733932733536, 0.04921231418848038, -0.0017541969427838922, 0.998674750328064, 39.519737243652344, -2.433519124984741, -1.5383588075637817, 0.0, 0.0, 0.0, 0, 0, 0, 0, 0, 0, 39.519737243652344, -2.433519124984741, -1.5383588075637817
340388, 0.08699533343315125, -0.06633751839399338, 0.08056598901748657, -0.00857395026832819, -0.003067184239625931, 0.12969234585762024, 0.048027291893959045, -0.0055465386249125, 0.998878538608551, 39.581695556640625, -2.437593460083008, -1.5407934188842773, 0.0, 0.0, 0.0, 0, 0, 0, 0, 0, 0, 39.581695556640625, -2.437593460083008, -1.5407934188842773
340398, 0.08710844814777374, -0.06582803279161453, 0.0798335000872612, 0.008563768118619919, 0.003585085505619645, -0.09970932453870773, 0.04891056939959526, -0.0034253413323312998, 0.9978827834129333, 39.64370346069336, -2.4416730403900146, -1.5432292222976685, 0.0, 0.0, 0.0, 0, 0, 0, 0, 0, 0, 39.64370346069336, -2.4416730403900146, -1.5432292222976685
340408, 0.08670729398727417, -0.06599891930818558, 0.07982879132032394, -0.08380959182977676, 0.05794030427932739, -0.05533493310213089, 0.04937976598739624, -0.001805216888897121, 0.9973781108856201, 39.70576095581055, -2.44575834274292, -1.5456666946411133, 0.0, 0.0, 0.0, 0, 0, 0, 0, 0, 0, 39.70576095581055, -2.44575834274292, -1.5456666946411133
340418, 0.08673407882452011, -0.06896193325519562, 0.08059300482273102, -0.06892606616020203, 0.25075748562812805, 0.02468189224600792, 0.0479620024561882, -0.0025974793825298548, 0.9973657727241516, 39.76786422729492, -2.44984769821167, -1.5481065511703491, 0.0, 0.0, 0.0, 0, 0, 0, 0, 0, 0, 39.76786422729492, -2.44984769821167, -1.5481065511703491
340428, 0.08663923293352127, -0.07043807208538055, 0.08083836734294891, 0.052122943103313446, 0.13078467547893524, 0.14183688163757324, 0.04913710430264473, -0.0032644979655742645, 0.9965546727180481, 39.83001708984375, -2.4539406299591064, -1.5505486726760864, 0.0, 0.0, 0.0, 0, 0, 0, 0, 0, 0, 39.83001708984375, -2.4539406299591064, -1.5505486726760864
340438, 0.0871230810880661, -0.07171675562858582, 0.07899294048547745, 0.09128403663635254, 0.20485876500606537, -0.18135592341423035, 0.04790685325860977, -0.003554716007784009, 0.9978407025337219, 39.89221954345703, -2.458037853240967, -1.5529935359954834, 0.0, 0.0, 0.0, 0, 0, 0, 0, 0, 0, 39.89221954345703, -2.458037853240967, -1.5529935359954834
340448, 0.08706091344356537, -0.07094664871692657, 0.08003559708595276, 0.053781911730766296, -0.1488649845123291, 0.2763451039791107, 0.04928749054670334, -0.0022704731673002243, 0.9968113303184509, 39.954471588134766, -2.462139844894409, -1.55544114112854, 0.0, 0.0, 0.0, 0, 0, 0, 0, 0, 0, 39.954471588134766, -2.462139844894409, -1.55544114112854
340458, 0.08714797347784042, -0.07029183208942413, 0.07969088107347488, 0.08392635732889175, -0.03010956197977066, -0.06654810905456543, 0.04689062759280205, -0.002927740104496479, 0.9975579977035522, 40.01677322387695, -2.4662461280822754, -1.5578912496566772, 0.0, 0.0, 0.0, 0, 0, 0, 0, 0, 0, 40.01677322387695, -2.4662461280822754, -1.5578912496566772
340468, 0.08639829605817795, -0.06996926665306091, 0.07902488857507706, 0.019030477851629257, -0.024114539846777916, 0.04685163125395775, 0.04744856059551239, -0.0031946219969540834, 0.9986359477043152, 40.07912063598633, -2.4703567028045654, -1.5603440999984741, 0.0, 0.0, 0.0, 0, 0, 0, 0, 0, 0, 40.07912063598633, -2.4703567028045654, -1.5603440999984741
340478, 0.08624079823493958, -0.07117948681116104, 0.07830077409744263, -0.0015452225925400853, 0.09725302457809448, -0.021616505458950996, 0.04710019379854202, -0.000993742374703288, 0.9972517490386963, 40.141517639160156, -2.4744718074798584, -1.5627989768981934, 0.0, 0.0, 0.0, 0, 0, 0, 0, 0, 0, 40.20396041870117, -2.478590488433838, -1.5652559995651245
340488, 0.08653093129396439, -0.07161352783441544, 0.07965357601642609, -0.08186691999435425, 0.22216510772705078, 0.22837132215499878, 0.04698282480239868, -0.002791754202917218, 0.9987401366233826, 40.20396041870117, -2.478590488433838, -1.5652559995651245, 0.0, 0.0, 0.0, 0, 0, 0, 0, 0, 0, 40.26645278930664, -2.482712507247925, -1.5677149295806885
340498, 0.08652689307928085, -0.07282880693674088, 0.08010594546794891, -0.14128218591213226, 0.164813831448555, 0.1215333342552185, 0.048047564923763275, -0.003267931053414941, 0.9988695979118347, 40.26645278930664, -2.482712507247925, -1.5677149295806885, 0.0, 0.0, 0.0, 0, 0, 0, 0, 0, 0, 40.3289909362793, -2.4868388175964355, -1.5701751708984375
340508, 0.08751547336578369, -0.07370668649673462, 0.08044389635324478, -0.0032932956237345934, 0.19755016267299652, -0.01898491568863392, 0.04934648051857948, -0.004329120274633169, 0.9968665242195129, 40.3289909362793, -2.4868388175964355, -1.5701751708984375, 0.0, 0.0, 0.0, 0, 0, 0, 0, 0, 0, 40.391578674316406, -2.4909701347351074, -1.5726374387741089
340518, 0.08764287829399109, -0.07229548692703247, 0.08056184649467468, 0.07155594229698181, -0.18876530230045319, -0.06508427113294601, 0.04951439052820206, -0.0029769001994282007, 0.9985050559043884, 40.391578674316406, -2.4909701347351074, -1.5726374387741089, 0.0, 0.0, 0.0, 0, 0, 0, 0, 0, 0, 40.45421600341797, -2.4951064586639404, -1.5751018524169922
340528, 0.08708475530147552, -0.07192449271678925, 0.08164776861667633, -0.15241435170173645, 0.009257465600967407, 0.2149823009967804, 0.047330692410469055, -0.0018285976257175207, 0.9990268349647522, 40.45421600341797, -2.4951064586639404, -1.5751018524169922, 0.0, 0.0, 0.0, 0, 0, 0, 0, 0, 0, 40.516902923583984, -2.49924635887146, -1.57756769657135
340538, 0.08762644976377487, -0.07073698192834854, 0.08185823261737823, 0.09175386279821396, -0.14120730757713318, 0.20346757769584656, 0.04742107540369034, -0.0033274239394813776, 0.9988686442375183, 40.516902923583984, -2.49924635887146, -1.57756769657135, 0.0, 0.0, 0.0, 0, 0, 0, 0, 0, 0, 40.57963943481445, -2.503390073776245, -1.580034613609314
340548, 0.0874028205871582, -0.06910688430070877, 0.08190763741731644, 0.003189265727996826, -0.19201205670833588, 0.06562577188014984, 0.047383297234773636, -0.003006360027939081, 1.0008500814437866, 40.57963943481445, -2.503390073776245, -1.580034613609314, 0.0, 0.0, 0.0, 0, 0, 0, 0, 0, 0, 40.64242172241211, -2.507538080215454, -1.5825018882751465
340558, 0.08746891468763351, -0.06794606149196625, 0.08261734992265701, -0.028256915509700775, -0.2893727421760559, 0.06650635600090027, 0.04740511253476143, -0.0009737088112160563, 0.9997259974479675, 40.64242172241211, -2.507538080215454, -1.5825018882751465, 0.0, 0.0, 0.0, 0, 0, 0, 0, 0, 0, 40.70525360107422, -2.5116896629333496, -1.5849690437316895
340568, 0.08736858516931534, -0.06871858984231949, 0.08274845033884048, -0.030720816925168037, 0.09305009990930557, -0.03002898581326008, 0.04840844124555588, -0.002450281288474798, 0.9988949298858643, 40.70525360107422, -2.5116896629333496, -1.5849690437316895, 0.0, 0.0, 0.0, 0, 0, 0, 0, 0, 0, 40.768131256103516, -2.5158445835113525, -1.5874367952346802
340578, 0.08708009123802185, -0.06906868517398834, 0.08343176543712616, -0.004629303235560656, 0.05599868297576904, 0.07758817076683044, 0.047568343579769135, -0.001995278289541602, 0.9968190789222717, 40.768131256103516, -2.5158445835113525, -1.5874367952346802, 0.0, 0.0, 0.0, 0, 0, 0, 0, 0, 0, 40.831058502197266, -2.520002841949463, -1.5899065732955933
340588, 0.08635400980710983, -0.06963904201984406, 0.08387868851423264, -0.05377510190010071, 0.14564338326454163, 0.13051624596118927, 0.04754791781306267, -0.003412054618820548, 0.9965192079544067, 40.831058502197266, -2.520002841949463, -1.5899065732955933, 0.0, 0.0, 0.0, 0, 0, 0, 0, 0, 0, 40.831058502197266, -2.520002841949463, -1.5899065732955933
340598, 0.0853600800037384, -0.07004683464765549, 0.08426400274038315, -0.19891388714313507, 0.03060029074549675, -0.027301637455821037, 0.046610791236162186, -0.004206474870443344, 0.9967820644378662, 40.8940315246582, -2.524165391921997, -1.5923794507980347, 0.0, 0.0, 0.0, 0, 0, 0, 0, 0, 0, 40.8940315246582, -2.524165391921997, -1.5923794507980347
