timeTick, roll, pitch, yaw, gyroX, gyroY, gyroZ, accX, accY, accZ, stateX, stateY, stateZ, target_x, target_y, target_z, otX, otY, otZ, otRoll, otPitch, otYaw, kalX, kalY, kalZ
54220, -0.12995266914367676, 1.149856448173523, -3.189965009689331, 0, 0, 0, 0, 0, 0, 0, 0, 0, 0, 0, 0, 0, 0, 0, 0, 0, 0, 0, 0, 0
54230, -0.13027815520763397, 1.1482213735580444, -3.1871063709259033, -0.021337687969207764, 0.0955263152718544, 0.12206850945949554, 0.02391461841762066, 0.009276880882680416, 1.001930832862854, -2.092508554458618, 4.460943222045898, -0.27245041728019714, 0.0, 0.0, 0.0, 0, 0, 0, 0, 0, 0, -2.092508554458618, 4.460943222045898, -0.27245041728019714
54240, -0.12816736102104187, 1.146321415901184, -3.1830899715423584, 0.15498556196689606, 0.30045562982559204, 0.0584251843392849, 0.023412903770804405, 0.008299166336655617, 1.0001500844955444, -2.096208333969116, 4.4710822105407715, -0.27240777015686035, 0.0, 0.0, 0.0, 0, 0, 0, 0, 0, 0, -2.096208333969116, 4.4710822105407715, -0.27240777015686035
54250, -0.12884776294231415, 1.145541787147522, -3.1808788776397705, -0.13219183683395386, -0.022260867059230804, 0.03910137340426445, 0.02648509480059147, 0.008654138073325157, 0.9987430572509766, -2.0999042987823486, 4.481231689453125, -0.2723637521266937, 0.0, 0.0, 0.0, 0, 0, 0, 0, 0, 0, -2.0999042987823486, 4.481231689453125, -0.2723637521266937
54260, -0.1291285753250122, 1.1445415019989014, -3.1781439781188965, 0.04578479379415512, -0.07791124284267426, 0.03926828131079674, 0.026024047285318375, 0.008732556365430355, 1.0005024671554565, -2.10359525680542, 4.491391181945801, -0.27231964468955994, 0.0, 0.0, 0.0, 0, 0, 0, 0, 0, 0, -2.10359525680542, 4.491391181945801, -0.27231964468955994
54270, -0.1287737786769867, 1.1426539421081543, -3.17612886428833, 0.14175964891910553, 0.017663398757576942, 0.005231232848018408, 0.026167958974838257, 0.007634333334863186, 1.0007569789886475, -2.1072800159454346, 4.501561164855957, -0.2722754180431366, 0.0, 0.0, 0.0, 0, 0, 0, 0, 0, 0, -2.1072800159454346, 4.501561164855957, -0.2722754180431366
54280, -0.12981203198432922, 1.1412038803100586, -3.1734063625335693, -0.1676395833492279, 0.11683770269155502, -0.09535618126392365, 0.02617938257753849, 0.007978466339409351, 1.0011621713638306, -2.1109585762023926, 4.511740684509277, -0.2722301483154297, 0.0, 0.0, 0.0, 0, 0, 0, 0, 0, 0, -2.1109585762023926, 4.511740684509277, -0.2722301483154297
54290, -0.13002312183380127, 1.138840913772583, -3.1698687076568604, 0.03469756618142128, -0.018007196485996246, 0.020241782069206238, 0.025282200425863266, 0.00831238366663456, 0.9999908804893494, -2.114630937576294, 4.521929740905762, -0.2721835672855377, 0.0, 0.0, 0.0, 0, 0, 0, 0, 0, 0, -2.114630937576294, 4.521929740905762, -0.2721835672855377
54300, -0.12969918549060822, 1.1389555931091309, -3.1664657592773438, 0.06822726875543594, -0.24297307431697845, -0.03914625570178032, 0.027374545112252235, 0.011564673855900764, 1.0009123086929321, -2.118297576904297, 4.53212833404541, -0.2721361815929413, 0.0, 0.0, 0.0, 0, 0, 0, 0, 0, 0, -2.118297576904297, 4.53212833404541, -0.2721361815929413
54310, -0.1282312124967575, 1.1380003690719604, -3.1629507541656494, 0.22522954642772675, 0.018781276419758797, 0.10922687500715256, 0.027172163128852844, 0.010173266753554344, 1.0019807815551758, -2.121957540512085, 4.5423383712768555, -0.272087961435318, 0.0, 0.0, 0.0, 0, 0, 0, 0, 0, 0, -2.121957540512085, 4.5423383712768555, -0.272087961435318
54320, -0.1281784325838089, 1.1373835802078247, -3.1599910259246826, -0.07835797220468521, -0.0852162092924118, -0.1806774139404297, 0.02614346705377102, 0.008194451220333576, 1.0002095699310303, -2.1256103515625, 4.552560329437256, -0.27203792333602905, 0.0, 0.0, 0.0, 0, 0, 0, 0, 0, 0, -2.1256103515625, 4.552560329437256, -0.27203792333602905
54330, -0.12858907878398895, 1.1367028951644897, -3.1562340259552, -0.04364374279975891, -0.26273173093795776, -0.0054696896113455296, 0.026039810851216316, 0.009521286934614182, 1.0023118257522583, -2.1292564868927, 4.562793254852295, -0.271986186504364, 0.0, 0.0, 0.0, 0, 0, 0, 0, 0, 0, -2.1292564868927, 4.562793254852295, -0.271986186504364
54340, -0.12879028916358948, 1.1330819129943848, -3.151089668273926, 0.02677423134446144, 0.371867835521698, 0.322420209646225, 0.02506774291396141, 0.009333917871117592, 1.002684473991394, -2.132896661758423, 4.5730366706848145, -0.2719326913356781, 0.0, 0.0, 0.0, 0, 0, 0, 0, 0, 0, -2.132896661758423, 4.5730366706848145, -0.2719326913356781
54350, -0.12880338728427887, 1.1302282810211182, -3.1462209224700928, 0.04228036850690842, 0.2784302532672882, 0.3520764708518982, 0.02352481335401535, 0.010322639718651772, 1.0022681951522827, -2.136531114578247, 4.583291053771973, -0.27187639474868774, 0.0, 0.0, 0.0, 0, 0, 0, 0, 0, 0, -2.136531114578247, 4.583291053771973, -0.27187639474868774
54360, -0.12890006601810455, 1.1269984245300293, -3.143336772918701, -0.03156740590929985, 0.21991132199764252, -0.03231126442551613, 0.024733547121286392, 0.010850596241652966, 1.0017788410186768, -2.1401610374450684, 4.593556880950928, -0.2718171775341034, 0.0, 0.0, 0.0, 0, 0, 0, 0, 0, 0, -2.1401610374450684, 4.593556880950928, -0.2718171775341034
54370, -0.12880836427211761, 1.1231026649475098, -3.1407413482666016, 0.01660982333123684, 0.12462140619754791, -0.1540611982345581, 0.025296077132225037, 0.007085586432367563, 1.0017179250717163, -2.1437864303588867, 4.603834629058838, -0.2717556357383728, 0.0, 0.0, 0.0, 0, 0, 0, 0, 0, 0, -2.1437864303588867, 4.603834629058838, -0.2717556357383728
54380, -0.12960736453533173, 1.1200764179229736, -3.1369988918304443, -0.15306727588176727, 0.2126510888338089, 0.04048435389995575, 0.025277744978666306, 0.010458334349095821, 1.002280592918396, -2.147406578063965, 4.6141228675842285, -0.2716920077800751, 0.0, 0.0, 0.0, 0, 0, 0, 0, 0, 0, -2.147406578063965, 4.6141228675842285, -0.2716920077800751
54390, -0.12832827866077423, 1.1186883449554443, -3.1344218254089355, 0.15259604156017303, 0.14943557977676392, -0.02580956183373928, 0.025321317836642265, 0.00839685183018446, 1.0028059482574463, -2.1510210037231445, 4.6244215965271, -0.27162596583366394, 0.0, 0.0, 0.0, 0, 0, 0, 0, 0, 0, -2.1510210037231445, 4.6244215965271, -0.27162596583366394
54400, -0.1268233209848404, 1.117884635925293, -3.1313486099243164, 0.24242587387561798, -0.10011015832424164, 0.0842469334602356, 0.026298072189092636, 0.0073402016423642635, 1.000725507736206, -2.154629945755005, 4.634731292724609, -0.2715570330619812, 0.0, 0.0, 0.0, 0, 0, 0, 0, 0, 0, -2.154629945755005, 4.634731292724609, -0.2715570330619812
54410, -0.1263951063156128, 1.1177786588668823, -3.127345085144043, 0.038094501942396164, -0.20175649225711823, -0.10144554078578949, 0.028004566207528114, 0.008029286749660969, 1.0011743307113647, -2.1582326889038086, 4.645050048828125, -0.2714858055114746, 0.0, 0.0, 0.0, 0, 0, 0, 0, 0, 0, -2.1582326889038086, 4.645050048828125, -0.2714858055114746
54420, -0.1269843876361847, 1.1153442859649658, -3.1243555545806885, -0.020312946289777756, 0.07428626716136932, -0.04041915759444237, 0.02627251297235489, 0.00810555275529623, 1.0025299787521362, -2.1618282794952393, 4.655378341674805, -0.27141299843788147, 0.0, 0.0, 0.0, 0, 0, 0, 0, 0, 0, -2.1618282794952393, 4.655378341674805, -0.27141299843788147
54430, -0.12573358416557312, 1.114187240600586, -3.120887041091919, 0.018057571724057198, 0.29369598627090454, 0.15461918711662292, 0.025095166638493538, 0.009230603463947773, 1.0012050867080688, -2.1654164791107178, 4.66571569442749, -0.27133798599243164, 0.0, 0.0, 0.0, 0, 0, 0, 0, 0, 0, -2.1654164791107178, 4.66571569442749, -0.27133798599243164
54440, -0.12589535117149353, 1.111444354057312, -3.117823362350464, -0.07522200047969818, 0.1708657443523407, -0.06110960617661476, 0.026017645373940468, 0.00805488508194685, 0.999752938747406, -2.1689987182617188, 4.676063060760498, -0.27126094698905945, 0.0, 0.0, 0.0, 0, 0, 0, 0, 0, 0, -2.1689987182617188, 4.676063060760498, -0.27126094698905945
54450, -0.12568563222885132, 1.1077204942703247, -3.1144585609436035, 0.030947046354413033, 0.3122446537017822, -0.013168832287192345, 0.028397493064403534, 0.008704086765646935, 1.0025843381881714, -2.172574520111084, 4.686420440673828, -0.27118295431137085, 0.0, 0.0, 0.0, 0, 0, 0, 0, 0, 0, -2.172574520111084, 4.686420440673828, -0.27118295431137085
54460, -0.12613603472709656, 1.106765866279602, -3.110394239425659, -0.08198795467615128, -0.04120595380663872, 0.078226238489151, 0.027166619896888733, 0.010190673172473907, 1.0031553506851196, -2.176142692565918, 4.6967878341674805, -0.2711034119129181, 0.0, 0.0, 0.0, 0, 0, 0, 0, 0, 0, -2.176142692565918, 4.6967878341674805, -0.2711034119129181
54470, -0.12739698588848114, 1.1039519309997559, -3.1070756912231445, -0.1809701770544052, 0.22596792876720428, -0.09233876317739487, 0.025390472263097763, 0.007456963416188955, 1.001013994216919, -2.1797027587890625, 4.7071661949157715, -0.2710210084915161, 0.0, 0.0, 0.0, 0, 0, 0, 0, 0, 0, -2.1797027587890625, 4.7071661949157715, -0.2710210084915161
54480, -0.1262865960597992, 1.1017447710037231, -3.103358507156372, 0.11193830519914627, 0.08576583862304688, 0.014543429017066956, 0.024528078734874725, 0.007116234861314297, 0.9998274445533752, -2.183256149291992, 4.717554569244385, -0.27093616127967834, 0.0, 0.0, 0.0, 0, 0, 0, 0, 0, 0, -2.183256149291992, 4.717554569244385, -0.27093616127967834
54490, -0.12615720927715302, 1.09891676902771, -3.0988340377807617, -0.023579571396112442, 0.2685156464576721, 0.1713012158870697, 0.02417171187698841, 0.009643316268920898, 1.0014046430587769, -2.1868042945861816, 4.727952003479004, -0.270850270986557, 0.0, 0.0, 0.0, 0, 0, 0, 0, 0, 0, -2.1868042945861816, 4.727952003479004, -0.270850270986557
54500, -0.12566961348056793, 1.0972254276275635, -3.095747232437134, 0.14832302927970886, 0.05003749206662178, 0.034559622406959534, 0.02384653128683567, 0.008537035435438156, 1.0012050867080688, -2.19034743309021, 4.738359451293945, -0.2707635164260864, 0.0, 0.0, 0.0, 0, 0, 0, 0, 0, 0, -2.19034743309021, 4.738359451293945, -0.2707635164260864
54510, -0.12475821375846863, 1.095835566520691, -3.092707633972168, 0.1789276897907257, -0.16263191401958466, 0.0130387581884861, 0.026119166985154152, 0.007120172493159771, 1.0005571842193604, -2.1938858032226562, 4.748777389526367, -0.27067533135414124, 0.0, 0.0, 0.0, 0, 0, 0, 0, 0, 0, -2.1938858032226562, 4.748777389526367, -0.27067533135414124
54520, -0.12499501556158066, 1.0936628580093384, -3.090690851211548, 0.010594702325761318, 0.08593563735485077, -0.08470869809389114, 0.024913668632507324, 0.0076164607889950275, 0.9999197721481323, -2.197418689727783, 4.759204864501953, -0.2705860137939453, 0.0, 0.0, 0.0, 0, 0, 0, 0, 0, 0, -2.197418689727783, 4.759204864501953, -0.2705860137939453
54530, -0.1243734285235405, 1.0905524492263794, -3.087547540664673, -0.012058272026479244, 0.0960259884595871, 0.06403903663158417, 0.023987676948308945, 0.008933600038290024, 1.0011476278305054, -2.2009456157684326, 4.769641399383545, -0.2704959809780121, 0.0, 0.0, 0.0, 0, 0, 0, 0, 0, 0, -2.2009456157684326, 4.769641399383545, -0.2704959809780121
54540, -0.12493433058261871, 1.0890588760375977, -3.0864768028259277, -0.1300441473722458, 0.06637051701545715, -0.2780563235282898, 0.02258257567882538, 0.008726558648049831, 1.0014774799346924, -2.2044670581817627, 4.780087471008301, -0.2704051434993744, 0.0, 0.0, 0.0, 0, 0, 0, 0, 0, 0, -2.2044670581817627, 4.780087471008301, -0.2704051434993744
54550, -0.12431245297193527, 1.0867215394973755, -3.082799196243286, 0.10526613891124725, 0.2607554793357849, 0.08717997372150421, 0.023889536038041115, 0.00976350624114275, 1.0004032850265503, -2.207984209060669, 4.790543556213379, -0.2703130543231964, 0.0, 0.0, 0.0, 0, 0, 0, 0, 0, 0, -2.207984209060669, 4.790543556213379, -0.2703130543231964
54560, -0.12432843446731567, 1.086574673652649, -3.0802061557769775, -0.047236740589141846, -0.23714792728424072, -0.013660934753715992, 0.02389374002814293, 0.007170217111706734, 1.0015451908111572, -2.2114970684051514, 4.8010101318359375, -0.2702197730541229, 0.0, 0.0, 0.0, 0, 0, 0, 0, 0, 0, -2.2114970684051514, 4.8010101318359375, -0.2702197730541229
54570, -0.12382861226797104, 1.0846226215362549, -3.0770134925842285, 0.041685800999403, 0.1299324482679367, 0.14853183925151825, 0.024592062458395958, 0.008122761733829975, 0.9998055696487427, -2.2150049209594727, 4.811487197875977, -0.27012521028518677, 0.0, 0.0, 0.0, 0, 0, 0, 0, 0, 0, -2.2150049209594727, 4.811487197875977, -0.27012521028518677
54580, -0.12352653592824936, 1.0846116542816162, -3.0740554332733154, 0.0005806736298836768, -0.2469574511051178, -0.006923483218997717, 0.02643739804625511, 0.009700994938611984, 0.9997093081474304, -2.2185075283050537, 4.8219733238220215, -0.2700296640396118, 0.0, 0.0, 0.0, 0, 0, 0, 0, 0, 0, -2.2185075283050537, 4.8219733238220215, -0.2700296640396118
54590, -0.12290991097688675, 1.0820226669311523, -3.072690725326538, 0.05674215778708458, 0.0955631285905838, -0.2631652355194092, 0.02442401461303234, 0.008139362558722496, 1.0006600618362427, -2.222003698348999, 4.832469940185547, -0.26993390917778015, 0.0, 0.0, 0.0, 0, 0, 0, 0, 0, 0, -2.222003698348999, 4.832469940185547, -0.26993390917778015
54600, -0.12202513962984085, 1.0796858072280884, -3.0689280033111572, 0.07908570021390915, 0.07411748170852661, 0.09090837836265564, 0.024239514023065567, 0.007971442304551601, 1.0009263753890991, -2.2254934310913086, 4.8429765701293945, -0.26983755826950073, 0.0, 0.0, 0.0, 0, 0, 0, 0, 0, 0, -2.2254934310913086, 4.8429765701293945, -0.26983755826950073
54610, -0.12209121137857437, 1.0785796642303467, -3.0671346187591553, -0.11014745384454727, 0.252876341342926, 0.01209605298936367, 0.023901378735899925, 0.008534446358680725, 1.0000019073486328, -2.228977918624878, 4.853492736816406, -0.26974013447761536, 0.0, 0.0, 0.0, 0, 0, 0, 0, 0, 0, -2.228977918624878, 4.853492736816406, -0.26974013447761536
54620, -0.12088320404291153, 1.0788921117782593, -3.0645735263824463, 0.12836451828479767, -0.043304093182086945, -0.1124752089381218, 0.025182029232382774, 0.009209491312503815, 0.9993177652359009, -2.232457160949707, 4.864018440246582, -0.2696421146392822, 0.0, 0.0, 0.0, 0, 0, 0, 0, 0, 0, -2.232457160949707, 4.864018440246582, -0.2696421146392822
54630, -0.12112335115671158, 1.0768753290176392, -3.0627732276916504, -0.21284517645835876, 0.08018616586923599, -0.2783285081386566, 0.025727907195687294, 0.010049035772681236, 0.9993647933006287, -2.2359306812286377, 4.874554634094238, -0.26954418420791626, 0.0, 0.0, 0.0, 0, 0, 0, 0, 0, 0, -2.2359306812286377, 4.874554634094238, -0.26954418420791626
54640, -0.12121150642633438, 1.0765128135681152, -3.059372663497925, -0.09310375899076462, 0.005664640571922064, 0.1493004858493805, 0.02756965160369873, 0.008199078030884266, 1.0020791292190552, -2.2393977642059326, 4.885101795196533, -0.2694464325904846, 0.0, 0.0, 0.0, 0, 0, 0, 0, 0, 0, -2.2393977642059326, 4.885101795196533, -0.2694464325904846
54650, -0.12161711603403091, 1.073171854019165, -3.05631160736084, -0.22863207757472992, 0.22697952389717102, -0.002295325044542551, 0.02445165626704693, 0.007746695540845394, 1.0011686086654663, -2.2428572177886963, 4.89565896987915, -0.26934757828712463, 0.0, 0.0, 0.0, 0, 0, 0, 0, 0, 0, -2.2428572177886963, 4.89565896987915, -0.26934757828712463
54660, -0.12165877223014832, 1.0703486204147339, -3.052628755569458, 0.0060241008177399635, 0.051481373608112335, 0.19371861219406128, 0.024585740640759468, 0.006435982882976532, 1.0001740455627441, -2.246309757232666, 4.906225204467773, -0.26924699544906616, 0.0, 0.0, 0.0, 0, 0, 0, 0, 0, 0, -2.246309757232666, 4.906225204467773, -0.26924699544906616
54670, -0.12093140184879303, 1.0685590505599976, -3.0492055416107178, 0.052757494151592255, 0.28225603699684143, 0.086776003241539, 0.02348984219133854, 0.0061661247164011, 1.000059723854065, -2.2497565746307373, 4.916800022125244, -0.2691454589366913, 0.0, 0.0, 0.0, 0, 0, 0, 0, 0, 0, -2.2497565746307373, 4.916800022125244, -0.2691454589366913
54680, -0.11973389238119125, 1.0698115825653076, -3.046571969985962, 0.22110530734062195, -0.1249818354845047, -0.14565733075141907, 0.024466274306178093, 0.008291899226605892, 0.9995747804641724, -2.2531981468200684, 4.927382469177246, -0.2690432667732239, 0.0, 0.0, 0.0, 0, 0, 0, 0, 0, 0, -2.2531981468200684, 4.927382469177246, -0.2690432667732239
54690, -0.11897838115692139, 1.0694739818572998, -3.043149471282959, 0.004116416908800602, -0.0778718963265419, 0.006577203515917063, 0.024266665801405907, 0.008940561674535275, 0.9992960095405579, -2.2566347122192383, 4.937973976135254, -0.2689407169818878, 0.0, 0.0, 0.0, 0, 0, 0, 0, 0, 0, -2.2566347122192383, 4.937973976135254, -0.2689407169818878
54700, -0.11865777522325516, 1.0662845373153687, -3.038726329803467, 0.023665742948651314, 0.3127124011516571, 0.1357857882976532, 0.023232178762555122, 0.010606235824525356, 1.0018404722213745, -2.2600655555725098, 4.948575019836426, -0.268838107585907, 0.0, 0.0, 0.0, 0, 0, 0, 0, 0, 0, -2.2600655555725098, 4.948575019836426, -0.268838107585907
54710, -0.11877428740262985, 1.0672780275344849, -3.0358269214630127, -0.006342011969536543, -0.1976555734872818, -0.06871289759874344, 0.023548385128378868, 0.007607603445649147, 1.001268982887268, -2.263491153717041, 4.959187030792236, -0.2687343657016754, 0.0, 0.0, 0.0, 0, 0, 0, 0, 0, 0, -2.263491153717041, 4.959187030792236, -0.2687343657016754
54720, -0.11858649551868439, 1.0667595863342285, -3.034332036972046, 0.06762097030878067, 0.013569342903792858, -0.1662367880344391, 0.02334761805832386, 0.007343256380409002, 1.0008043050765991, -2.2669122219085693, 4.969809532165527, -0.2686287462711334, 0.0, 0.0, 0.0, 0, 0, 0, 0, 0, 0, -2.2669122219085693, 4.969809532165527, -0.2686287462711334
54730, -0.11759905517101288, 1.0648540258407593, -3.0319478511810303, 0.22626636922359467, 0.229265034198761, 0.03371945023536682, 0.026653794571757317, 0.008410854265093803, 0.9999822974205017, -2.2703285217285156, 4.980441093444824, -0.268521785736084, 0.0, 0.0, 0.0, 0, 0, 0, 0, 0, 0, -2.2703285217285156, 4.980441093444824, -0.268521785736084
54740, -0.11729991436004639, 1.064125418663025, -3.0283286571502686, -0.06970266252756119, -0.06275594234466553, 0.20976601541042328, 0.02633531205356121, 0.009312080219388008, 1.001285195350647, -2.2737386226654053, 4.991081714630127, -0.2684139907360077, 0.0, 0.0, 0.0, 0, 0, 0, 0, 0, 0, -2.2737386226654053, 4.991081714630127, -0.2684139907360077
54750, -0.1170693188905716, 1.0619064569473267, -3.025566816329956, 0.08530180156230927, 0.22386597096920013, -0.04018406942486763, 0.024698056280612946, 0.009342510253190994, 0.9999361634254456, -2.2771413326263428, 5.001732349395752, -0.2683050036430359, 0.0, 0.0, 0.0, 0, 0, 0, 0, 0, 0, -2.2771413326263428, 5.001732349395752, -0.2683050036430359
54760, -0.11711975187063217, 1.0595821142196655, -3.0230629444122314, -0.07875988632440567, 0.02604331634938717, -0.07577789574861526, 0.02395782805979252, 0.00954604521393776, 1.0019508600234985, -2.2805373668670654, 5.012393951416016, -0.26819485425949097, 0.0, 0.0, 0.0, 0, 0, 0, 0, 0, 0, -2.2805373668670654, 5.012393951416016, -0.26819485425949097
54770, -0.11814215034246445, 1.0569279193878174, -3.0205883979797363, -0.2217346727848053, 0.0337982177734375, 0.00997144915163517, 0.02586587890982628, 0.00894292164593935, 1.001210331916809, -2.2839276790618896, 5.02306604385376, -0.2680833339691162, 0.0, 0.0, 0.0, 0, 0, 0, 0, 0, 0, -2.2839276790618896, 5.02306604385376, -0.2680833339691162
54780, -0.11746848374605179, 1.0523395538330078, -3.0175349712371826, 0.13072015345096588, 0.42415091395378113, 0.020351430401206017, 0.026021482422947884, 0.007710373494774103, 0.9994070529937744, -2.287311553955078, 5.033748626708984, -0.2679700255393982, 0.0, 0.0, 0.0, 0, 0, 0, 0, 0, 0, -2.287311553955078, 5.033748626708984, -0.2679700255393982
54790, -0.11761869490146637, 1.049273133277893, -3.015061378479004, -0.09916611015796661, 0.21300438046455383, -0.13683629035949707, 0.023843415081501007, 0.007596665062010288, 1.0010566711425781, -2.2906882762908936, 5.044440269470215, -0.26785609126091003, 0.0, 0.0, 0.0, 0, 0, 0, 0, 0, 0, -2.2906882762908936, 5.044440269470215, -0.26785609126091003
54800, -0.11655110120773315, 1.0475120544433594, -3.0107338428497314, 0.028316639363765717, 0.07042202353477478, 0.18875734508037567, 0.02483176998794079, 0.006022269371896982, 1.0035181045532227, -2.2940585613250732, 5.055140972137451, -0.26774144172668457, 0.0, 0.0, 0.0, 0, 0, 0, 0, 0, 0, -2.2940585613250732, 5.055140972137451, -0.26774144172668457
54810, -0.11589697748422623, 1.0439567565917969, -3.0084681510925293, 0.05693435296416283, 0.3045485019683838, 0.05702956020832062, 0.025012347847223282, 0.004769469611346722, 1.0029493570327759, -2.2974228858947754, 5.065849781036377, -0.2676243185997009, 0.0, 0.0, 0.0, 0, 0, 0, 0, 0, 0, -2.2974228858947754, 5.065849781036377, -0.2676243185997009
54820, -0.11539174616336823, 1.0428247451782227, -3.004382371902466, 0.09913035482168198, 0.022122666239738464, 0.1254296749830246, 0.024294981732964516, 0.008573830127716064, 1.0017958879470825, -2.300781011581421, 5.076565742492676, -0.267503947019577, 0.0, 0.0, 0.0, 0, 0, 0, 0, 0, 0, -2.300781011581421, 5.076565742492676, -0.267503947019577
54830, -0.11465059220790863, 1.040910005569458, -3.001465320587158, 0.08775895833969116, 0.22141097486019135, 0.006756009999662638, 0.02493635192513466, 0.010172761045396328, 0.9991403222084045, -2.304133176803589, 5.087289810180664, -0.26738113164901733, 0.0, 0.0, 0.0, 0, 0, 0, 0, 0, 0, -2.304133176803589, 5.087289810180664, -0.26738113164901733
54840, -0.11360287666320801, 1.0415997505187988, -2.9993762969970703, 0.15604737401008606, -0.4993644952774048, -0.16347742080688477, 0.023707430809736252, 0.005855783820152283, 1.0001717805862427, -2.3074791431427, 5.098023891448975, -0.2672576308250427, 0.0, 0.0, 0.0, 0, 0, 0, 0, 0, 0, -2.3074791431427, 5.098023891448975, -0.2672576308250427
54850, -0.11358126252889633, 1.0396664142608643, -2.993880271911621, 0.05479517951607704, 0.07725687325000763, 0.33936649560928345, 0.023947561159729958, 0.008397831581532955, 0.9994361996650696, -2.310818910598755, 5.108767509460449, -0.2671339809894562, 0.0, 0.0, 0.0, 0, 0, 0, 0, 0, 0, -2.310818910598755, 5.108767509460449, -0.2671339809894562
54860, -0.11414683610200882, 1.0390801429748535, -2.989776134490967, -0.03337501361966133, -0.16182763874530792, 0.08982427418231964, 0.02507355436682701, 0.009415002539753914, 1.0010675191879272, -2.3141531944274902, 5.1195197105407715, -0.2670099437236786, 0.0, 0.0, 0.0, 0, 0, 0, 0, 0, 0, -2.3141531944274902, 5.1195197105407715, -0.2670099437236786
54870, -0.11342968046665192, 1.0372554063796997, -2.9854214191436768, 0.18923155963420868, 0.09461916238069534, 0.30842405557632446, 0.02410978637635708, 0.009151795879006386, 0.999521791934967, -2.317481279373169, 5.130281925201416, -0.2668851912021637, 0.0, 0.0, 0.0, 0, 0, 0, 0, 0, 0, -2.317481279373169, 5.130281925201416, -0.2668851912021637
54880, -0.11405251920223236, 1.0354986190795898, -2.983219861984253, -0.0873333066701889, 0.09488697350025177, -0.0026729456149041653, 0.02485811337828636, 0.007290321867913008, 1.0009602308273315, -2.320802927017212, 5.141054153442383, -0.2667596638202667, 0.0, 0.0, 0.0, 0, 0, 0, 0, 0, 0, -2.320802927017212, 5.141054153442383, -0.2667596638202667
54890, -0.11427497863769531, 1.0331650972366333, -2.980085849761963, 0.0028027391526848078, 0.2193073332309723, 0.12104050815105438, 0.023461412638425827, 0.00921669602394104, 0.9999685287475586, -2.324118137359619, 5.151835918426514, -0.26663336157798767, 0.0, 0.0, 0.0, 0, 0, 0, 0, 0, 0, -2.324118137359619, 5.151835918426514, -0.26663336157798767
54900, -0.11403001844882965, 1.0311896800994873, -2.9783968925476074, 0.05052730813622475, 0.07792068272829056, -0.12379545718431473, 0.0229598768055439, 0.00938508938997984, 1.000343918800354, -2.327427387237549, 5.162627220153809, -0.2665064036846161, 0.0, 0.0, 0.0, 0, 0, 0, 0, 0, 0, -2.327427387237549, 5.162627220153809, -0.2665064036846161
54910, -0.1137864887714386, 1.0302375555038452, -2.9750072956085205, -0.03649793192744255, -0.27226123213768005, 0.002320948289707303, 0.0243168156594038, 0.00869107898324728, 1.0018377304077148, -2.3307313919067383, 5.173429012298584, -0.26637905836105347, 0.0, 0.0, 0.0, 0, 0, 0, 0, 0, 0, -2.3307313919067383, 5.173429012298584, -0.26637905836105347
54920, -0.11332393437623978, 1.0290448665618896, -2.9722115993499756, 0.05657419189810753, 0.09786368161439896, 0.03302584961056709, 0.02519889734685421, 0.008214741013944149, 0.9997400641441345, -2.3340299129486084, 5.18424129486084, -0.26625046133995056, 0.0, 0.0, 0.0, 0, 0, 0, 0, 0, 0, -2.3340299129486084, 5.18424129486084, -0.26625046133995056
54930, -0.11324600875377655, 1.0259878635406494, -2.9703993797302246, -0.013970953412353992, 0.3355018198490143, -0.17963680624961853, 0.026014525443315506, 0.00877944752573967, 1.0008796453475952, -2.3373219966888428, 5.19506311416626, -0.2661207318305969, 0.0, 0.0, 0.0, 0, 0, 0, 0, 0, 0, -2.3373219966888428, 5.19506311416626, -0.2661207318305969
54940, -0.11286471039056778, 1.0251790285110474, -2.9682250022888184, 0.14990681409835815, -0.1019575446844101, 0.010635774582624435, 0.024072522297501564, 0.008632801473140717, 1.0011061429977417, -2.340606689453125, 5.205894470214844, -0.26599013805389404, 0.0, 0.0, 0.0, 0, 0, 0, 0, 0, 0, -2.340606689453125, 5.205894470214844, -0.26599013805389404
54950, -0.11378307640552521, 1.0246220827102661, -2.9667155742645264, -0.14048178493976593, -0.0011414543259888887, -0.12232579290866852, 0.024038678035140038, 0.007043014746159315, 1.0021696090698242, -2.3438844680786133, 5.21673583984375, -0.26585787534713745, 0.0, 0.0, 0.0, 0, 0, 0, 0, 0, 0, -2.3438844680786133, 5.21673583984375, -0.26585787534713745
54960, -0.11481612920761108, 1.02393639087677, -2.9650068283081055, -0.13298147916793823, 0.0702211931347847, 0.09597568958997726, 0.024662138894200325, 0.007192759774625301, 1.0010677576065063, -2.347156286239624, 5.227586269378662, -0.26572340726852417, 0.0, 0.0, 0.0, 0, 0, 0, 0, 0, 0, -2.347156286239624, 5.227586269378662, -0.26572340726852417
54970, -0.11544102430343628, 1.0219268798828125, -2.9630227088928223, -0.017484940588474274, 0.14287853240966797, -0.01742403954267502, 0.02638431452214718, 0.008905601687729359, 1.0003739595413208, -2.350421905517578, 5.23844575881958, -0.2655869126319885, 0.0, 0.0, 0.0, 0, 0, 0, 0, 0, 0, -2.350421905517578, 5.23844575881958, -0.2655869126319885
54980, -0.11619573086500168, 1.0238323211669922, -2.9610016345977783, -0.028973570093512535, -0.5385729670524597, -0.13401837646961212, 0.024832749739289284, 0.007879183627665043, 1.0003410577774048, -2.353679895401001, 5.249314785003662, -0.2654491364955902, 0.0, 0.0, 0.0, 0, 0, 0, 0, 0, 0, -2.353679895401001, 5.249314785003662, -0.2654491364955902
54990, -0.11683978140354156, 1.0230227708816528, -2.958482503890991, -0.086450956761837, -0.12231431901454926, 0.05365484207868576, 0.024241143837571144, 0.009024976752698421, 0.9996527433395386, -2.3569304943084717, 5.260193347930908, -0.26531073451042175, 0.0, 0.0, 0.0, 0, 0, 0, 0, 0, 0, -2.3569304943084717, 5.260193347930908, -0.26531073451042175
55000, -0.11577798426151276, 1.0227489471435547, -2.9559102058410645, 0.10159432142972946, 0.07102293521165848, 0.07036743313074112, 0.026338785886764526, 0.008068418130278587, 0.9994221329689026, -2.3601744174957275, 5.271081447601318, -0.26517197489738464, 0.0, 0.0, 0.0, 0, 0, 0, 0, 0, 0, -2.3601744174957275, 5.271081447601318, -0.26517197489738464
55010, -0.11539780348539352, 1.021855354309082, -2.9528589248657227, 0.00842666532844305, -0.08324794471263885, -0.026835361495614052, 0.024730291217565536, 0.007696880027651787, 1.0008407831192017, -2.3634111881256104, 5.281979084014893, -0.2650330066680908, 0.0, 0.0, 0.0, 0, 0, 0, 0, 0, 0, -2.3634111881256104, 5.281979084014893, -0.2650330066680908
55020, -0.11572153866291046, 1.0230337381362915, -2.949341297149658, -0.08135806024074554, -0.23901471495628357, -0.0075385854579508305, 0.023686541244387627, 0.007808626629412174, 0.9998095035552979, -2.366640567779541, 5.292885780334473, -0.264893501996994, 0.0, 0.0, 0.0, 0, 0, 0, 0, 0, 0, -2.366640567779541, 5.292885780334473, -0.264893501996994
55030, -0.11563796550035477, 1.0203626155853271, -2.9470760822296143, 0.09872056543827057, 0.1448218673467636, -0.10476705431938171, 0.02550405077636242, 0.009683812037110329, 1.0011008977890015, -2.369863510131836, 5.303801536560059, -0.26475322246551514, 0.0, 0.0, 0.0, 0, 0, 0, 0, 0, 0, -2.369863510131836, 5.303801536560059, -0.26475322246551514
55040, -0.11567099392414093, 1.0192762613296509, -2.9442362785339355, -0.007461001630872488, -0.10307348519563675, -0.08557382225990295, 0.025429528206586838, 0.00876571424305439, 0.999289333820343, -2.373079776763916, 5.314727306365967, -0.2646121084690094, 0.0, 0.0, 0.0, 0, 0, 0, 0, 0, 0, -2.373079776763916, 5.314727306365967, -0.2646121084690094
55050, -0.11589258909225464, 1.0167022943496704, -2.941603183746338, -0.021805237978696823, 0.33826202154159546, -0.16116860508918762, 0.025753505527973175, 0.009229698218405247, 1.001231074333191, -2.376288652420044, 5.3256635665893555, -0.26447054743766785, 0.0, 0.0, 0.0, 0, 0, 0, 0, 0, 0, -2.376288652420044, 5.3256635665893555, -0.26447054743766785
55060, -0.11744111031293869, 1.0147727727890015, -2.9371449947357178, -0.12212124466896057, -0.038585081696510315, 0.13461834192276, 0.02528894506394863, 0.009403737261891365, 1.0027698278427124, -2.3794898986816406, 5.336610317230225, -0.2643283009529114, 0.0, 0.0, 0.0, 0, 0, 0, 0, 0, 0, -2.3794898986816406, 5.336610317230225, -0.2643283009529114
55070, -0.11688345670700073, 1.0134985446929932, -2.9340128898620605, 0.10004334151744843, 0.08066607266664505, 0.16004686057567596, 0.024794509634375572, 0.007751218508929014, 1.0012035369873047, -2.382683753967285, 5.347567558288574, -0.26418378949165344, 0.0, 0.0, 0.0, 0, 0, 0, 0, 0, 0, -2.382683753967285, 5.347567558288574, -0.26418378949165344
55080, -0.11697181314229965, 1.0129122734069824, -2.9320507049560547, -0.06280816346406937, -0.07738504558801651, -0.2578747272491455, 0.026212159544229507, 0.008895764127373695, 1.0013728141784668, -2.3858704566955566, 5.358534812927246, -0.2640369236469269, 0.0, 0.0, 0.0, 0, 0, 0, 0, 0, 0, -2.3858704566955566, 5.358534812927246, -0.2640369236469269
55090, -0.11595727503299713, 1.0107451677322388, -2.929858684539795, 0.26880067586898804, 0.25997769832611084, -0.03803855925798416, 0.027006782591342926, 0.007370388135313988, 0.9996511340141296, -2.389049530029297, 5.369511604309082, -0.2638886272907257, 0.0, 0.0, 0.0, 0, 0, 0, 0, 0, 0, -2.389049530029297, 5.369511604309082, -0.2638886272907257
55100, -0.11606301367282867, 1.0109292268753052, -2.929392099380493, 0.008859329856932163, -0.26935040950775146, -0.3203265070915222, 0.02672019600868225, 0.008891267701983452, 1.001145362854004, -2.3922197818756104, 5.380497932434082, -0.26373958587646484, 0.0, 0.0, 0.0, 0, 0, 0, 0, 0, 0, -2.3922197818756104, 5.380497932434082, -0.26373958587646484
55110, -0.11637233942747116, 1.0113285779953003, -2.925872564315796, 0.13657444715499878, -0.10608116537332535, 0.10807259380817413, 0.026730000972747803, 0.007893430069088936, 1.0003703832626343, -2.395380973815918, 5.391493797302246, -0.2635897994041443, 0.0, 0.0, 0.0, 0, 0, 0, 0, 0, 0, -2.395380973815918, 5.391493797302246, -0.2635897994041443
55120, -0.11580989509820938, 1.0099730491638184, -2.9228997230529785, 0.019339054822921753, 0.114621601998806, 0.038243625313043594, 0.024598345160484314, 0.00844571739435196, 0.9992029070854187, -2.398533344268799, 5.402499198913574, -0.26343902945518494, 0.0, 0.0, 0.0, 0, 0, 0, 0, 0, 0, -2.398533344268799, 5.402499198913574, -0.26343902945518494
55130, -0.1176881417632103, 1.0069364309310913, -2.918825149536133, -0.3859489858150482, 0.18123629689216614, 0.17214392125606537, 0.024230429902672768, 0.010127178393304348, 0.9984245896339417, -2.4016780853271484, 5.413514137268066, -0.26328808069229126, 0.0, 0.0, 0.0, 0, 0, 0, 0, 0, 0, -2.4016780853271484, 5.413514137268066, -0.26328808069229126
55140, -0.11818546801805496, 1.0056767463684082, -2.9170026779174805, 0.009481443092226982, 0.1525072604417801, -0.07547929137945175, 0.02494996413588524, 0.008266091346740723, 1.001047134399414, -2.404816150665283, 5.424539566040039, -0.2631378173828125, 0.0, 0.0, 0.0, 0, 0, 0, 0, 0, 0, -2.404816150665283, 5.424539566040039, -0.2631378173828125
55150, -0.11829300224781036, 1.0028835535049438, -2.913633346557617, 0.105179563164711, 0.2974961996078491, -0.03832633048295975, 0.023806266486644745, 0.008175290189683437, 1.001874566078186, -2.407947301864624, 5.435575485229492, -0.2629874050617218, 0.0, 0.0, 0.0, 0, 0, 0, 0, 0, 0, -2.407947301864624, 5.435575485229492, -0.2629874050617218
55160, -0.11820108443498611, 1.0023036003112793, -2.9111130237579346, 0.010442408733069897, -0.025169778615236282, -0.216715008020401, 0.024038678035140038, 0.008731337264180183, 1.0000098943710327, -2.41107177734375, 5.446620941162109, -0.26283544301986694, 0.0, 0.0, 0.0, 0, 0, 0, 0, 0, 0, -2.41107177734375, 5.446620941162109, -0.26283544301986694
55170, -0.11825442314147949, 0.9986770153045654, -2.906210422515869, 0.10701055824756622, 0.40958836674690247, 0.27621251344680786, 0.024456027895212173, 0.00783002469688654, 0.9992149472236633, -2.4141902923583984, 5.457676410675049, -0.26268234848976135, 0.0, 0.0, 0.0, 0, 0, 0, 0, 0, 0, -2.4141902923583984, 5.457676410675049, -0.26268234848976135
55180, -0.11796411126852036, 0.996784508228302, -2.9031951427459717, -0.028037305921316147, 0.057663679122924805, 0.04637868329882622, 0.025078659877181053, 0.007807928137481213, 1.0000064373016357, -2.417302370071411, 5.468741416931152, -0.2625291645526886, 0.0, 0.0, 0.0, 0, 0, 0, 0, 0, 0, -2.417302370071411, 5.468741416931152, -0.2625291645526886
55190, -0.1181696429848671, 0.9945626854896545, -2.8998665809631348, 0.00985965970903635, 0.08319911360740662, 0.18236708641052246, 0.02704133838415146, 0.011299379169940948, 0.9996150135993958, -2.420407295227051, 5.479815483093262, -0.26237601041793823, 0.0, 0.0, 0.0, 0, 0, 0, 0, 0, 0, -2.420407295227051, 5.479815483093262, -0.26237601041793823
55200, -0.11852049082517624, 0.9933939576148987, -2.8970627784729004, -0.012951287440955639, 0.11637628823518753, 0.07385718077421188, 0.02598152868449688, 0.012647123076021671, 1.0003055334091187, -2.423503875732422, 5.49090051651001, -0.26222267746925354, 0.0, 0.0, 0.0, 0, 0, 0, 0, 0, 0, -2.423503875732422, 5.49090051651001, -0.26222267746925354
55210, -0.11792609095573425, 0.9931047558784485, -2.893646001815796, -0.041105858981609344, 0.04839721694588661, 0.027505284175276756, 0.02537250705063343, 0.008898490108549595, 0.9996563792228699, -2.426591634750366, 5.501997947692871, -0.26206910610198975, 0.0, 0.0, 0.0, 0, 0, 0, 0, 0, 0, -2.426591634750366, 5.501997947692871, -0.26206910610198975
55220, -0.11727092415094376, 0.9920648336410522, -2.890117883682251, 0.06950678676366806, 0.15553627908229828, 0.1188742145895958, 0.024817749857902527, 0.007210207637399435, 1.0000587701797485, -2.429671287536621, 5.5131072998046875, -0.26191526651382446, 0.0, 0.0, 0.0, 0, 0, 0, 0, 0, 0, -2.429671287536621, 5.5131072998046875, -0.26191526651382446
55230, -0.11722219735383987, 0.990797758102417, -2.888436794281006, 0.09893295913934708, 0.10708554834127426, -0.0965951606631279, 0.0246842410415411, 0.0073626223020255566, 1.0001105070114136, -2.432743549346924, 5.524226188659668, -0.2617611587047577, 0.0, 0.0, 0.0, 0, 0, 0, 0, 0, 0, -2.432743549346924, 5.524226188659668, -0.2617611587047577
55240, -0.11793150752782822, 0.9887006878852844, -2.8846983909606934, -0.027022497728466988, 0.022048700600862503, 0.03747670724987984, 0.025148192420601845, 0.006946909707039595, 1.0000966787338257, -2.4358086585998535, 5.535354137420654, -0.26160678267478943, 0.0, 0.0, 0.0, 0, 0, 0, 0, 0, 0, -2.4358086585998535, 5.535354137420654, -0.26160678267478943
55250, -0.11820650100708008, 0.9868455529212952, -2.882779359817505, 0.03767793998122215, 0.12935592234134674, -0.08624862134456635, 0.02559681423008442, 0.00750450324267149, 1.0018914937973022, -2.43886661529541, 5.546490669250488, -0.26145198941230774, 0.0, 0.0, 0.0, 0, 0, 0, 0, 0, 0, -2.43886661529541, 5.546490669250488, -0.26145198941230774
55260, -0.11857233196496964, 0.9862643480300903, -2.8807380199432373, -0.07196236401796341, -0.08865080028772354, 0.0002978621341753751, 0.024484463036060333, 0.006481894291937351, 1.000805377960205, -2.4419169425964355, 5.557635307312012, -0.2612959146499634, 0.0, 0.0, 0.0, 0, 0, 0, 0, 0, 0, -2.4419169425964355, 5.557635307312012, -0.2612959146499634
55270, -0.11802666634321213, 0.9851536750793457, -2.877058982849121, 0.07051096111536026, 0.011968563310801983, 0.17312732338905334, 0.024790899828076363, 0.005964978598058224, 0.9991995692253113, -2.444959878921509, 5.568788528442383, -0.2611384093761444, 0.0, 0.0, 0.0, 0, 0, 0, 0, 0, 0, -2.444959878921509, 5.568788528442383, -0.2611384093761444
55280, -0.11676594614982605, 0.9833489060401917, -2.8739960193634033, 0.11396420001983643, 0.16884344816207886, 0.07850946485996246, 0.02507897838950157, 0.0075261699967086315, 0.9991651177406311, -2.447995662689209, 5.579949378967285, -0.2609806954860687, 0.0, 0.0, 0.0, 0, 0, 0, 0, 0, 0, -2.447995662689209, 5.579949378967285, -0.2609806954860687
55290, -0.11622389405965805, 0.9826983213424683, -2.8709914684295654, 0.0755486935377121, 0.1125599592924118, 0.07204675674438477, 0.024216605350375175, 0.00941662397235632, 1.000330924987793, -2.451024055480957, 5.591118335723877, -0.260823518037796, 0.0, 0.0, 0.0, 0, 0, 0, 0, 0, 0, -2.451024055480957, 5.591118335723877, -0.260823518037796
55300, -0.11677087098360062, 0.9829130172729492, -2.868722438812256, -0.057324375957250595, -0.21130086481571198, 0.022226955741643906, 0.024917619302868843, 0.007089779246598482, 1.0007374286651611, -2.454044818878174, 5.602296829223633, -0.2606661915779114, 0.0, 0.0, 0.0, 0, 0, 0, 0, 0, 0, -2.454044818878174, 5.602296829223633, -0.2606661915779114
55310, -0.1166829988360405, 0.9793455600738525, -2.867610454559326, 0.08179940283298492, 0.3057886064052582, -0.21230512857437134, 0.024587232619524002, 0.008888855576515198, 1.0003505945205688, -2.4570584297180176, 5.613484859466553, -0.26050785183906555, 0.0, 0.0, 0.0, 0, 0, 0, 0, 0, 0, -2.4570584297180176, 5.613484859466553, -0.26050785183906555
55320, -0.11719511449337006, 0.9772723913192749, -2.8645267486572266, -0.0004289786738809198, 0.18810170888900757, 0.055112361907958984, 0.024474291130900383, 0.007268347777426243, 0.9987086057662964, -2.460064649581909, 5.6246819496154785, -0.2603485584259033, 0.0, 0.0, 0.0, 0, 0, 0, 0, 0, 0, -2.460064649581909, 5.6246819496154785, -0.2603485584259033
55330, -0.11603893339633942, 0.9751691222190857, -2.860995292663574, 0.09823857247829437, 0.05586153641343117, 0.14553049206733704, 0.0246585663408041, 0.0065757595002651215, 1.0020546913146973, -2.4630634784698486, 5.635888576507568, -0.26018911600112915, 0.0, 0.0, 0.0, 0, 0, 0, 0, 0, 0, -2.4630634784698486, 5.635888576507568, -0.26018911600112915
55340, -0.11630809307098389, 0.9729246497154236, -2.8583197593688965, 0.01005429495126009, 0.21122205257415771, 0.0015195877058431506, 0.024372538551688194, 0.010305502451956272, 1.0006961822509766, -2.466055154800415, 5.647103786468506, -0.2600291073322296, 0.0, 0.0, 0.0, 0, 0, 0, 0, 0, 0, -2.466055154800415, 5.647103786468506, -0.2600291073322296
55350, -0.11500630527734756, 0.9725358486175537, -2.854297161102295, 0.20101571083068848, -0.2639921009540558, 0.04713277891278267, 0.02395235002040863, 0.010617941617965698, 1.001660704612732, -2.4690396785736084, 5.658328533172607, -0.25986775755882263, 0.0, 0.0, 0.0, 0, 0, 0, 0, 0, 0, -2.4690396785736084, 5.658328533172607, -0.25986775755882263
55360, -0.11469091475009918, 0.9714481234550476, -2.8514914512634277, 0.08018358796834946, -0.06403346359729767, 0.08217434585094452, 0.026108048856258392, 0.010034614242613316, 1.0040385723114014, -2.4720168113708496, 5.669564723968506, -0.25970494747161865, 0.0, 0.0, 0.0, 0, 0, 0, 0, 0, 0, -2.4720168113708496, 5.669564723968506, -0.25970494747161865
55370, -0.11442015320062637, 0.9710807204246521, -2.847254514694214, 0.08523806929588318, -0.1553056538105011, 0.22455893456935883, 0.025052841752767563, 0.008024143055081367, 1.0016041994094849, -2.4749860763549805, 5.680812358856201, -0.25953927636146545, 0.0, 0.0, 0.0, 0, 0, 0, 0, 0, 0, -2.4749860763549805, 5.680812358856201, -0.25953927636146545
55380, -0.11485148221254349, 0.9696574807167053, -2.8424196243286133, -0.10719574242830276, -0.024246634915471077, 0.24329181015491486, 0.02423739992082119, 0.0056358990259468555, 1.000643014907837, -2.477947235107422, 5.692070484161377, -0.2593705356121063, 0.0, 0.0, 0.0, 0, 0, 0, 0, 0, 0, -2.477947235107422, 5.692070484161377, -0.2593705356121063
55390, -0.11545228213071823, 0.9695450663566589, -2.8401834964752197, 0.007962802425026894, -0.2388337105512619, -0.0029454936739057302, 0.024640409275889397, 0.007029963191598654, 0.9999685883522034, -2.480900764465332, 5.703336715698242, -0.25920018553733826, 0.0, 0.0, 0.0, 0, 0, 0, 0, 0, 0, -2.480900764465332, 5.703336715698242, -0.25920018553733826
55400, -0.11566495150327682, 0.9673463106155396, -2.8381285667419434, -0.0955309122800827, 0.1475849449634552, -0.0712241530418396, 0.02430383861064911, 0.008226458914577961, 0.999544084072113, -2.483847141265869, 5.714610576629639, -0.2590291500091553, 0.0, 0.0, 0.0, 0, 0, 0, 0, 0, 0, -2.483847141265869, 5.714610576629639, -0.2590291500091553
55410, -0.1152649074792862, 0.9653209447860718, -2.8369734287261963, -0.012066910043358803, 0.09952843934297562, -0.20366771519184113, 0.024956785142421722, 0.009262202307581902, 1.0013914108276367, -2.486786127090454, 5.725893020629883, -0.25885793566703796, 0.0, 0.0, 0.0, 0, 0, 0, 0, 0, 0, -2.486786127090454, 5.725893020629883, -0.25885793566703796
55420, -0.1142607182264328, 0.9648626446723938, -2.833907127380371, 0.17353792488574982, -0.011362389661371708, 0.05696609988808632, 0.02509155310690403, 0.009176161140203476, 1.001684308052063, -2.489717721939087, 5.737185478210449, -0.25868597626686096, 0.0, 0.0, 0.0, 0, 0, 0, 0, 0, 0, -2.489717721939087, 5.737185478210449, -0.25868597626686096
55430, -0.11475441604852676, 0.9626598358154297, -2.8311493396759033, -0.09596326947212219, 0.19155378639698029, -0.04356126859784126, 0.024592621251940727, 0.008694916032254696, 1.001224160194397, -2.4926414489746094, 5.748488426208496, -0.25851234793663025, 0.0, 0.0, 0.0, 0, 0, 0, 0, 0, 0, -2.4926414489746094, 5.748488426208496, -0.25851234793663025
55440, -0.1138371005654335, 0.9630919694900513, -2.828369617462158, 0.14967191219329834, -0.11864969879388809, 0.04317767918109894, 0.023636413738131523, 0.00916121993213892, 1.0026137828826904, -2.4955573081970215, 5.759801387786865, -0.25833699107170105, 0.0, 0.0, 0.0, 0, 0, 0, 0, 0, 0, -2.4955573081970215, 5.759801387786865, -0.25833699107170105
55450, -0.11383935809135437, 0.960696280002594, -2.8262205123901367, -0.024098029360175133, 0.34838366508483887, -0.11130077391862869, 0.025456100702285767, 0.00926397368311882, 1.001352071762085, -2.4984660148620605, 5.771124362945557, -0.2581593990325928, 0.0, 0.0, 0.0, 0, 0, 0, 0, 0, 0, -2.4984660148620605, 5.771124362945557, -0.2581593990325928
55460, -0.11402701586484909, 0.9575095176696777, -2.821768283843994, -0.09392291307449341, 0.16837987303733826, 0.09690283983945847, 0.025441842153668404, 0.00861321110278368, 0.9996455311775208, -2.5013670921325684, 5.7824578285217285, -0.2579796314239502, 0.0, 0.0, 0.0, 0, 0, 0, 0, 0, 0, -2.5013670921325684, 5.7824578285217285, -0.2579796314239502
55470, -0.11333456635475159, 0.9549620747566223, -2.819622278213501, 0.03388241305947304, 0.12973080575466156, 0.10785175114870071, 0.025319749489426613, 0.00824603158980608, 1.002219319343567, -2.5042598247528076, 5.793801784515381, -0.2577989101409912, 0.0, 0.0, 0.0, 0, 0, 0, 0, 0, 0, -2.5042598247528076, 5.793801784515381, -0.2577989101409912
55480, -0.11192706227302551, 0.9544655084609985, -2.8157947063446045, 0.16072824597358704, 0.022369874641299248, 0.21694283187389374, 0.026256108656525612, 0.008684959262609482, 1.0005725622177124, -2.507143974304199, 5.805155277252197, -0.2576169967651367, 0.0, 0.0, 0.0, 0, 0, 0, 0, 0, 0, -2.507143974304199, 5.805155277252197, -0.2576169967651367
55490, -0.11101119220256805, 0.9545685052871704, -2.811807870864868, 0.06964829564094543, -0.03979022800922394, 0.17931677401065826, 0.02571507729589939, 0.008066762238740921, 1.0010621547698975, -2.510019063949585, 5.816518783569336, -0.2574336528778076, 0.0, 0.0, 0.0, 0, 0, 0, 0, 0, 0, -2.510019063949585, 5.816518783569336, -0.2574336528778076
55500, -0.11149198561906815, 0.9516088962554932, -2.809614658355713, -0.09049153327941895, 0.19005146622657776, 0.009034309536218643, 0.023323621600866318, 0.009821640327572823, 1.0032658576965332, -2.512885332107544, 5.827891826629639, -0.25724899768829346, 0.0, 0.0, 0.0, 0, 0, 0, 0, 0, 0, -2.512885332107544, 5.827891826629639, -0.25724899768829346
55510, -0.11078839004039764, 0.9515680074691772, -2.8073737621307373, 0.15860147774219513, 0.02612258493900299, -0.13863545656204224, 0.023443281650543213, 0.008703106082975864, 1.0005764961242676, -2.5157439708709717, 5.839274883270264, -0.25706198811531067, 0.0, 0.0, 0.0, 0, 0, 0, 0, 0, 0, -2.5157439708709717, 5.839274883270264, -0.25706198811531067
55520, -0.10952254384756088, 0.951975405216217, -2.8061816692352295, 0.10803938657045364, -0.2716177701950073, -0.2323908805847168, 0.025183726102113724, 0.007282679434865713, 1.0007007122039795, -2.5185959339141846, 5.850668430328369, -0.2568727731704712, 0.0, 0.0, 0.0, 0, 0, 0, 0, 0, 0, -2.5185959339141846, 5.850668430328369, -0.2568727731704712
55530, -0.10935407876968384, 0.9529358744621277, -2.803317070007324, -0.1545916199684143, -0.3102318048477173, -0.10699212551116943, 0.02427970990538597, 0.006397254299372435, 1.001285433769226, -2.5214405059814453, 5.8620710372924805, -0.25668221712112427, 0.0, 0.0, 0.0, 0, 0, 0, 0, 0, 0, -2.5214405059814453, 5.8620710372924805, -0.25668221712112427
55540, -0.10859362781047821, 0.9530261754989624, -2.801135778427124, 0.1252831667661667, -0.06597938388586044, -0.24902942776679993, 0.024985037744045258, 0.00855293683707714, 0.9999439716339111, -2.5242772102355957, 5.873481750488281, -0.2564903795719147, 0.0, 0.0, 0.0, 0, 0, 0, 0, 0, 0, -2.5242772102355957, 5.873481750488281, -0.2564903795719147
55550, -0.10794326663017273, 0.9534468650817871, -2.7972571849823, 0.03041945956647396, -0.13496868312358856, 0.027556516230106354, 0.02572925016283989, 0.006893888581544161, 1.001810073852539, -2.5271058082580566, 5.88490104675293, -0.2562977373600006, 0.0, 0.0, 0.0, 0, 0, 0, 0, 0, 0, -2.5271058082580566, 5.88490104675293, -0.2562977373600006
55560, -0.10758272558450699, 0.9516608715057373, -2.7950284481048584, 0.00888657197356224, 0.08513476699590683, -0.06735804677009583, 0.02627902291715145, 0.008256589062511921, 1.002284288406372, -2.529926061630249, 5.896328926086426, -0.25610384345054626, 0.0, 0.0, 0.0, 0, 0, 0, 0, 0, 0, -2.529926061630249, 5.896328926086426, -0.25610384345054626
55570, -0.10724489390850067, 0.9500604867935181, -2.7927069664001465, 0.0531734824180603, 0.15142512321472168, 0.12681430578231812, 0.02534596063196659, 0.010760548524558544, 1.0033984184265137, -2.5327372550964355, 5.907765865325928, -0.25590747594833374, 0.0, 0.0, 0.0, 0, 0, 0, 0, 0, 0, -2.5327372550964355, 5.907765865325928, -0.25590747594833374
55580, -0.10737893730401993, 0.9490849375724792, -2.790562868118286, -0.04664502665400505, 0.1993369460105896, -0.1900523155927658, 0.024196941405534744, 0.007932412438094616, 1.0021827220916748, -2.5355396270751953, 5.91921329498291, -0.25570788979530334, 0.0, 0.0, 0.0, 0, 0, 0, 0, 0, 0, -2.5355396270751953, 5.91921329498291, -0.25570788979530334
55590, -0.10737614333629608, 0.9480938911437988, -2.7873454093933105, 0.019385142251849174, -0.12018929421901703, 0.0019353399984538555, 0.026045914739370346, 0.00745847262442112, 1.001129150390625, -2.5383338928222656, 5.930670738220215, -0.2555052638053894, 0.0, 0.0, 0.0, 0, 0, 0, 0, 0, 0, -2.5383338928222656, 5.930670738220215, -0.2555052638053894
55600, -0.10727392137050629, 0.9471026659011841, -2.782463788986206, -0.000764121359679848, -0.06610295921564102, 0.21949604153633118, 0.026936855167150497, 0.009717426262795925, 1.0011886358261108, -2.5411198139190674, 5.942137241363525, -0.25530049204826355, 0.0, 0.0, 0.0, 0, 0, 0, 0, 0, 0, -2.5411198139190674, 5.942137241363525, -0.25530049204826355
55610, -0.10746318101882935, 0.9463355541229248, -2.778931140899658, 0.011779394932091236, 0.014512494206428528, 0.23124289512634277, 0.024323195219039917, 0.010852362960577011, 1.0010913610458374, -2.543896198272705, 5.95361328125, -0.25509411096572876, 0.0, 0.0, 0.0, 0, 0, 0, 0, 0, 0, -2.543896198272705, 5.95361328125, -0.25509411096572876
55620, -0.10701800882816315, 0.9446399807929993, -2.7758374214172363, 0.042532388120889664, 0.3700970411300659, 0.1885673552751541, 0.025061070919036865, 0.012290126644074917, 1.0007508993148804, -2.546663761138916, 5.9651007652282715, -0.2548863887786865, 0.0, 0.0, 0.0, 0, 0, 0, 0, 0, 0, -2.546663761138916, 5.9651007652282715, -0.2548863887786865
55630, -0.10629443824291229, 0.9446252584457397, -2.772732973098755, 0.151643306016922, -0.21360039710998535, 0.0372806116938591, 0.027717668563127518, 0.00971949566155672, 0.9991288781166077, -2.5494229793548584, 5.976600646972656, -0.25467774271965027, 0.0, 0.0, 0.0, 0, 0, 0, 0, 0, 0, -2.5494229793548584, 5.976600646972656, -0.25467774271965027
55640, -0.10623541474342346, 0.9410555362701416, -2.7697649002075195, 0.003478575963526964, 0.3144059181213379, -0.057655420154333115, 0.025510229170322418, 0.007112632971256971, 0.9993990063667297, -2.5521724224090576, 5.988112449645996, -0.2544689178466797, 0.0, 0.0, 0.0, 0, 0, 0, 0, 0, 0, -2.5521724224090576, 5.988112449645996, -0.2544689178466797
55650, -0.1069185808300972, 0.9387140274047852, -2.7669317722320557, -0.10903387516736984, 0.1768764704465866, 0.17578496038913727, 0.02557559870183468, 0.007040833123028278, 1.000538945198059, -2.5549120903015137, 5.999633312225342, -0.2542603015899658, 0.0, 0.0, 0.0, 0, 0, 0, 0, 0, 0, -2.5549120903015137, 5.999633312225342, -0.2542603015899658
55660, -0.10710709542036057, 0.9395440220832825, -2.764540672302246, 0.02903532050549984, -0.28336501121520996, 0.05436945706605911, 0.02255672588944435, 0.007410910911858082, 1.0003395080566406, -2.557643175125122, 6.011162281036377, -0.2540512681007385, 0.0, 0.0, 0.0, 0, 0, 0, 0, 0, 0, -2.557643175125122, 6.011162281036377, -0.2540512681007385
55670, -0.10714574158191681, 0.9387850165367126, -2.761434316635132, -0.046461790800094604, -0.02927536703646183, -0.005217800848186016, 0.022728854790329933, 0.006682408507913351, 1.0017114877700806, -2.5603668689727783, 6.02269983291626, -0.25384148955345154, 0.0, 0.0, 0.0, 0, 0, 0, 0, 0, 0, -2.5603668689727783, 6.02269983291626, -0.25384148955345154
55680, -0.10654918104410172, 0.9380980134010315, -2.7598206996917725, 0.022698339074850082, -0.11150699853897095, -0.18309831619262695, 0.022906433790922165, 0.009294037707149982, 1.001380205154419, -2.563084363937378, 6.034245491027832, -0.2536303997039795, 0.0, 0.0, 0.0, 0, 0, 0, 0, 0, 0, -2.563084363937378, 6.034245491027832, -0.2536303997039795
55690, -0.10656509548425674, 0.9361390471458435, -2.7571113109588623, -0.019055573269724846, 0.13942493498325348, 0.1701417714357376, 0.025228992104530334, 0.00981223862618208, 1.0011240243911743, -2.565795421600342, 6.045800685882568, -0.25341758131980896, 0.0, 0.0, 0.0, 0, 0, 0, 0, 0, 0, -2.565795421600342, 6.045800685882568, -0.25341758131980896
55700, -0.10690289735794067, 0.936581552028656, -2.7547860145568848, -0.034847915172576904, -0.09645825624465942, -0.08863640576601028, 0.024908864870667458, 0.00817238911986351, 0.9997544884681702, -2.5684988498687744, 6.057366847991943, -0.25320324301719666, 0.0, 0.0, 0.0, 0, 0, 0, 0, 0, 0, -2.5684988498687744, 6.057366847991943, -0.25320324301719666
55710, -0.10647160559892654, 0.9367011785507202, -2.7517716884613037, 0.06422267109155655, -0.22625784575939178, -0.1235666424036026, 0.024886583909392357, 0.009073144756257534, 1.0002880096435547, -2.5711939334869385, 6.068943023681641, -0.2529881000518799, 0.0, 0.0, 0.0, 0, 0, 0, 0, 0, 0, -2.5711939334869385, 6.068943023681641, -0.2529881000518799
55720, -0.10614851117134094, 0.9365792870521545, -2.7493741512298584, 0.07135823369026184, -0.145552396774292, -0.10315996408462524, 0.025540409609675407, 0.009108818136155605, 1.0002188682556152, -2.573880672454834, 6.08052921295166, -0.25277259945869446, 0.0, 0.0, 0.0, 0, 0, 0, 0, 0, 0, -2.573880672454834, 6.08052921295166, -0.25277259945869446
55730, -0.10629317164421082, 0.9346952438354492, -2.7457244396209717, -0.10288244485855103, 0.1079433485865593, 0.23651763796806335, 0.025475820526480675, 0.011103300377726555, 0.9998812079429626, -2.5765585899353027, 6.092125415802002, -0.2525565028190613, 0.0, 0.0, 0.0, 0, 0, 0, 0, 0, 0, -2.5765585899353027, 6.092125415802002, -0.2525565028190613
55740, -0.1056901067495346, 0.9318493604660034, -2.741952657699585, -0.0049056545831263065, 0.29454267024993896, 0.27800193428993225, 0.024056438356637955, 0.008862044662237167, 1.0015339851379395, -2.5792276859283447, 6.103732585906982, -0.2523398697376251, 0.0, 0.0, 0.0, 0, 0, 0, 0, 0, 0, -2.5792276859283447, 6.103732585906982, -0.2523398697376251
55750, -0.10614678263664246, 0.930220365524292, -2.740386724472046, -0.0763317421078682, 0.1177879273891449, -0.10904482007026672, 0.02341335266828537, 0.007616007700562477, 1.001035213470459, -2.5818886756896973, 6.115350246429443, -0.2521221935749054, 0.0, 0.0, 0.0, 0, 0, 0, 0, 0, 0, -2.5818886756896973, 6.115350246429443, -0.2521221935749054
55760, -0.10647634416818619, 0.9291536808013916, -2.737255811691284, -0.020034821704030037, 0.059223294258117676, 0.04419553652405739, 0.024371344596147537, 0.007626046892255545, 1.0016329288482666, -2.5845425128936768, 6.126977443695068, -0.2519029974937439, 0.0, 0.0, 0.0, 0, 0, 0, 0, 0, 0, -2.5845425128936768, 6.126977443695068, -0.2519029974937439
55770, -0.10643560439348221, 0.927891731262207, -2.733994960784912, 0.07214966416358948, 0.12846466898918152, 0.024509698152542114, 0.025571854785084724, 0.008569452911615372, 1.0023595094680786, -2.587188959121704, 6.138613700866699, -0.2516820430755615, 0.0, 0.0, 0.0, 0, 0, 0, 0, 0, 0, -2.587188959121704, 6.138613700866699, -0.2516820430755615
55780, -0.10617627948522568, 0.9291136860847473, -2.7314975261688232, 0.022716287523508072, -0.18762478232383728, -0.07014865428209305, 0.027353916317224503, 0.009352347813546658, 1.002936601638794, -2.589827060699463, 6.150259494781494, -0.25145867466926575, 0.0, 0.0, 0.0, 0, 0, 0, 0, 0, 0, -2.589827060699463, 6.150259494781494, -0.25145867466926575
55790, -0.10689575225114822, 0.9296342730522156, -2.7282392978668213, -0.08652176707983017, -0.25899964570999146, -0.013209609314799309, 0.024873359128832817, 0.00775394169613719, 1.0040472745895386, -2.5924553871154785, 6.161914825439453, -0.251232385635376, 0.0, 0.0, 0.0, 0, 0, 0, 0, 0, 0, -2.5924553871154785, 6.161914825439453, -0.251232385635376
55800, -0.10657662153244019, 0.9284265041351318, -2.7243130207061768, 0.06925911456346512, -0.11139474809169769, 0.1776924729347229, 0.026102235540747643, 0.007392727769911289, 1.0028144121170044, -2.595073938369751, 6.173579692840576, -0.2510024905204773, 0.0, 0.0, 0.0, 0, 0, 0, 0, 0, 0, -2.595073938369751, 6.173579692840576, -0.2510024905204773
55810, -0.10729722678661346, 0.9247573018074036, -2.7228808403015137, -0.0627351626753807, 0.04101312905550003, -0.23162610828876495, 0.025526857003569603, 0.00723780132830143, 1.0019629001617432, -2.5976834297180176, 6.185253143310547, -0.2507689893245697, 0.0, 0.0, 0.0, 0, 0, 0, 0, 0, 0, -2.5976834297180176, 6.185253143310547, -0.2507689893245697
55820, -0.10743721574544907, 0.9227442145347595, -2.7201430797576904, 0.1829415112733841, 0.05672180652618408, -0.058971818536520004, 0.024802356958389282, 0.009184401482343674, 1.0007880926132202, -2.600283622741699, 6.196935176849365, -0.250532865524292, 0.0, 0.0, 0.0, 0, 0, 0, 0, 0, 0, -2.600283622741699, 6.196935176849365, -0.250532865524292
55830, -0.10677383095026016, 0.9209578037261963, -2.716430187225342, 0.2354242205619812, 0.04843377321958542, 0.121409572660923, 0.023610519245266914, 0.009235542267560959, 0.9991240501403809, -2.602875232696533, 6.2086262702941895, -0.25029513239860535, 0.0, 0.0, 0.0, 0, 0, 0, 0, 0, 0, -2.602875232696533, 6.2086262702941895, -0.25029513239860535
55840, -0.10706114768981934, 0.9189701080322266, -2.7131760120391846, -0.032319873571395874, 0.03838109225034714, -0.16479305922985077, 0.02282194420695305, 0.007595476694405079, 1.0005971193313599, -2.605459451675415, 6.220327854156494, -0.2500571012496948, 0.0, 0.0, 0.0, 0, 0, 0, 0, 0, 0, -2.605459451675415, 6.220327854156494, -0.2500571012496948
55850, -0.10742774605751038, 0.9182629585266113, -2.708707571029663, 0.055136725306510925, 0.0436176061630249, 0.2523380517959595, 0.02291538566350937, 0.00799198355525732, 1.000287652015686, -2.608036994934082, 6.232038974761963, -0.2498188465833664, 0.0, 0.0, 0.0, 0, 0, 0, 0, 0, 0, -2.608036994934082, 6.232038974761963, -0.2498188465833664
55860, -0.10769984126091003, 0.9152616262435913, -2.7047901153564453, 0.007369909901171923, 0.2538715898990631, 0.1633499562740326, 0.025175543501973152, 0.009682741016149521, 1.0005666017532349, -2.610607862472534, 6.2437591552734375, -0.24957995116710663, 0.0, 0.0, 0.0, 0, 0, 0, 0, 0, 0, -2.610607862472534, 6.2437591552734375, -0.24957995116710663
55870, -0.10745569318532944, 0.9118757843971252, -2.7014243602752686, 0.07071348279714584, 0.12858471274375916, 0.04439767077565193, 0.02529854141175747, 0.009554651565849781, 1.002018928527832, -2.613170862197876, 6.255489349365234, -0.24934019148349762, 0.0, 0.0, 0.0, 0, 0, 0, 0, 0, 0, -2.613170862197876, 6.255489349365234, -0.24934019148349762
55880, -0.10814440995454788, 0.9095703959465027, -2.6985507011413574, 0.05507836863398552, 0.17040683329105377, 0.012605751864612103, 0.02425890602171421, 0.008729524910449982, 1.001726746559143, -2.615725040435791, 6.267230033874512, -0.249098539352417, 0.0, 0.0, 0.0, 0, 0, 0, 0, 0, 0, -2.615725040435791, 6.267230033874512, -0.249098539352417
55890, -0.10751679539680481, 0.9092745184898376, -2.6960880756378174, 0.04324757680296898, 0.05332418158650398, 0.1126532107591629, 0.025758234784007072, 0.007942866533994675, 0.9998058080673218, -2.6182701587677, 6.2789812088012695, -0.24885480105876923, 0.0, 0.0, 0.0, 0, 0, 0, 0, 0, 0, -2.6182701587677, 6.2789812088012695, -0.24885480105876923
55900, -0.10729078948497772, 0.906706690788269, -2.693959951400757, -0.014623232185840607, 0.3761826157569885, -0.16653721034526825, 0.024756766855716705, 0.0073838625103235245, 0.9999184012413025, -2.6208062171936035, 6.290741920471191, -0.24861003458499908, 0.0, 0.0, 0.0, 0, 0, 0, 0, 0, 0, -2.6208062171936035, 6.290741920471191, -0.24861003458499908
55910, -0.10681725293397903, 0.9059286117553711, -2.690023899078369, 0.09079260379076004, -0.032447248697280884, 0.1782454252243042, 0.024127772077918053, 0.007133152335882187, 1.001930832862854, -2.623333215713501, 6.302511215209961, -0.24836479127407074, 0.0, 0.0, 0.0, 0, 0, 0, 0, 0, 0, -2.623333215713501, 6.302511215209961, -0.24836479127407074
55920, -0.10603102296590805, 0.904410719871521, -2.6871349811553955, 0.04464924335479736, -0.005069652572274208, -0.16004420816898346, 0.02480160817503929, 0.01077993679791689, 1.000046968460083, -2.625851631164551, 6.314289093017578, -0.24811819195747375, 0.0, 0.0, 0.0, 0, 0, 0, 0, 0, 0, -2.625851631164551, 6.314289093017578, -0.24811819195747375
