timeTick, roll, pitch, yaw, gyroX, gyroY, gyroZ, accX, accY, accZ, stateX, stateY, stateZ, target_x, target_y, target_z, otX, otY, otZ, otRoll, otPitch, otYaw, kalX, kalY, kalZ
11476, 0.04866183176636696, -0.009830087423324585, -0.004715371411293745, 0, 0, 0, 0, 0, 0, 0, 0, 0, 0, 0, 0, 0, 0, 0, 0, 0, 0, 0, 0, 0
11486, 0.04882105067372322, -0.008529945276677608, -0.004615849815309048, 0.03387589752674103, -0.10211807489395142, -0.1608210802078247, 2.228538505733013e-05, -0.005816296208649874, 0.9999508261680603, 0.7755532264709473, -1.8596121072769165, -0.08384214341640472, 0.0, 0.0, 0.0, 0, 0, 0, 0, 0, 0, 0.7773455381393433, -1.8641705513000488, -0.0840095728635788
11496, 0.04813199117779732, -0.008466744795441628, -0.0037848884239792824, 0.0973520278930664, 0.10010059177875519, 0.17931608855724335, 0.0024662169162184, -0.005064880941063166, 0.9987398386001587, 0.7773455381393433, -1.8641705513000488, -0.0840095728635788, 0.0, 0.0, 0.0, 0, 0, 0, 0, 0, 0, 0.7791394591331482, -1.8687349557876587, -0.08417768031358719
11506, 0.04879475012421608, -0.00874565914273262, -0.002710373606532812, 0.05747721344232559, 0.14855991303920746, 0.1493334174156189, 0.0014350268756970763, -0.004899926017969847, 1.0001872777938843, 0.7791394591331482, -1.8687349557876587, -0.08417768031358719, 0.0, 0.0, 0.0, 0, 0, 0, 0, 0, 0, 0.7809353470802307, -1.8733049631118774, -0.08434651792049408
11516, 0.04810372367501259, -0.009954295121133327, -0.0032767357770353556, -0.2335890382528305, 0.15013578534126282, -0.15806002914905548, 0.0003040213487111032, -0.0062552099116146564, 0.9973558783531189, 0.7809353470802307, -1.8733049631118774, -0.08434651792049408, 0.0, 0.0, 0.0, 0, 0, 0, 0, 0, 0, 0.7827324867248535, -1.8778812885284424, -0.08451639860868454
11526, 0.04720904305577278, -0.00919941533356905, -0.0038601751439273357, -0.04181373864412308, -0.3597933351993561, -0.18241284787654877, 0.002259328728541732, -0.0043663401156663895, 0.9984137415885925, 0.7827324867248535, -1.8778812885284424, -0.08451639860868454, 0.0, 0.0, 0.0, 0, 0, 0, 0, 0, 0, 0.7845308780670166, -1.8824639320373535, -0.08468815684318542
11536, 0.0475747212767601, -0.010455104522407055, -0.004204000346362591, 0.20977798104286194, 0.193167582154274, 0.06237996742129326, 0.0018012778600677848, -0.005612119100987911, 1.0015442371368408, 0.7845308780670166, -1.8824639320373535, -0.08468815684318542, 0.0, 0.0, 0.0, 0, 0, 0, 0, 0, 0, 0.7863311171531677, -1.8870524168014526, -0.08486036211252213
11546, 0.04677800089120865, -0.010221549309790134, -0.004677695222198963, -0.1309821605682373, -0.06064087152481079, -0.10160787403583527, 0.001814281102269888, -0.004790686070919037, 1.0012890100479126, 0.7863311171531677, -1.8870524168014526, -0.08486036211252213, 0.0, 0.0, 0.0, 0, 0, 0, 0, 0, 0, 0.7881333231925964, -1.8916467428207397, -0.08503149449825287
11556, 0.04673384130001068, -0.010035254992544651, -0.005074508488178253, 0.0395401306450367, 0.03125053644180298, 0.1789742112159729, 0.0033800993114709854, -0.00334738427773118, 1.0000721216201782, 0.7881333231925964, -1.8916467428207397, -0.08503149449825287, 0.0, 0.0, 0.0, 0, 0, 0, 0, 0, 0, 0.7899381518363953, -1.896246075630188, -0.08520177751779556
11566, 0.04670808091759682, -0.010569301433861256, -0.005681425798684359, -0.0478181354701519, -0.22616708278656006, -0.17218725383281708, 0.002595562022179365, -0.004878763575106859, 0.9982656240463257, 0.7899381518363953, -1.896246075630188, -0.08520177751779556, 0.0, 0.0, 0.0, 0, 0, 0, 0, 0, 0, 0.7917460799217224, -1.9008499383926392, -0.08537241071462631
11576, 0.04649614170193672, -0.010481607168912888, -0.005241706967353821, -0.08146409690380096, 0.0018437376711517572, -0.0029065697453916073, 0.0018795428331941366, -0.006650125607848167, 1.0000872611999512, 0.7917460799217224, -1.9008499383926392, -0.08537241071462631, 0.0, 0.0, 0.0, 0, 0, 0, 0, 0, 0, 0.7935563325881958, -1.9054598808288574, -0.08554399758577347
11586, 0.047075092792510986, -0.01059979572892189, -0.005638637114316225, 0.06337365508079529, -0.11102157831192017, -0.03470297157764435, 0.004907489288598299, -0.004344428889453411, 0.9989092350006104, 0.7935563325881958, -1.9054598808288574, -0.08554399758577347, 0.0, 0.0, 0.0, 0, 0, 0, 0, 0, 0, 0.7953694462776184, -1.9100761413574219, -0.08571621030569077
11596, 0.046760689467191696, -0.009248105809092522, -0.0065322089940309525, -0.04205529764294624, 0.002096745418384671, -0.23017047345638275, 0.0016740354476496577, -0.0043252697214484215, 0.9980615377426147, 0.7953694462776184, -1.9100761413574219, -0.08571621030569077, 0.0, 0.0, 0.0, 0, 0, 0, 0, 0, 0, 0.7971859574317932, -1.9146978855133057, -0.08588952571153641
11606, 0.046649347990751266, -0.011530683375895023, -0.005647516343742609, -0.04094787314534187, 0.032068707048892975, 0.1172063872218132, 0.0003694802289828658, -0.005305679980665445, 0.9991359114646912, 0.7971859574317932, -1.9146978855133057, -0.08588952571153641, 0.0, 0.0, 0.0, 0, 0, 0, 0, 0, 0, 0.799004077911377, -1.9193249940872192, -0.08606400340795517
11616, 0.04775208234786987, -0.012380311265587807, -0.003709982382133603, 0.26144304871559143, 0.017385542392730713, 0.21798737347126007, 0.000686710060108453, -0.004906820133328438, 0.9998374581336975, 0.799004077911377, -1.9193249940872192, -0.08606400340795517, 0.0, 0.0, 0.0, 0, 0, 0, 0, 0, 0, 0.8008227944374084, -1.9239579439163208, -0.0862390398979187
11626, 0.04791616275906563, -0.01256147027015686, -0.004577714949846268, 0.007571216206997633, -0.002159644151106477, -0.007147450465708971, 0.002477415604516864, -0.005411261226981878, 0.9986799955368042, 0.8008227944374084, -1.9239579439163208, -0.0862390398979187, 0.0, 0.0, 0.0, 0, 0, 0, 0, 0, 0, 0.8026430606842041, -1.9285967350006104, -0.08641480654478073
11636, 0.04711218550801277, -0.012113921344280243, -0.004060184117406607, -0.20871521532535553, -0.039326030761003494, 0.07826308906078339, 0.001115131308324635, -0.0070172022096812725, 0.9995182156562805, 0.8026430606842041, -1.9285967350006104, -0.08641480654478073, 0.0, 0.0, 0.0, 0, 0, 0, 0, 0, 0, 0.8044655323028564, -1.9332419633865356, -0.0865914523601532
11646, 0.04675391688942909, -0.012485155835747719, -0.003976735286414623, -0.07499466836452484, 0.02289259433746338, 0.023976046591997147, 0.0020376250613480806, -0.004130592104047537, 0.998177170753479, 0.8044655323028564, -1.9332419633865356, -0.0865914523601532, 0.0, 0.0, 0.0, 0, 0, 0, 0, 0, 0, 0.8062899708747864, -1.9378937482833862, -0.08676915615797043
11656, 0.04687460511922836, -0.012510017491877079, -0.0040748934261500835, 0.07724524289369583, -0.06298130750656128, 0.011529692448675632, 0.004878413863480091, -0.0037757321260869503, 1.0000972747802734, 0.8062899708747864, -1.9378937482833862, -0.08676915615797043, 0.0, 0.0, 0.0, 0, 0, 0, 0, 0, 0, 0.8081175088882446, -1.9425504207611084, -0.08694769442081451
11666, 0.048258401453495026, -0.00926536601036787, -0.003720659064128995, 0.1420060247182846, -0.30137890577316284, 0.20780451595783234, 0.004506775178015232, -0.0029069939628243446, 1.000940203666687, 0.8081175088882446, -1.9425504207611084, -0.08694769442081451, 0.0, 0.0, 0.0, 0, 0, 0, 0, 0, 0, 0.8099498152732849, -1.9472110271453857, -0.08712583035230637
11676, 0.04901277646422386, -0.011469350196421146, -0.00326129631139338, 0.06061653792858124, 0.23289234936237335, 0.035801611840724945, 0.0023447894491255283, -0.005167155992239714, 0.9989867806434631, 0.8099498152732849, -1.9472110271453857, -0.08712583035230637, 0.0, 0.0, 0.0, 0, 0, 0, 0, 0, 0, 0.8117859959602356, -1.9518760442733765, -0.08730369806289673
11686, 0.04870319738984108, -0.009487760253250599, -0.0036244106013327837, -0.17973773181438446, -0.33429643511772156, 0.003387293079867959, 0.0006954909767955542, -0.004783038981258869, 0.9993013739585876, 0.8117859959602356, -1.9518760442733765, -0.08730369806289673, 0.0, 0.0, 0.0, 0, 0, 0, 0, 0, 0, 0.8136242628097534, -1.9565469026565552, -0.08748217672109604
11696, 0.0491553358733654, -0.00849967822432518, -0.0052015152759850025, -0.02616295777261257, -0.027901723980903625, -0.05819714069366455, 0.0017567811300978065, -0.007181168999522924, 1.0000097751617432, 0.8136242628097534, -1.9565469026565552, -0.08748217672109604, 0.0, 0.0, 0.0, 0, 0, 0, 0, 0, 0, 0.8154640793800354, -1.9612244367599487, -0.08766112476587296
11706, 0.048356715589761734, -0.00905856303870678, -0.005240179598331451, -0.15960370004177094, 0.07367862015962601, 0.05601729080080986, 0.0001831090048654005, -0.007644966710358858, 1.0010055303573608, 0.8154640793800354, -1.9612244367599487, -0.08766112476587296, 0.0, 0.0, 0.0, 0, 0, 0, 0, 0, 0, 0.8173050880432129, -1.965909719467163, -0.08783987164497375
11716, 0.04780304431915283, -0.010683448985219002, -0.004450859036296606, -0.11861605197191238, 0.29892444610595703, 0.029745040461421013, -0.0007525464752689004, -0.00766339898109436, 0.9993944764137268, 0.8173050880432129, -1.965909719467163, -0.08783987164497375, 0.0, 0.0, 0.0, 0, 0, 0, 0, 0, 0, 0.819145917892456, -1.9706032276153564, -0.08801821619272232
11726, 0.04787782207131386, -0.009799920953810215, -0.004115769173949957, 0.011362707242369652, -0.11634647846221924, -0.10997821390628815, 0.000516468018759042, -0.006076034624129534, 0.998218834400177, 0.819145917892456, -1.9706032276153564, -0.08801821619272232, 0.0, 0.0, 0.0, 0, 0, 0, 0, 0, 0, 0.8209864497184753, -1.9753047227859497, -0.08819732069969177
11736, 0.04718039184808731, -0.010829038918018341, -0.004349356051534414, -0.15206636488437653, 0.3729473948478699, -0.13235196471214294, 0.0030946109909564257, -0.0022515314631164074, 0.9999377727508545, 0.8209864497184753, -1.9753047227859497, -0.08819732069969177, 0.0, 0.0, 0.0, 0, 0, 0, 0, 0, 0, 0.8228286504745483, -1.9800118207931519, -0.08837763220071793
11746, 0.04802689701318741, -0.011246716603636742, -0.0021599852479994297, 0.1382332742214203, -0.09721378237009048, 0.28867581486701965, 0.0025613598991185427, -0.004965280182659626, 1.0003752708435059, 0.8228286504745483, -1.9800118207931519, -0.08837763220071793, 0.0, 0.0, 0.0, 0, 0, 0, 0, 0, 0, 0.8246737718582153, -1.9847230911254883, -0.08855809271335602
11756, 0.046948134899139404, -0.011423063464462757, -0.002707818755879998, -0.04046989604830742, 0.23268522322177887, 0.23441515862941742, 0.0007359228329733014, -0.005178819410502911, 0.9970795512199402, 0.8246737718582153, -1.9847230911254883, -0.08855809271335602, 0.0, 0.0, 0.0, 0, 0, 0, 0, 0, 0, 0.8265210390090942, -1.989439606666565, -0.08873947709798813
11766, 0.046535246074199677, -0.00963266659528017, -0.003805456217378378, -0.0001514723408035934, -0.23630452156066895, -0.1308838576078415, 0.0005436571082100272, -0.004496993031352758, 1.0010902881622314, 0.8265210390090942, -1.989439606666565, -0.08873947709798813, 0.0, 0.0, 0.0, 0, 0, 0, 0, 0, 0, 0.8283692002296448, -1.99416184425354, -0.0889219120144844
11776, 0.04598400741815567, -0.009269624948501587, -0.0033794972114264965, -0.018834199756383896, 0.00789851974695921, -0.030935509130358696, 0.00041899425559677184, -0.00546893710270524, 1.0011115074157715, 0.8283692002296448, -1.99416184425354, -0.0889219120144844, 0.0, 0.0, 0.0, 0, 0, 0, 0, 0, 0, 0.8302178382873535, -1.998889684677124, -0.0891038328409195
11786, 0.046019650995731354, -0.010778313502669334, -0.002707039238885045, -0.12232685089111328, 0.2548140585422516, 0.028980208560824394, 0.00252184784039855, -0.003991302102804184, 1.0001550912857056, 0.8302178382873535, -1.998889684677124, -0.0891038328409195, 0.0, 0.0, 0.0, 0, 0, 0, 0, 0, 0, 0.8320679664611816, -2.0036227703094482, -0.08928507566452026
11796, 0.04624370485544205, -0.011893178336322308, -0.00326994969509542, 0.09834042936563492, 0.22628001868724823, -0.037778887897729874, 0.00130992173217237, -0.005450996570289135, 1.0010536909103394, 0.8320679664611816, -2.0036227703094482, -0.08928507566452026, 0.0, 0.0, 0.0, 0, 0, 0, 0, 0, 0, 0.8339201807975769, -2.008361339569092, -0.08946572244167328
11806, 0.0456487312912941, -0.011034308932721615, -0.0030017192475497723, -0.0024058569688349962, -0.07349275797605515, 0.03831969201564789, 0.0014029318699613214, -0.006870144046843052, 1.0013258457183838, 0.8339201807975769, -2.008361339569092, -0.08946572244167328, 0.0, 0.0, 0.0, 0, 0, 0, 0, 0, 0, 0.8357740044593811, -2.01310658454895, -0.08964536339044571
11816, 0.04573165252804756, -0.011311999522149563, -0.0037008372601121664, -0.07630869001150131, 0.15285557508468628, -0.03984113782644272, 0.0020616070833057165, -0.006545410957187414, 0.9970970153808594, 0.8357740044593811, -2.01310658454895, -0.08964536339044571, 0.0, 0.0, 0.0, 0, 0, 0, 0, 0, 0, 0.8376296162605286, -2.0178589820861816, -0.08982498943805695
11826, 0.04543570801615715, -0.009820359759032726, -0.004362146370112896, -0.149302139878273, -0.15665259957313538, 0.045404788106679916, 0.0021680863574147224, -0.006050854921340942, 0.9981801509857178, 0.8376296162605286, -2.0178589820861816, -0.08982498943805695, 0.0, 0.0, 0.0, 0, 0, 0, 0, 0, 0, 0.8394875526428223, -2.022618532180786, -0.09000647068023682
11836, 0.04540026932954788, -0.011335390619933605, -0.0035802286583930254, 0.08482624590396881, 0.17482952773571014, 0.12477744370698929, 0.0013911575078964233, -0.005296309944242239, 1.0006617307662964, 0.8394875526428223, -2.022618532180786, -0.09000647068023682, 0.0, 0.0, 0.0, 0, 0, 0, 0, 0, 0, 0.8413478136062622, -2.0273847579956055, -0.09018919616937637
11846, 0.0455428808927536, -0.012912758626043797, -0.0038919970393180847, -0.018574470654129982, 0.13507570326328278, -0.017120538279414177, 0.0013555024052038789, -0.003921776078641415, 1.0032401084899902, 0.8413478136062622, -2.0273847579956055, -0.09018919616937637, 0.0, 0.0, 0.0, 0, 0, 0, 0, 0, 0, 0.8432097434997559, -2.032156229019165, -0.0903705433011055
11856, 0.046247564256191254, -0.012712492607533932, -0.003216358134523034, 0.09052510559558868, 0.19393803179264069, 0.21394813060760498, 0.0022206297144293785, -0.0038102075923234224, 1.00164794921875, 0.8432097434997559, -2.032156229019165, -0.0903705433011055, 0.0, 0.0, 0.0, 0, 0, 0, 0, 0, 0, 0.845073401927948, -2.0369324684143066, -0.09054956585168839
11866, 0.04622461646795273, -0.012941533699631691, -0.0023721447214484215, -0.026326298713684082, 0.021531950682401657, -0.018207626417279243, -0.00042525710887275636, -0.004512210842221975, 0.999407947063446, 0.845073401927948, -2.0369324684143066, -0.09054956585168839, 0.0, 0.0, 0.0, 0, 0, 0, 0, 0, 0, 0.8469383716583252, -2.0417134761810303, -0.09072773158550262
11876, 0.04660298675298691, -0.013119281269609928, -0.0019468397367745638, -0.02810773253440857, -0.04190358147025108, 0.03760498762130737, 0.0018805861473083496, -0.004967570770531893, 0.9987744092941284, 0.8469383716583252, -2.0417134761810303, -0.09072773158550262, 0.0, 0.0, 0.0, 0, 0, 0, 0, 0, 0, 0.8488042950630188, -2.046499490737915, -0.09090635925531387
11886, 0.046269770711660385, -0.009989534504711628, -0.002222680486738682, 0.026149487122893333, -0.35407760739326477, 0.02127271145582199, 0.0032658108975738287, -0.003617999842390418, 1.000803828239441, 0.8488042950630188, -2.046499490737915, -0.09090635925531387, 0.0, 0.0, 0.0, 0, 0, 0, 0, 0, 0, 0.8506726622581482, -2.05129075050354, -0.09108511358499527
11896, 0.04622569680213928, -0.01172883901745081, -0.0030028694309294224, 0.09717793762683868, 0.33426064252853394, 0.1318274587392807, 0.003614863846451044, -0.004580797627568245, 1.0019032955169678, 0.8506726622581482, -2.05129075050354, -0.09108511358499527, 0.0, 0.0, 0.0, 0, 0, 0, 0, 0, 0, 0.8525443077087402, -2.056086778640747, -0.09126283973455429
11906, 0.045186035335063934, -0.0132154431194067, -0.0030069504864513874, 0.062009431421756744, 0.35018154978752136, 0.06980868428945541, 0.0025002022739499807, -0.004570710007101297, 1.0003631114959717, 0.8525443077087402, -2.056086778640747, -0.09126283973455429, 0.0, 0.0, 0.0, 0, 0, 0, 0, 0, 0, 0.8544191122055054, -2.0608878135681152, -0.0914393961429596
11916, 0.04476854205131531, -0.013734337873756886, -0.003589190077036619, -0.008088420145213604, 0.01692255400121212, 0.06434084475040436, 0.0035065654665231705, -0.004231504164636135, 0.9986143708229065, 0.8544191122055054, -2.0608878135681152, -0.0914393961429596, 0.0, 0.0, 0.0, 0, 0, 0, 0, 0, 0, 0.8562971949577332, -2.0656940937042236, -0.09161582589149475
11926, 0.04563746228814125, -0.014148658141493797, -0.0025557458866387606, 0.055656325072050095, -0.0010482087964192033, 0.06934479624032974, 0.0020434882026165724, -0.00307812774553895, 1.0016249418258667, 0.8562971949577332, -2.0656940937042236, -0.09161582589149475, 0.0, 0.0, 0.0, 0, 0, 0, 0, 0, 0, 0.8583664298057556, -2.070986270904541, -0.09180973470211029
11936, 0.045116111636161804, -0.015069859102368355, -0.0025753651279956102, -0.06941789388656616, 0.08477011322975159, -0.2333638072013855, 0.002314602956175804, -0.004246240481734276, 1.0000206232070923, 0.8583664298057556, -2.070986270904541, -0.09180973470211029, 0.0, 0.0, 0.0, 0, 0, 0, 0, 0, 0, 0.8602502942085266, -2.0758016109466553, -0.09198528528213501
11946, 0.045428309589624405, -0.01592900976538658, -0.0025138030759990215, -0.03824334219098091, 0.20349138975143433, 0.04076829552650452, 0.002673184033483267, -0.004906162619590759, 1.0001935958862305, 0.8602502942085266, -2.0758016109466553, -0.09198528528213501, 0.0, 0.0, 0.0, 0, 0, 0, 0, 0, 0, 0.8602502942085266, -2.0758016109466553, -0.09198528528213501
11956, 0.04635336995124817, -0.014900604262948036, -0.003683052258566022, 0.02775680646300316, -0.09205805510282516, -0.13821640610694885, 0.0023582368157804012, -0.005136668682098389, 1.000869870185852, 0.8621369004249573, -2.0806221961975098, -0.09216034412384033, 0.0, 0.0, 0.0, 0, 0, 0, 0, 0, 0, 0.8640261292457581, -2.0854485034942627, -0.09233503043651581
11966, 0.04626289755105972, -0.014511187560856342, -0.0041995360516011715, -0.08331416547298431, -0.15387248992919922, -0.29465651512145996, 0.001173805445432663, -0.004493545275181532, 1.000342607498169, 0.8640261292457581, -2.0854485034942627, -0.09233503043651581, 0.0, 0.0, 0.0, 0, 0, 0, 0, 0, 0, 0.8659173250198364, -2.090280532836914, -0.0925091803073883
11976, 0.047107718884944916, -0.01436734851449728, -0.0041465419344604015, 0.09483340382575989, 0.0009605998056940734, 0.12820933759212494, 0.0020050557795912027, -0.004368573892861605, 1.0020841360092163, 0.8659173250198364, -2.090280532836914, -0.0925091803073883, 0.0, 0.0, 0.0, 0, 0, 0, 0, 0, 0, 0.8659173250198364, -2.090280532836914, -0.0925091803073883
11986, 0.046904031187295914, -0.015048613771796227, -0.0038429691921919584, -0.03364524245262146, 0.17824365198612213, 0.044219519942998886, 0.0010681584244593978, -0.004791846964508295, 1.0016878843307495, 0.8679999709129333, -2.095601797103882, -0.09269946813583374, 0.0, 0.0, 0.0, 0, 0, 0, 0, 0, 0, 0.8679999709129333, -2.095601797103882, -0.09269946813583374
11996, 0.04809602349996567, -0.014653068035840988, -0.004282672889530659, 0.07489451766014099, -0.03264124318957329, -0.08035662770271301, 0.0009118375019170344, -0.006256920285522938, 1.0003645420074463, 0.8698951005935669, -2.100444793701172, -0.09287067502737045, 0.0, 0.0, 0.0, 0, 0, 0, 0, 0, 0, 0.8698951005935669, -2.100444793701172, -0.09287067502737045
12006, 0.04861598089337349, -0.013887493871152401, -0.003644757904112339, -0.031066380441188812, -0.01637137494981289, 0.28097206354141235, 0.0027324247639626265, -0.005656734108924866, 0.9997923970222473, 0.8717913627624512, -2.1052937507629395, -0.0930405855178833, 0.0, 0.0, 0.0, 0, 0, 0, 0, 0, 0, 0.8717913627624512, -2.1052937507629395, -0.0930405855178833
12016, 0.048844799399375916, -0.013714800588786602, -0.0030832986813038588, 0.013760263100266457, 0.02079305611550808, 0.1275331676006317, 0.0015647370601072907, -0.006217010319232941, 1.0000054836273193, 0.8736894726753235, -2.110149383544922, -0.093210369348526, 0.0, 0.0, 0.0, 0, 0, 0, 0, 0, 0, 0.8736894726753235, -2.110149383544922, -0.093210369348526
12026, 0.047984249889850616, -0.012794172391295433, -0.0015540973981842399, -0.18439994752407074, -0.1631968468427658, 0.009352007880806923, 0.0027079256251454353, -0.003695851657539606, 0.9999470710754395, 0.8755898475646973, -2.1150119304656982, -0.09338012337684631, 0.0, 0.0, 0.0, 0, 0, 0, 0, 0, 0, 0.8755898475646973, -2.1150119304656982, -0.09338012337684631
12036, 0.048219092190265656, -0.013050037436187267, -0.0010098213097080588, -0.06753017753362656, -0.04678443446755409, -0.0779411718249321, 0.0015387032181024551, -0.004633917473256588, 0.9985837340354919, 0.8774926066398621, -2.119880199432373, -0.09354978799819946, 0.0, 0.0, 0.0, 0, 0, 0, 0, 0, 0, 0.8774926066398621, -2.119880199432373, -0.09354978799819946
12046, 0.048944566398859024, -0.015647048130631447, -0.0002979725250042975, 0.09664323180913925, 0.31991955637931824, 0.0848056897521019, 0.0011726063676178455, -0.005432698410004377, 0.997971773147583, 0.8793975710868835, -2.12475323677063, -0.09372015297412872, 0.0, 0.0, 0.0, 0, 0, 0, 0, 0, 0, 0.8793975710868835, -2.12475323677063, -0.09372015297412872
12056, 0.048215024173259735, -0.015781143680214882, -0.0010593222687020898, -0.12617014348506927, 0.01514260470867157, -0.20667679607868195, 0.000940056808758527, -0.0042609102092683315, 0.9988282918930054, 0.881304144859314, -2.129631757736206, -0.09389203041791916, 0.0, 0.0, 0.0, 0, 0, 0, 0, 0, 0, 0.881304144859314, -2.129631757736206, -0.09389203041791916
12066, 0.04737314581871033, -0.016214577481150627, -0.0010046249954029918, -0.19775338470935822, 0.3401070237159729, 0.044650692492723465, 0.0032514119520783424, -0.0051780990324914455, 0.9990161061286926, 0.8832120299339294, -2.1345160007476807, -0.09406542032957077, 0.0, 0.0, 0.0, 0, 0, 0, 0, 0, 0, 0.8832120299339294, -2.1345160007476807, -0.09406542032957077
12076, 0.04827946797013283, -0.015146970748901367, -0.0009815507801249623, 0.0927773267030716, -0.11713261902332306, 0.023196283727884293, 0.0012285513803362846, -0.004700253251940012, 0.9996886253356934, 0.8851221203804016, -2.1394057273864746, -0.09423995018005371, 0.0, 0.0, 0.0, 0, 0, 0, 0, 0, 0, 0.8851221203804016, -2.1394057273864746, -0.09423995018005371
12086, 0.04909154400229454, -0.01504176203161478, 0.001426749862730503, 0.10180802643299103, 0.11004483699798584, 0.20040681958198547, 0.0022116953041404486, -0.003530189162120223, 1.0011794567108154, 0.8870347142219543, -2.144300937652588, -0.09441516548395157, 0.0, 0.0, 0.0, 0, 0, 0, 0, 0, 0, 0.8870347142219543, -2.144300937652588, -0.09441516548395157
12096, 0.049967311322689056, -0.015905184671282768, 0.0016301253344863653, 0.1136026605963707, 0.23563796281814575, -0.10131530463695526, 0.001964000752195716, -0.005546996835619211, 0.9997988939285278, 0.8889493942260742, -2.1492013931274414, -0.09459012746810913, 0.0, 0.0, 0.0, 0, 0, 0, 0, 0, 0, 0.8889493942260742, -2.1492013931274414, -0.09459012746810913
12106, 0.05004275590181351, -0.014309350401163101, 0.0009886770276352763, 0.0842384397983551, -0.2760470509529114, -0.3258875608444214, 0.0025480149779468775, -0.006426626816391945, 1.0001400709152222, 0.8908664584159851, -2.154107093811035, -0.09476472437381744, 0.0, 0.0, 0.0, 0, 0, 0, 0, 0, 0, 0.8908664584159851, -2.154107093811035, -0.09476472437381744
12116, 0.04968319460749626, -0.013189180754125118, 0.003021084936335683, 0.00397275947034359, -0.17758457362651825, 0.17118029296398163, 0.00175516027957201, -0.00678978580981493, 1.0013006925582886, 0.8927860856056213, -2.1590194702148438, -0.09493919461965561, 0.0, 0.0, 0.0, 0, 0, 0, 0, 0, 0, 0.8927860856056213, -2.1590194702148438, -0.09493919461965561
12126, 0.0497298389673233, -0.012262285687029362, 0.004629052709788084, -0.023310579359531403, -0.1597362905740738, 0.11391296982765198, 0.0015598249156028032, -0.005429401993751526, 1.0001285076141357, 0.8947080969810486, -2.1639389991760254, -0.09511299431324005, 0.0, 0.0, 0.0, 0, 0, 0, 0, 0, 0, 0.8947080969810486, -2.1639389991760254, -0.09511299431324005
12136, 0.04983745142817497, -0.011603209190070629, 0.006120513658970594, -0.04110826924443245, -0.0836000069975853, 0.19986340403556824, 0.00507953530177474, -0.004804274067282677, 1.0001686811447144, 0.8966321349143982, -2.168865203857422, -0.09528597444295883, 0.0, 0.0, 0.0, 0, 0, 0, 0, 0, 0, 0.8966321349143982, -2.168865203857422, -0.09528597444295883
12146, 0.04953678697347641, -0.011680498719215393, 0.004345558118075132, 0.032845910638570786, -0.017364216968417168, -0.2000308632850647, 0.005638387054204941, -0.004497576504945755, 0.9991414546966553, 0.8985596299171448, -2.173797369003296, -0.09545859694480896, 0.0, 0.0, 0.0, 0, 0, 0, 0, 0, 0, 0.8985596299171448, -2.173797369003296, -0.09545859694480896
12156, 0.05021095648407936, -0.009525835514068604, 0.0029480312950909138, 0.17144480347633362, -0.22001558542251587, -0.22348958253860474, 0.00300819193944335, -0.006224024575203657, 0.9990260601043701, 0.900492250919342, -2.1787350177764893, -0.09563159942626953, 0.0, 0.0, 0.0, 0, 0, 0, 0, 0, 0, 0.900492250919342, -2.1787350177764893, -0.09563159942626953
12166, 0.0502118356525898, -0.009104402735829353, 0.002165435580536723, 0.1619042307138443, 0.003825268941000104, 0.025389015674591064, 0.0038098578806966543, -0.0051818834617733955, 1.0004905462265015, 0.9024291634559631, -2.1836788654327393, -0.09580545127391815, 0.0, 0.0, 0.0, 0, 0, 0, 0, 0, 0, 0.9024291634559631, -2.1836788654327393, -0.09580545127391815
12176, 0.050528381019830704, -0.008911877870559692, 0.0028774337843060493, 0.05007196590304375, -0.11802320927381516, 0.10314340889453888, 0.0035129913594573736, -0.004442650359123945, 1.0020887851715088, 0.904369592666626, -2.188629150390625, -0.09597939252853394, 0.0, 0.0, 0.0, 0, 0, 0, 0, 0, 0, 0.904369592666626, -2.188629150390625, -0.09597939252853394
12186, 0.05141955241560936, -0.008463267236948013, 0.0020048953592777252, 0.02146066725254059, -0.008264292031526566, -0.17525622248649597, 0.0027120979502797127, -0.004657410550862551, 0.998297393321991, 0.9063138365745544, -2.19358491897583, -0.09615206718444824, 0.0, 0.0, 0.0, 0, 0, 0, 0, 0, 0, 0.9063138365745544, -2.19358491897583, -0.09615206718444824
12196, 0.051843587309122086, -0.007433397229760885, 0.0016258085379377007, 0.08097446709871292, -0.12769514322280884, -0.10307171940803528, 0.0034188064746558666, -0.006303112488240004, 0.9960894584655762, 0.9082613587379456, -2.1985461711883545, -0.09632451832294464, 0.0, 0.0, 0.0, 0, 0, 0, 0, 0, 0, 0.9082613587379456, -2.1985461711883545, -0.09632451832294464
12206, 0.05116645246744156, -0.007313098758459091, 0.0023136604577302933, 0.004038509912788868, 0.021928098052740097, 0.06121056154370308, 0.002320941537618637, -0.008408534340560436, 1.00016188621521, 0.9102120995521545, -2.2035133838653564, -0.0964994728565216, 0.0, 0.0, 0.0, 0, 0, 0, 0, 0, 0, 0.9102120995521545, -2.2035133838653564, -0.0964994728565216
12216, 0.050868771970272064, -0.006715415045619011, 0.002163729164749384, -0.043042995035648346, -0.1504485160112381, -0.13734851777553558, 0.003266272135078907, -0.003541502170264721, 0.9990609884262085, 0.9121658205986023, -2.2084884643554688, -0.09667643904685974, 0.0, 0.0, 0.0, 0, 0, 0, 0, 0, 0, 0.9121658205986023, -2.2084884643554688, -0.09667643904685974
12226, 0.050703443586826324, -0.00963655300438404, 0.004514473956078291, -0.05757513269782066, 0.22673708200454712, 0.3566190302371979, 0.0033666021190583706, -0.005950003396719694, 1.0004013776779175, 0.9141225218772888, -2.213470458984375, -0.09685402363538742, 0.0, 0.0, 0.0, 0, 0, 0, 0, 0, 0, 0.9141225218772888, -2.213470458984375, -0.09685402363538742
12236, 0.05125069245696068, -0.011693896725773811, 0.004364851862192154, 0.018757743760943413, 0.2272244542837143, -0.044772353023290634, 0.004917359445244074, -0.005126346834003925, 1.0000507831573486, 0.9160826802253723, -2.218458414077759, -0.09703192859888077, 0.0, 0.0, 0.0, 0, 0, 0, 0, 0, 0, 0.9160826802253723, -2.218458414077759, -0.09703192859888077
12246, 0.051454417407512665, -0.010452257469296455, 0.0034853678662329912, -0.001523794373497367, -0.3146499693393707, -0.18164663016796112, 0.0021154857240617275, -0.004456194117665291, 0.9997168779373169, 0.9180468320846558, -2.22345232963562, -0.09720971435308456, 0.0, 0.0, 0.0, 0, 0, 0, 0, 0, 0, 0.9180468320846558, -2.22345232963562, -0.09720971435308456
12256, 0.05158785358071327, -0.010938717983663082, 0.003898216877132654, 0.037413038313388824, 0.001990346470847726, 0.1799612045288086, 0.002501797629520297, -0.004724363796412945, 0.9999411106109619, 0.9200146198272705, -2.22845196723938, -0.09738752245903015, 0.0, 0.0, 0.0, 0, 0, 0, 0, 0, 0, 0.9200146198272705, -2.22845196723938, -0.09738752245903015
12266, 0.05152934044599533, -0.009469670243561268, 0.00348066003061831, -0.006628044415265322, -0.007777246180921793, 0.04746086522936821, 0.0004104994877707213, -0.006562777794897556, 0.9996508359909058, 0.921984851360321, -2.233457088470459, -0.09756555408239365, 0.0, 0.0, 0.0, 0, 0, 0, 0, 0, 0, 0.921984851360321, -2.233457088470459, -0.09756555408239365
12276, 0.050977326929569244, -0.009265081025660038, 0.00446656346321106, -0.12302535027265549, -0.023658717051148415, 0.13091933727264404, 0.0028764670714735985, -0.005298339296132326, 0.9984649419784546, 0.9239566326141357, -2.2384684085845947, -0.09774404764175415, 0.0, 0.0, 0.0, 0, 0, 0, 0, 0, 0, 0.9239566326141357, -2.2384684085845947, -0.09774404764175415
12286, 0.05211424082517624, -0.00899444054812193, 0.005648166406899691, 0.21505914628505707, -0.10792245715856552, 0.04516606032848358, 0.00305678672157228, -0.00444043567404151, 1.0000842809677124, 0.9259302020072937, -2.243486166000366, -0.09792356193065643, 0.0, 0.0, 0.0, 0, 0, 0, 0, 0, 0, 0.9259302020072937, -2.243486166000366, -0.09792356193065643
12296, 0.05146606266498566, -0.01018267311155796, 0.005425741896033287, -0.03484043478965759, 0.13185790181159973, 0.046758852899074554, 0.0001744575856719166, -0.0037774229422211647, 0.9983255863189697, 0.9279066920280457, -2.248509645462036, -0.09810390323400497, 0.0, 0.0, 0.0, 0, 0, 0, 0, 0, 0, 0.9279066920280457, -2.248509645462036, -0.09810390323400497
12306, 0.0521598681807518, -0.010699800215661526, 0.004954847972840071, 0.171660915017128, 0.19917312264442444, 0.09437765181064606, 0.00035610541817732155, -0.0033968687057495117, 0.9987717866897583, 0.9298851490020752, -2.253538131713867, -0.09828519821166992, 0.0, 0.0, 0.0, 0, 0, 0, 0, 0, 0, 0.9298851490020752, -2.253538131713867, -0.09828519821166992
12316, 0.052533600479364395, -0.010293704457581043, 0.004807118326425552, 0.057856302708387375, 0.10204442590475082, -0.008477654308080673, 0.002131841843947768, -0.0035425990354269743, 0.9989504814147949, 0.9318643808364868, -2.258570909500122, -0.09846802800893784, 0.0, 0.0, 0.0, 0, 0, 0, 0, 0, 0, 0.9318643808364868, -2.258570909500122, -0.09846802800893784
12326, 0.0534687340259552, -0.010518936440348625, 0.004646778106689453, 0.10674816370010376, 0.050992291420698166, -0.09925229847431183, 0.0018177017336711287, -0.0056611173786222935, 0.9984126091003418, 0.933845043182373, -2.263607978820801, -0.09865223616361618, 0.0, 0.0, 0.0, 0, 0, 0, 0, 0, 0, 0.933845043182373, -2.263607978820801, -0.09865223616361618
12336, 0.05327732861042023, -0.00977280829101801, 0.004745786543935537, -0.0275419894605875, -0.09427767992019653, 0.05471600592136383, 0.0007844138890504837, -0.00461353687569499, 1.0001651048660278, 0.9358277320861816, -2.2686502933502197, -0.09883786737918854, 0.0, 0.0, 0.0, 0, 0, 0, 0, 0, 0, 0.9358277320861816, -2.2686502933502197, -0.09883786737918854
12346, 0.052808504551649094, -0.009533105418086052, 0.004985673353075981, -0.1053926944732666, -0.12341539561748505, -0.03765036165714264, 0.002665718784555793, -0.005651276558637619, 0.9995391368865967, 0.9378119111061096, -2.273698568344116, -0.09902435541152954, 0.0, 0.0, 0.0, 0, 0, 0, 0, 0, 0, 0.9378119111061096, -2.273698568344116, -0.09902435541152954
12356, 0.053144246339797974, -0.010458101518452168, 0.005847410298883915, 0.028578588739037514, 0.2294485867023468, 0.21051214635372162, 0.002802202943712473, -0.005203256383538246, 0.9990527033805847, 0.9397979378700256, -2.278752565383911, -0.09921105951070786, 0.0, 0.0, 0.0, 0, 0, 0, 0, 0, 0, 0.9397979378700256, -2.278752565383911, -0.09921105951070786
12366, 0.05293367803096771, -0.009901645593345165, 0.004240275360643864, 0.004054308868944645, 0.11900559067726135, -0.23096394538879395, 0.0010383451590314507, -0.005411627236753702, 1.0004477500915527, 0.9417866468429565, -2.2838127613067627, -0.09939836710691452, 0.0, 0.0, 0.0, 0, 0, 0, 0, 0, 0, 0.9417866468429565, -2.2838127613067627, -0.09939836710691452
12376, 0.05164678394794464, -0.009348546154797077, 0.004188901744782925, -0.0689757913351059, 0.047858063131570816, 0.14960038661956787, 0.0035462204832583666, -0.006275745574384928, 1.0006295442581177, 0.9437776207923889, -2.288879156112671, -0.09958599507808685, 0.0, 0.0, 0.0, 0, 0, 0, 0, 0, 0, 0.9437776207923889, -2.288879156112671, -0.09958599507808685
12386, 0.05080670863389969, -0.010331469587981701, 0.005553907249122858, -0.16982020437717438, 0.29303693771362305, 0.20482534170150757, 0.002052041469141841, -0.007191234268248081, 0.9993574023246765, 0.9457710385322571, -2.293952226638794, -0.09977325052022934, 0.0, 0.0, 0.0, 0, 0, 0, 0, 0, 0, 0.9457710385322571, -2.293952226638794, -0.09977325052022934
12396, 0.05075744912028313, -0.011383234523236752, 0.004808650817722082, -0.06154954433441162, 0.20505830645561218, -0.19062697887420654, 0.0021241637878119946, -0.004998417105525732, 0.9996557235717773, 0.9477671384811401, -2.299032688140869, -0.09996047616004944, 0.0, 0.0, 0.0, 0, 0, 0, 0, 0, 0, 0.9477671384811401, -2.299032688140869, -0.09996047616004944
12406, 0.051621995866298676, -0.0115203857421875, 0.004482843913137913, 0.06950024515390396, 0.07649929821491241, 0.08499542623758316, 0.00201057898811996, -0.0062232790514826775, 1.000096082687378, 0.9497654438018799, -2.3041200637817383, -0.10014799982309341, 0.0, 0.0, 0.0, 0, 0, 0, 0, 0, 0, 0.9497654438018799, -2.3041200637817383, -0.10014799982309341
12416, 0.05147295817732811, -0.012667066417634487, 0.004838727414608002, -0.061573777347803116, 0.1530403196811676, -0.031945690512657166, 0.0027703766245394945, -0.003412875346839428, 0.999286949634552, 0.9517660737037659, -2.309213638305664, -0.10033563524484634, 0.0, 0.0, 0.0, 0, 0, 0, 0, 0, 0, 0.9517660737037659, -2.309213638305664, -0.10033563524484634
12426, 0.0521211102604866, -0.011857455596327782, 0.00426974892616272, 0.16954654455184937, -0.12860088050365448, -0.00875902734696865, 0.0021235987078398466, -0.004561061970889568, 0.9990697503089905, 0.9537692070007324, -2.3143129348754883, -0.10052371025085449, 0.0, 0.0, 0.0, 0, 0, 0, 0, 0, 0, 0.9537692070007324, -2.3143129348754883, -0.10052371025085449
12436, 0.05112478882074356, -0.011164856143295765, 0.0052728308364748955, -0.1229047104716301, -0.12805190682411194, 0.09972362965345383, 0.0009734244667924941, -0.002930817659944296, 1.000846028327942, 0.9557747840881348, -2.3194169998168945, -0.1007126048207283, 0.0, 0.0, 0.0, 0, 0, 0, 0, 0, 0, 0.9557747840881348, -2.3194169998168945, -0.1007126048207283
12446, 0.051422763615846634, -0.011967489495873451, 0.004312928766012192, 0.08989257365465164, -0.056033454835414886, -0.15416942536830902, 0.0021603128407150507, -0.004612834192812443, 1.0009962320327759, 0.9577821493148804, -2.324525833129883, -0.10090155154466629, 0.0, 0.0, 0.0, 0, 0, 0, 0, 0, 0, 0.9577821493148804, -2.324525833129883, -0.10090155154466629
12456, 0.0508127398788929, -0.013507611118257046, 0.005339336581528187, 0.0658540278673172, -0.04459422826766968, 0.2073885053396225, 0.0028082311619073153, -0.005132394842803478, 0.9985787272453308, 0.9597913026809692, -2.329639434814453, -0.10108984261751175, 0.0, 0.0, 0.0, 0, 0, 0, 0, 0, 0, 0.9597913026809692, -2.329639434814453, -0.10108984261751175
12466, 0.0504397377371788, -0.014459730125963688, 0.005983689799904823, -0.042168065905570984, 0.048294954001903534, 0.05424058064818382, 0.005790234077721834, -0.006005312781780958, 0.9991615414619446, 0.9618028998374939, -2.3347585201263428, -0.10127841681241989, 0.0, 0.0, 0.0, 0, 0, 0, 0, 0, 0, 0.9618028998374939, -2.3347585201263428, -0.10127841681241989
12476, 0.049942746758461, -0.013324529863893986, 0.0064179496839642525, 0.05533622205257416, -0.07974465936422348, 0.00505306851118803, 0.0036965354811400175, -0.0045208679512143135, 1.001869797706604, 0.9638186097145081, -2.339883804321289, -0.10146791487932205, 0.0, 0.0, 0.0, 0, 0, 0, 0, 0, 0, 0.9638186097145081, -2.339883804321289, -0.10146791487932205
12486, 0.049657732248306274, -0.013919287361204624, 0.005788296461105347, 0.04349060356616974, 0.15438707172870636, 0.029022598639130592, 0.0008038802770897746, -0.003789130598306656, 0.9985219836235046, 0.9658388495445251, -2.345015287399292, -0.10165722668170929, 0.0, 0.0, 0.0, 0, 0, 0, 0, 0, 0, 0.9658388495445251, -2.345015287399292, -0.10165722668170929
12496, 0.05095943063497543, -0.012746007181704044, 0.006067567504942417, 0.15186642110347748, -0.1560351550579071, -0.003237332683056593, 0.003538495860993862, -0.006221817806363106, 0.9989410638809204, 0.9678615927696228, -2.350152015686035, -0.10184653848409653, 0.0, 0.0, 0.0, 0, 0, 0, 0, 0, 0, 0.9678615927696228, -2.350152015686035, -0.10184653848409653
12506, 0.05143226683139801, -0.012738864868879318, 0.0061048343777656555, -0.003286118619143963, -0.12264132499694824, 0.005677446257323027, 0.0027116993442177773, -0.006406520958989859, 0.9981560707092285, 0.9698866009712219, -2.3552942276000977, -0.10203702002763748, 0.0, 0.0, 0.0, 0, 0, 0, 0, 0, 0, 0.9698866009712219, -2.3552942276000977, -0.10203702002763748
12516, 0.051281869411468506, -0.012862907722592354, 0.00689527066424489, -0.08056538552045822, 0.040854714810848236, 0.015765439718961716, 0.002462959848344326, -0.007352662272751331, 0.997477114200592, 0.9719147682189941, -2.360443353652954, -0.10222899913787842, 0.0, 0.0, 0.0, 0, 0, 0, 0, 0, 0, 0.9719147682189941, -2.360443353652954, -0.10222899913787842
12526, 0.05075535178184509, -0.013347603380680084, 0.006178768817335367, -0.11675427854061127, 0.1025213897228241, -0.14321744441986084, 0.002512856386601925, -0.007283590268343687, 1.000229835510254, 0.9739458560943604, -2.365600347518921, -0.10242296010255814, 0.0, 0.0, 0.0, 0, 0, 0, 0, 0, 0, 0.9739458560943604, -2.365600347518921, -0.10242296010255814
12536, 0.05126003548502922, -0.014785731211304665, 0.007306966930627823, 0.08319532126188278, 0.17916475236415863, 0.16163192689418793, -0.00013701425632461905, -0.006642071530222893, 1.000731110572815, 0.9759795069694519, -2.370765447616577, -0.10261805355548859, 0.0, 0.0, 0.0, 0, 0, 0, 0, 0, 0, 0.9759795069694519, -2.370765447616577, -0.10261805355548859
12546, 0.05106546729803085, -0.01552564650774002, 0.009310062974691391, -0.12270324677228928, 0.1317635327577591, 0.19210228323936462, 0.0013138927752152085, -0.0053949421271681786, 1.0009568929672241, 0.9780146479606628, -2.3759381771087646, -0.10281279683113098, 0.0, 0.0, 0.0, 0, 0, 0, 0, 0, 0, 0.9780146479606628, -2.3759381771087646, -0.10281279683113098
12556, 0.051342252641916275, -0.015665849670767784, 0.009549619629979134, 0.12723925709724426, 0.014686712063848972, 0.03846238553524017, 0.0014300616458058357, -0.0049529303796589375, 0.9989274144172668, 0.980050802230835, -2.381117820739746, -0.10300686210393906, 0.0, 0.0, 0.0, 0, 0, 0, 0, 0, 0, 0.980050802230835, -2.381117820739746, -0.10300686210393906
12566, 0.05064365267753601, -0.014936120249330997, 0.008919786661863327, -0.05792514607310295, -0.10534270852804184, -0.05594169348478317, 0.001882069045677781, -0.006139430217444897, 0.9988120794296265, 0.9820884466171265, -2.386303424835205, -0.10320103168487549, 0.0, 0.0, 0.0, 0, 0, 0, 0, 0, 0, 0.9820884466171265, -2.386303424835205, -0.10320103168487549
12576, 0.04972655326128006, -0.01615964062511921, 0.007983885705471039, -0.15034973621368408, 0.12154420465230942, 0.04732872173190117, 0.0015899628633633256, -0.0050667147152125835, 0.9991108775138855, 0.984127938747406, -2.3914952278137207, -0.10339625924825668, 0.0, 0.0, 0.0, 0, 0, 0, 0, 0, 0, 0.984127938747406, -2.3914952278137207, -0.10339625924825668
12586, 0.05076146125793457, -0.0169192086905241, 0.010230901651084423, 0.2802436053752899, -0.014795356430113316, 0.44528186321258545, 0.0015996547881513834, -0.005689666606485844, 0.9978118538856506, 0.9861693978309631, -2.396693468093872, -0.10359252244234085, 0.0, 0.0, 0.0, 0, 0, 0, 0, 0, 0, 0.9861693978309631, -2.396693468093872, -0.10359252244234085
12596, 0.051594946533441544, -0.016049467027187347, 0.011277738027274609, 0.18524515628814697, -0.13336345553398132, 0.0666598305106163, 0.0018218172481283545, -0.006532380357384682, 0.9981537461280823, 0.9882127046585083, -2.40189790725708, -0.103790283203125, 0.0, 0.0, 0.0, 0, 0, 0, 0, 0, 0, 0.9882127046585083, -2.40189790725708, -0.103790283203125
12606, 0.05120576173067093, -0.016253845766186714, 0.011466086842119694, -0.10425475984811783, 0.2232033908367157, -0.00561851542443037, 0.0027755287010222673, -0.006519377697259188, 0.9995843768119812, 0.9902577996253967, -2.407109260559082, -0.10398997366428375, 0.0, 0.0, 0.0, 0, 0, 0, 0, 0, 0, 0.9902577996253967, -2.407109260559082, -0.10398997366428375
12616, 0.0529005192220211, -0.01422917377203703, 0.01121156383305788, 0.32431721687316895, -0.28760096430778503, 0.0520775131881237, 0.003483347361907363, -0.004414170514792204, 0.9994559288024902, 0.9923052787780762, -2.412327766418457, -0.10419085621833801, 0.0, 0.0, 0.0, 0, 0, 0, 0, 0, 0, 0.9923052787780762, -2.412327766418457, -0.10419085621833801
12626, 0.052563395351171494, -0.015224538743495941, 0.010992862284183502, 0.0420786589384079, 0.13871048390865326, 0.17847780883312225, 0.0008042844128794968, -0.005764749366790056, 1.0010219812393188, 0.9943559169769287, -2.4175527095794678, -0.10439237952232361, 0.0, 0.0, 0.0, 0, 0, 0, 0, 0, 0, 0.9943559169769287, -2.4175527095794678, -0.10439237952232361
12636, 0.05200444534420967, -0.015344892628490925, 0.012788211926817894, -0.09138181060552597, 0.12786248326301575, 0.11686141043901443, 0.0006454673712141812, -0.00406052079051733, 0.9977567195892334, 0.996408998966217, -2.422783613204956, -0.10459384322166443, 0.0, 0.0, 0.0, 0, 0, 0, 0, 0, 0, 0.996408998966217, -2.422783613204956, -0.10459384322166443
12646, 0.052072104066610336, -0.014721984975039959, 0.013461986556649208, -0.04771515354514122, -0.05597422644495964, -0.01688341610133648, 0.00022534966410603374, -0.0038999649696052074, 0.9989051818847656, 0.9984631538391113, -2.4280202388763428, -0.10479581356048584, 0.0, 0.0, 0.0, 0, 0, 0, 0, 0, 0, 0.9984631538391113, -2.4280202388763428, -0.10479581356048584
12656, 0.051952701061964035, -0.01473129354417324, 0.01304884534329176, 0.012524056248366833, -0.15898756682872772, -0.07780809700489044, 0.002481777686625719, -0.006619785446673632, 1.0024302005767822, 1.0005178451538086, -2.4332616329193115, -0.10499934107065201, 0.0, 0.0, 0.0, 0, 0, 0, 0, 0, 0, 1.0005178451538086, -2.4332616329193115, -0.10499934107065201
12666, 0.052515897899866104, -0.017197556793689728, 0.0135031808167696, 0.07548204809427261, 0.15964874625205994, 0.1648739129304886, 0.0035396285820752382, -0.005210199858993292, 0.9995894432067871, 1.002573847770691, -2.4385087490081787, -0.10520266741514206, 0.0, 0.0, 0.0, 0, 0, 0, 0, 0, 0, 1.002573847770691, -2.4385087490081787, -0.10520266741514206
12676, 0.05156257376074791, -0.017276780679821968, 0.013001597486436367, -0.1155422106385231, -0.06213218718767166, 0.08493603765964508, 0.0018698753556236625, -0.00692072743549943, 0.9994320869445801, 1.004632830619812, -2.4437623023986816, -0.1054050624370575, 0.0, 0.0, 0.0, 0, 0, 0, 0, 0, 0, 1.004632830619812, -2.4437623023986816, -0.1054050624370575
12686, 0.05189730226993561, -0.017728930339217186, 0.012157703749835491, 0.09671608358621597, 0.01225428655743599, -0.08877572417259216, 3.9196998841362074e-05, -0.0063117812387645245, 1.0003361701965332, 1.0066947937011719, -2.4490230083465576, -0.10560759156942368, 0.0, 0.0, 0.0, 0, 0, 0, 0, 0, 0, 1.0066947937011719, -2.4490230083465576, -0.10560759156942368
12696, 0.05302482843399048, -0.017111120745539665, 0.011438315734267235, 0.14015302062034607, -0.12995018064975739, -0.06847354024648666, -0.0004733795940410346, -0.002918432466685772, 1.0004966259002686, 1.0087584257125854, -2.4542908668518066, -0.10581018775701523, 0.0, 0.0, 0.0, 0, 0, 0, 0, 0, 0, 1.0087584257125854, -2.4542908668518066, -0.10581018775701523
12706, 0.052506450563669205, -0.016942914575338364, 0.010958048515021801, -0.06857075542211533, -0.018122265115380287, -0.20619063079357147, 0.0018973774276673794, -0.004841375630348921, 0.9983280301094055, 1.0108225345611572, -2.459564685821533, -0.10601259022951126, 0.0, 0.0, 0.0, 0, 0, 0, 0, 0, 0, 1.0108225345611572, -2.459564685821533, -0.10601259022951126
12716, 0.05224969983100891, -0.01687285490334034, 0.011191214434802532, 0.03178129717707634, 0.23877350986003876, 0.00290300534106791, 0.0030760543886572123, -0.0033531272783875465, 0.9999493360519409, 1.0128874778747559, -2.464843273162842, -0.10621554404497147, 0.0, 0.0, 0.0, 0, 0, 0, 0, 0, 0, 1.0128874778747559, -2.464843273162842, -0.10621554404497147
12726, 0.05375903844833374, -0.01714981533586979, 0.0123422397300601, 0.225227490067482, 0.09313375502824783, 0.16402064263820648, 1.7407610357622616e-05, -0.0033666654489934444, 1.0012445449829102, 1.014954924583435, -2.4701266288757324, -0.10641944408416748, 0.0, 0.0, 0.0, 0, 0, 0, 0, 0, 0, 1.014954924583435, -2.4701266288757324, -0.10641944408416748
12736, 0.05388328805565834, -0.017469024285674095, 0.01252688467502594, 0.09673582017421722, -0.00739408191293478, -0.052663445472717285, 0.0032806089147925377, -0.004323028493672609, 0.9995399117469788, 1.0170245170593262, -2.475414276123047, -0.10662318766117096, 0.0, 0.0, 0.0, 0, 0, 0, 0, 0, 0, 1.0170245170593262, -2.475414276123047, -0.10662318766117096
12746, 0.05283799767494202, -0.018112722784280777, 0.011976143345236778, -0.11211705952882767, 0.10843133926391602, 0.023173872381448746, 0.0017223273171111941, -0.004387822467833757, 1.0010226964950562, 1.0190958976745605, -2.4807064533233643, -0.10682658851146698, 0.0, 0.0, 0.0, 0, 0, 0, 0, 0, 0, 1.0190958976745605, -2.4807064533233643, -0.10682658851146698
12756, 0.05291673168540001, -0.018314164131879807, 0.012267032638192177, 0.08003992587327957, 0.04908143728971481, 0.14333681762218475, 0.002441990654915571, -0.005014555063098669, 0.9990056157112122, 1.0211697816848755, -2.4860036373138428, -0.10702976584434509, 0.0, 0.0, 0.0, 0, 0, 0, 0, 0, 0, 1.0211697816848755, -2.4860036373138428, -0.10702976584434509
12766, 0.05342470109462738, -0.017941636964678764, 0.012465543113648891, 0.05235143378376961, -0.06253372877836227, 0.05959298461675644, 0.004447827581316233, -0.006746942177414894, 0.9981810450553894, 1.023246169090271, -2.4913063049316406, -0.10723286867141724, 0.0, 0.0, 0.0, 0, 0, 0, 0, 0, 0, 1.023246169090271, -2.4913063049316406, -0.10723286867141724
12776, 0.05459883064031601, -0.017400948330760002, 0.011761206202208996, 0.1411726325750351, -0.07015706598758698, -0.15691165626049042, 0.003190099261701107, -0.0047880965285003185, 1.0005923509597778, 1.025326132774353, -2.496615409851074, -0.10743720084428787, 0.0, 0.0, 0.0, 0, 0, 0, 0, 0, 0, 1.025326132774353, -2.496615409851074, -0.10743720084428787
12786, 0.05506779998540878, -0.01629311591386795, 0.012414283119142056, 0.01058601401746273, -0.1300579458475113, -0.007106466684490442, 0.00212301523424685, -0.006511411163955927, 0.999729335308075, 1.0274101495742798, -2.5019309520721436, -0.10764236003160477, 0.0, 0.0, 0.0, 0, 0, 0, 0, 0, 0, 1.0274101495742798, -2.5019309520721436, -0.10764236003160477
12796, 0.05484794080257416, -0.014633840881288052, 0.01345975324511528, -0.08819739520549774, -0.19414231181144714, 0.10274102538824081, 0.0019850453827530146, -0.006580717395991087, 1.000437617301941, 1.0294972658157349, -2.5072526931762695, -0.10784735530614853, 0.0, 0.0, 0.0, 0, 0, 0, 0, 0, 0, 1.0294972658157349, -2.5072526931762695, -0.10784735530614853
12806, 0.055136021226644516, -0.013825256377458572, 0.012201185338199139, 0.09836458414793015, -0.09549150615930557, -0.22580447793006897, 0.0012782086851075292, -0.004787039011716843, 1.001069188117981, 1.0315866470336914, -2.5125815868377686, -0.10805216431617737, 0.0, 0.0, 0.0, 0, 0, 0, 0, 0, 0, 1.0315866470336914, -2.5125815868377686, -0.10805216431617737
12816, 0.055948663502931595, -0.010975299403071404, 0.013208208605647087, 0.027624113485217094, -0.3610650897026062, 0.025721993297338486, 0.0012274511391296983, -0.005937755573540926, 1.001346468925476, 1.0336776971817017, -2.5179171562194824, -0.10825647413730621, 0.0, 0.0, 0.0, 0, 0, 0, 0, 0, 0, 1.0336776971817017, -2.5179171562194824, -0.10825647413730621
12826, 0.05562297999858856, -0.011342402547597885, 0.013175643049180508, -0.039156828075647354, 0.062444157898426056, -0.10594484955072403, 0.00100202567409724, -0.003198574297130108, 0.9983989000320435, 1.035770058631897, -2.523258924484253, -0.1084597259759903, 0.0, 0.0, 0.0, 0, 0, 0, 0, 0, 0, 1.035770058631897, -2.523258924484253, -0.1084597259759903
12836, 0.05634390190243721, -0.010036814026534557, 0.013362240977585316, 0.19915343821048737, -0.31789276003837585, 0.1351960450410843, 0.003586364211514592, -0.003463000524789095, 0.9985094666481018, 1.0378636121749878, -2.5286061763763428, -0.10866277664899826, 0.0, 0.0, 0.0, 0, 0, 0, 0, 0, 0, 1.0378636121749878, -2.5286061763763428, -0.10866277664899826
12846, 0.05546033754944801, -0.011291281320154667, 0.013175535947084427, -0.04970031976699829, 0.1752074956893921, 0.16780702769756317, 0.0029239277355372906, -0.003970303572714329, 0.9995787739753723, 1.0399596691131592, -2.5339579582214355, -0.1088671013712883, 0.0, 0.0, 0.0, 0, 0, 0, 0, 0, 0, 1.0399596691131592, -2.5339579582214355, -0.1088671013712883
12856, 0.056891363114118576, -0.012172342278063297, 0.013990521430969238, 0.16209198534488678, 0.17093457281589508, 0.0013616952346637845, 0.0022044964134693146, -0.003306432394310832, 1.0015168190002441, 1.0420591831207275, -2.5393142700195312, -0.10907253623008728, 0.0, 0.0, 0.0, 0, 0, 0, 0, 0, 0, 1.0420591831207275, -2.5393142700195312, -0.10907253623008728
12866, 0.05663130804896355, -0.011423141695559025, 0.014539889059960842, -0.021106839179992676, -0.17044766247272491, 0.06434620916843414, 0.0024016061797738075, -0.005065892823040485, 1.0013952255249023, 1.0441614389419556, -2.54467511177063, -0.10927770286798477, 0.0, 0.0, 0.0, 0, 0, 0, 0, 0, 0, 1.0441614389419556, -2.54467511177063, -0.10927770286798477
12876, 0.056082259863615036, -0.01151343248784542, 0.015766629949212074, 0.19442816078662872, -0.29270610213279724, 0.275079607963562, -0.000692108937073499, -0.00521198520436883, 1.001281976699829, 1.0462660789489746, -2.5500409603118896, -0.10948152095079422, 0.0, 0.0, 0.0, 0, 0, 0, 0, 0, 0, 1.0462660789489746, -2.5500409603118896, -0.10948152095079422
12886, 0.05593045428395271, -0.012918863445520401, 0.01595226675271988, 0.0071631381288170815, 0.070433109998703, -0.057866938412189484, 0.0014792869333177805, -0.005111122503876686, 0.9995435476303101, 1.04837167263031, -2.555413007736206, -0.1096840500831604, 0.0, 0.0, 0.0, 0, 0, 0, 0, 0, 0, 1.04837167263031, -2.555413007736206, -0.1096840500831604
12896, 0.05486582964658737, -0.01382408756762743, 0.01626807264983654, -0.1710793673992157, 0.1325894594192505, 0.0012389123439788818, 0.003639233997091651, -0.004845589864999056, 0.9999631643295288, 1.0504779815673828, -2.560791015625, -0.10988616198301315, 0.0, 0.0, 0.0, 0, 0, 0, 0, 0, 0, 1.0504779815673828, -2.560791015625, -0.10988616198301315
12906, 0.05437174066901207, -0.015983806923031807, 0.016273342072963715, 0.02101861499249935, 0.29076114296913147, 0.012720012106001377, 0.004389386624097824, -0.005168150644749403, 0.9986960291862488, 1.0525869131088257, -2.5661749839782715, -0.11008843034505844, 0.0, 0.0, 0.0, 0, 0, 0, 0, 0, 0, 1.0525869131088257, -2.5661749839782715, -0.11008843034505844
12916, 0.05485144630074501, -0.015127736143767834, 0.01815256103873253, 0.011343326419591904, -0.17341916263103485, 0.22314859926700592, 0.0034081873018294573, -0.005383719690144062, 0.9995889067649841, 1.0546997785568237, -2.5715646743774414, -0.11029119789600372, 0.0, 0.0, 0.0, 0, 0, 0, 0, 0, 0, 1.0546997785568237, -2.5715646743774414, -0.11029119789600372
12926, 0.054760828614234924, -0.015823710709810257, 0.01680469699203968, -0.0014560817508026958, 0.08657023310661316, -0.13160887360572815, 0.0009176248568110168, -0.005352697800844908, 0.9999133348464966, 1.056816577911377, -2.576960325241089, -0.11049462109804153, 0.0, 0.0, 0.0, 0, 0, 0, 0, 0, 0, 1.056816577911377, -2.576960325241089, -0.11049462109804153
12936, 0.053901709616184235, -0.016305511817336082, 0.01661541685461998, -0.08298129588365555, 0.07822688668966293, -0.04588515684008598, 0.0020533802453428507, -0.005761024076491594, 0.9991503953933716, 1.0589358806610107, -2.582362174987793, -0.11069837212562561, 0.0, 0.0, 0.0, 0, 0, 0, 0, 0, 0, 1.0589358806610107, -2.582362174987793, -0.11069837212562561
12946, 0.05429935082793236, -0.015707680955529213, 0.015708396211266518, -0.0041343774646520615, -0.05569689720869064, -0.16678465902805328, 0.002175492700189352, -0.0059257131069898605, 0.9984498620033264, 1.061057209968567, -2.587770462036133, -0.11090264469385147, 0.0, 0.0, 0.0, 0, 0, 0, 0, 0, 0, 1.061057209968567, -2.587770462036133, -0.11090264469385147
12956, 0.05502185598015785, -0.01527352910488844, 0.015705039724707603, 0.18664732575416565, 0.011265909299254417, 0.09865549206733704, 0.0033654433209449053, -0.005156463012099266, 0.9997973442077637, 1.0631810426712036, -2.5931856632232666, -0.11110807955265045, 0.0, 0.0, 0.0, 0, 0, 0, 0, 0, 0, 1.0631810426712036, -2.5931856632232666, -0.11110807955265045
12966, 0.05604536086320877, -0.013812676072120667, 0.015735451132059097, 0.08625447750091553, -0.1323247253894806, 0.05915986746549606, 0.003100214060395956, -0.004471598658710718, 0.9998301267623901, 1.0653079748153687, -2.598607301712036, -0.11131436377763748, 0.0, 0.0, 0.0, 0, 0, 0, 0, 0, 0, 1.0653079748153687, -2.598607301712036, -0.11131436377763748
12976, 0.056209005415439606, -0.012731307186186314, 0.014883249998092651, 0.06561537832021713, -0.211025208234787, 0.004332998767495155, 0.0018869839841499925, -0.004841508809477091, 0.9982215762138367, 1.0674383640289307, -2.604034662246704, -0.11152079701423645, 0.0, 0.0, 0.0, 0, 0, 0, 0, 0, 0, 1.0674383640289307, -2.604034662246704, -0.11152079701423645
12986, 0.05645669251680374, -0.012596935965120792, 0.0148367490619421, 0.08453533798456192, -0.20614615082740784, 0.12625868618488312, 0.0027831553015857935, -0.0048263054341077805, 0.9994542598724365, 1.0695714950561523, -2.6094675064086914, -0.11172797530889511, 0.0, 0.0, 0.0, 0, 0, 0, 0, 0, 0, 1.0695714950561523, -2.6094675064086914, -0.11172797530889511
12996, 0.056589316576719284, -0.011972945183515549, 0.015736529603600502, -0.005586838815361261, 0.01468938123434782, 0.13512392342090607, 0.0010520778596401215, -0.006072124466300011, 1.000603437423706, 1.0717068910598755, -2.614906072616577, -0.11193614453077316, 0.0, 0.0, 0.0, 0, 0, 0, 0, 0, 0, 1.0717068910598755, -2.614906072616577, -0.11193614453077316
13006, 0.05858970060944557, -0.013777492567896843, 0.017062664031982422, 0.26412269473075867, 0.40488797426223755, 0.12881900370121002, 0.0020858284551650286, -0.004824305418878794, 0.9985917806625366, 1.0738441944122314, -2.6203508377075195, -0.11214444041252136, 0.0, 0.0, 0.0, 0, 0, 0, 0, 0, 0, 1.0738441944122314, -2.6203508377075195, -0.11214444041252136
13016, 0.058749035000801086, -0.013625160790979862, 0.015976227819919586, 0.058190423995256424, 0.11430668085813522, -0.2714722752571106, 0.0024620878975838423, -0.0055847493931651115, 0.9984045028686523, 1.0759831666946411, -2.6258020401000977, -0.11235319077968597, 0.0, 0.0, 0.0, 0, 0, 0, 0, 0, 0, 1.0759831666946411, -2.6258020401000977, -0.11235319077968597
13026, 0.058947015553712845, -0.012692231684923172, 0.015434577129781246, 0.13079440593719482, -0.16152037680149078, -0.03228740021586418, 0.0008989616180770099, -0.006352526601403952, 1.0009400844573975, 1.0781244039535522, -2.6312592029571533, -0.11256343126296997, 0.0, 0.0, 0.0, 0, 0, 0, 0, 0, 0, 1.0781244039535522, -2.6312592029571533, -0.11256343126296997
13036, 0.058912020176649094, -0.012333844788372517, 0.014945205301046371, 0.025895608589053154, -0.1769227683544159, -0.04355911910533905, 0.0031655384227633476, -0.0067792534828186035, 0.9998032450675964, 1.0802676677703857, -2.636723279953003, -0.11277426779270172, 0.0, 0.0, 0.0, 0, 0, 0, 0, 0, 0, 1.0802676677703857, -2.636723279953003, -0.11277426779270172
13046, 0.05895072594285011, -0.011903115548193455, 0.014554115012288094, 0.057409606873989105, 0.046678368002176285, 0.11704378575086594, 0.0002497639798093587, -0.006086396519094706, 1.0006343126296997, 1.0824130773544312, -2.6421945095062256, -0.11298483610153198, 0.0, 0.0, 0.0, 0, 0, 0, 0, 0, 0, 1.0824130773544312, -2.6421945095062256, -0.11298483610153198
13056, 0.05948011949658394, -0.01284426636993885, 0.01717698574066162, 0.008167450316250324, 0.2195882946252823, 0.25817105174064636, 0.0009862416191026568, -0.006022305693477392, 1.00200617313385, 1.0845601558685303, -2.6476733684539795, -0.11319511383771896, 0.0, 0.0, 0.0, 0, 0, 0, 0, 0, 0, 1.0845601558685303, -2.6476733684539795, -0.11319511383771896
13066, 0.06002792716026306, -0.013446198776364326, 0.018772637471556664, 0.06986401975154877, 0.09959234297275543, -0.009531360119581223, 0.0026992345228791237, -0.0073992423713207245, 0.9997906684875488, 1.0867079496383667, -2.6531591415405273, -0.11340426653623581, 0.0, 0.0, 0.0, 0, 0, 0, 0, 0, 0, 1.0867079496383667, -2.6531591415405273, -0.11340426653623581
13076, 0.059105537831783295, -0.012118787504732609, 0.018771450966596603, -0.11454353481531143, -0.14923439919948578, -0.04000101983547211, 0.0021599254105240107, -0.007307709660381079, 0.9993640780448914, 1.0888574123382568, -2.6586525440216064, -0.1136125773191452, 0.0, 0.0, 0.0, 0, 0, 0, 0, 0, 0, 1.0888574123382568, -2.6586525440216064, -0.1136125773191452
13086, 0.058706771582365036, -0.012287907302379608, 0.018649529665708542, -0.16439636051654816, -0.09573834389448166, 0.12124890089035034, 0.0013751789228990674, -0.00429861294105649, 0.9984050393104553, 1.0910093784332275, -2.664154291152954, -0.11382129788398743, 0.0, 0.0, 0.0, 0, 0, 0, 0, 0, 0, 1.0910093784332275, -2.664154291152954, -0.11382129788398743
13096, 0.05907328799366951, -0.013835751451551914, 0.019000016152858734, 0.03136949986219406, 0.22306117415428162, 0.14877188205718994, 0.0020413196180015802, -0.0056036063469946384, 1.001046061515808, 1.093163251876831, -2.6696629524230957, -0.1140311136841774, 0.0, 0.0, 0.0, 0, 0, 0, 0, 0, 0, 1.093163251876831, -2.6696629524230957, -0.1140311136841774
13106, 0.05875343084335327, -0.015486366115510464, 0.017749236896634102, -0.018859174102544785, 0.12926869094371796, -0.24002929031848907, 0.0028938069008290768, -0.004798470064997673, 1.000769019126892, 1.095319151878357, -2.675177574157715, -0.11424122750759125, 0.0, 0.0, 0.0, 0, 0, 0, 0, 0, 0, 1.095319151878357, -2.675177574157715, -0.11424122750759125
13116, 0.05789307877421379, -0.01600080356001854, 0.01831112615764141, 0.05703843757510185, -0.08567067235708237, 0.01126742735505104, 0.0008833708707243204, -0.002261633053421974, 1.0000247955322266, 1.097477674484253, -2.6806981563568115, -0.11445056647062302, 0.0, 0.0, 0.0, 0, 0, 0, 0, 0, 0, 1.097477674484253, -2.6806981563568115, -0.11445056647062302
13126, 0.05775834992527962, -0.016472352668642998, 0.018709667026996613, 0.060797300189733505, -0.10681697726249695, -0.0754418820142746, -0.0010206768056377769, -0.004256465006619692, 0.9994966983795166, 1.0996383428573608, -2.6862237453460693, -0.11465947329998016, 0.0, 0.0, 0.0, 0, 0, 0, 0, 0, 0, 1.0996383428573608, -2.6862237453460693, -0.11465947329998016
