timeTick, roll, pitch, yaw, gyroX, gyroY, gyroZ, accX, accY, accZ, stateX, stateY, stateZ, target_x, target_y, target_z, otX, otY, otZ, otRoll, otPitch, otYaw, kalX, kalY, kalZ
103406, 0.3255501687526703, -0.06351887434720993, -0.021473944187164307, 0, 0, 0, 0, 0, 0, 0, 0, 0, 0, 0, 0, 0, 0, 0, 0, 0, 0, 0, 0, 0
103416, 0.3258061707019806, -0.06314259767532349, -0.021721089258790016, 0.10203974694013596, -0.02446998655796051, -0.1672915667295456, -0.0023516048677265644, -0.00343672139570117, 0.9990832209587097, -2.028688669204712, -99.40873718261719, -0.2715943157672882, 0.0, 0.0, 0.0, 0, 0, 0, 0, 0, 0, -2.028688669204712, -99.40873718261719, -0.2715943157672882
103426, 0.3249257802963257, -0.0642818734049797, -0.02077459916472435, -0.10853847116231918, 0.2223278284072876, 0.14508548378944397, -0.0027616824954748154, -0.004594580270349979, 1.0018061399459839, -2.0290141105651855, -99.45222473144531, -0.27164149284362793, 0.0, 0.0, 0.0, 0, 0, 0, 0, 0, 0, -2.0290141105651855, -99.45222473144531, -0.27164149284362793
103436, 0.3247523009777069, -0.06375448405742645, -0.020376931875944138, -0.014608464203774929, -0.11210876703262329, -0.09284649044275284, -0.0016787695931270719, -0.0051465402357280254, 0.9985772967338562, -2.029340982437134, -99.49571990966797, -0.27168795466423035, 0.0, 0.0, 0.0, 0, 0, 0, 0, 0, 0, -2.029340982437134, -99.49571990966797, -0.27168795466423035
103446, 0.3251914083957672, -0.06142425537109375, -0.020512647926807404, 0.1605527251958847, -0.34957659244537354, -0.007157713640481234, -0.0031302766874432564, -0.0056424569338560104, 0.9996867775917053, -2.0296688079833984, -99.53922271728516, -0.27173370122909546, 0.0, 0.0, 0.0, 0, 0, 0, 0, 0, 0, -2.0296688079833984, -99.53922271728516, -0.27173370122909546
103456, 0.32471010088920593, -0.060786858201026917, -0.02077389508485794, -0.017840445041656494, -0.06220339983701706, -0.15630429983139038, -0.0022765598259866238, -0.004617554135620594, 1.001296043395996, -2.0299978256225586, -99.5827407836914, -0.27177995443344116, 0.0, 0.0, 0.0, 0, 0, 0, 0, 0, 0, -2.0299978256225586, -99.5827407836914, -0.27177995443344116
103466, 0.3250310719013214, -0.06141943112015724, -0.019937507808208466, 0.032289210706949234, 0.2522575259208679, 0.17069685459136963, -0.001933477120473981, -0.0034348061308264732, 1.0009872913360596, -2.0303280353546143, -99.62626647949219, -0.27182579040527344, 0.0, 0.0, 0.0, 0, 0, 0, 0, 0, 0, -2.0303280353546143, -99.62626647949219, -0.27182579040527344
103476, 0.3260613679885864, -0.06126273050904274, -0.018559467047452927, 0.11112534254789352, -0.019747145473957062, 0.07790752500295639, -0.0033898320980370045, -0.004280870780348778, 0.9997242093086243, -2.0306589603424072, -99.6697998046875, -0.2718701958656311, 0.0, 0.0, 0.0, 0, 0, 0, 0, 0, 0, -2.0306589603424072, -99.6697998046875, -0.2718701958656311
103486, 0.32592934370040894, -0.06298570334911346, -0.01868017390370369, -0.14769630134105682, 0.2025025188922882, -0.02068566158413887, -0.002699177712202072, -0.005176710430532694, 1.001007318496704, -2.030991315841675, -99.71334838867188, -0.2719137966632843, 0.0, 0.0, 0.0, 0, 0, 0, 0, 0, 0, -2.030991315841675, -99.71334838867188, -0.2719137966632843
103496, 0.32724714279174805, -0.06500087678432465, -0.01911025494337082, 0.2184430956840515, 0.30229198932647705, -0.007644288707524538, -0.003314345609396696, -0.006272654514759779, 0.9989659190177917, -2.031325578689575, -99.75690460205078, -0.2719569206237793, 0.0, 0.0, 0.0, 0, 0, 0, 0, 0, 0, -2.031325578689575, -99.75690460205078, -0.2719569206237793
103506, 0.32736635208129883, -0.0657777264714241, -0.01990261860191822, 0.06353776156902313, 0.11351478844881058, -0.11232319474220276, -0.0029625319875776768, -0.0031275292858481407, 1.00007164478302, -2.0316617488861084, -99.80046844482422, -0.27199989557266235, 0.0, 0.0, 0.0, 0, 0, 0, 0, 0, 0, -2.0316617488861084, -99.80046844482422, -0.27199989557266235
103516, 0.3274820148944855, -0.06473775207996368, -0.0200192891061306, 0.04401401802897453, -0.01625431329011917, -0.026062196120619774, -0.0003156152961309999, -0.005710977595299482, 0.9988227486610413, -2.0320000648498535, -99.84404754638672, -0.2720430791378021, 0.0, 0.0, 0.0, 0, 0, 0, 0, 0, 0, -2.0320000648498535, -99.84404754638672, -0.2720430791378021
103526, 0.32852643728256226, -0.0652158260345459, -0.021409235894680023, 0.09381713718175888, 0.04833085462450981, -0.2882888615131378, -0.0019174338085576892, -0.004732282366603613, 1.0006649494171143, -2.032338857650757, -99.88763427734375, -0.2720866799354553, 0.0, 0.0, 0.0, 0, 0, 0, 0, 0, 0, -2.032338857650757, -99.88763427734375, -0.2720866799354553
103536, 0.3304063081741333, -0.06613364070653915, -0.019556868821382523, 0.29071956872940063, 0.05811583995819092, 0.3044358789920807, -0.0017970462795346975, -0.0039795259945094585, 0.9999071359634399, -2.03267765045166, -99.93122863769531, -0.2721306085586548, 0.0, 0.0, 0.0, 0, 0, 0, 0, 0, 0, -2.03267765045166, -99.93122863769531, -0.2721306085586548
103546, 0.0, 0.0, 0.0, 0.1250968724489212, 0.18825793266296387, 0.01584366336464882, 0.0006793438806198537, -0.004289161879569292, 0.9994537830352783, -2.0330169200897217, -99.97483825683594, -0.27217426896095276, 0.0, 0.0, 0.0, 0, 0, 0, 0, 0, 0, -2.0330169200897217, -99.97483825683594, -0.27217426896095276
103556, -0.0009526673820801079, 0.002634306438267231, -0.001242450438439846, -0.22926267981529236, -0.41861870884895325, -0.3028511106967926, -0.0008828039863146842, -0.0036939859855920076, 1.000145435333252, 0.0, 0.0, 0.0, 0.0, 0.0, 0.0, 0, 0, 0, 0, 0, 0, 0.0, 0.0, 0.0
103566, -0.0006198385381139815, 0.0024241250939667225, -0.00016696061356924474, -0.01889491081237793, 0.06413234770298004, 0.07751281559467316, -0.0010142503306269646, -0.0055914223194122314, 1.0004709959030151, -3.193453608218988e-07, -1.443879455109709e-06, -3.812601789832115e-09, 0.0, 0.0, 0.0, 0, 0, 0, 0, 0, 0, -3.193453608218988e-07, -1.443879455109709e-06, -3.812601789832115e-09
103576, -0.0006008988129906356, 0.001206633634865284, 2.8689208193100058e-05, -0.019587956368923187, 0.017057839781045914, 0.06014710292220116, -0.0012882963055744767, -0.006609111092984676, 0.9990059733390808, -1.719767169561237e-06, -7.282530532393139e-06, 7.220660336315632e-08, 0.0, 0.0, 0.0, 0, 0, 0, 0, 0, 0, -1.719767169561237e-06, -7.282530532393139e-06, 7.220660336315632e-08
103586, -0.0005210090894252062, 0.0017087861197069287, 0.0007311445660889149, -0.11152089387178421, -0.16423368453979492, 0.05460663512349129, -0.0026067530270665884, -0.005121262744069099, 0.9987128973007202, -4.666459062718786e-06, -1.8871185602620244e-05, -2.234883140772581e-07, 0.0, 0.0, 0.0, 0, 0, 0, 0, 0, 0, -4.666459062718786e-06, -1.8871185602620244e-05, -2.234883140772581e-07
103596, 0.0003765644505620003, 0.004097003024071455, 0.0006765826838091016, 0.08765017986297607, -0.19863002002239227, -0.0003764199500437826, -0.0008473781635984778, -0.004038539249449968, 0.9982641339302063, -9.574965588399209e-06, -3.639345959527418e-05, -1.5201803762465715e-06, 0.0, 0.0, 0.0, 0, 0, 0, 0, 0, 0, -9.574965588399209e-06, -3.639345959527418e-05, -1.5201803762465715e-06
103606, -0.0001275097019970417, 0.0026725935749709606, 0.00056108133867383, -0.14341458678245544, 0.35207879543304443, -0.08324562758207321, -7.830718823242933e-05, -0.0021137373987585306, 0.9992521405220032, -1.61686803039629e-05, -5.864992999704555e-05, -4.107278073206544e-06, 0.0, 0.0, 0.0, 0, 0, 0, 0, 0, 0, -1.61686803039629e-05, -5.864992999704555e-05, -4.107278073206544e-06
103616, 0.0005427398718893528, 0.0007336347480304539, 0.0008428006549365819, 0.09979788959026337, 0.2747800052165985, 0.04930904880166054, -0.0038590189069509506, -0.001881268573924899, 1.000786304473877, -2.3422948288498446e-05, -8.396184421144426e-05, -7.774302503094077e-06, 0.0, 0.0, 0.0, 0, 0, 0, 0, 0, 0, -2.3422948288498446e-05, -8.396184421144426e-05, -7.774302503094077e-06
103626, 9.096205030800775e-05, 0.0011470565805211663, -0.00011851843737531453, -0.09230617433786392, -0.04431973397731781, -0.14426766335964203, -0.005091308616101742, -0.003638991853222251, 0.9995474219322205, -3.2250743970507756e-05, -0.00011135001841466874, -1.1508614988997579e-05, 0.0, 0.0, 0.0, 0, 0, 0, 0, 0, 0, -3.2250743970507756e-05, -0.00011135001841466874, -1.1508614988997579e-05
103636, -0.00045398971997201443, 0.0014972821809351444, 3.562405981938355e-05, -0.08201846480369568, -0.2115919440984726, -0.042397066950798035, -0.0022357748821377754, -0.004314540885388851, 0.9992693066596985, -4.508853453444317e-05, -0.00014125897723715752, -1.4943070709705353e-05, 0.0, 0.0, 0.0, 0, 0, 0, 0, 0, 0, -4.508853453444317e-05, -0.00014125897723715752, -1.4943070709705353e-05
103646, -5.456772214529337e-06, 0.0012976482976227999, 0.0002555838436819613, 0.07610512524843216, -0.20421725511550903, 0.17844222486019135, -0.002556456718593836, -0.0047151921316981316, 1.0005029439926147, -6.176854367367923e-05, -0.00017480278620496392, -1.8819875549525023e-05, 0.0, 0.0, 0.0, 0, 0, 0, 0, 0, 0, -6.176854367367923e-05, -0.00017480278620496392, -1.8819875549525023e-05
103656, 0.00026675016852095723, 0.00044127475121058524, 2.202082941948902e-05, -0.04179934412240982, 0.06273577362298965, -0.10072895884513855, -0.00017764620133675635, -0.004151975270360708, 0.9999474883079529, -8.097537647699937e-05, -0.00021286268020048738, -2.303314977325499e-05, 0.0, 0.0, 0.0, 0, 0, 0, 0, 0, 0, -8.097537647699937e-05, -0.00021286268020048738, -2.303314977325499e-05
103666, 0.0005674207350239158, -0.0012886550975963473, 0.0006049815565347672, -0.0032275316771119833, 0.25802621245384216, -0.010643561370670795, -0.0017969998298212886, -0.0036957322154194117, 0.9995174407958984, -0.00010183380800299346, -0.00025553046725690365, -2.7208589017391205e-05, 0.0, 0.0, 0.0, 0, 0, 0, 0, 0, 0, -0.00010183380800299346, -0.00025553046725690365, -2.7208589017391205e-05
103676, 0.0014527265448123217, 0.00016467683599330485, -0.00019978541240561754, 0.14842191338539124, -0.28921622037887573, -0.1564805805683136, -0.0016700876876711845, -0.0050542354583740234, 0.9993879199028015, -0.00012392690405249596, -0.0003021140000782907, -3.1632487662136555e-05, 0.0, 0.0, 0.0, 0, 0, 0, 0, 0, 0, -0.00012392690405249596, -0.0003021140000782907, -3.1632487662136555e-05
103686, 0.0006472829263657331, 0.0007908023544587195, 5.4124950111145154e-05, -0.10530845820903778, -0.10678865015506744, 0.12103551626205444, -0.00040926889050751925, -0.004379772115498781, 1.0001662969589233, -0.0001475967583246529, -0.0003528632514644414, -3.6659621400758624e-05, 0.0, 0.0, 0.0, 0, 0, 0, 0, 0, 0, -0.0001475967583246529, -0.0003528632514644414, -3.6659621400758624e-05
103696, 0.002483601216226816, 0.0006681916420347989, 0.001275189919397235, 0.25349584221839905, -0.04998932406306267, 0.1656663864850998, 0.0008898485684767365, -0.005131363403052092, 0.9999642372131348, -0.00017238824511878192, -0.00040818023262545466, -4.20582655351609e-05, 0.0, 0.0, 0.0, 0, 0, 0, 0, 0, 0, -0.00017238824511878192, -0.00040818023262545466, -4.20582655351609e-05
103706, 0.0030614379793405533, -0.0005622543394565582, 0.0005745377275161445, 0.07606836408376694, 0.17974261939525604, -0.09445571899414062, -0.0014399017672985792, -0.005010845605283976, 1.0019973516464233, -0.00019712559878826141, -0.00046812384971417487, -4.720399738289416e-05, 0.0, 0.0, 0.0, 0, 0, 0, 0, 0, 0, -0.00019712559878826141, -0.00046812384971417487, -4.720399738289416e-05
103716, 0.0031642320100218058, -0.0005274275317788124, 0.000786792894359678, 0.10064836591482162, -0.046640414744615555, -0.008999274112284184, -0.00018191160052083433, -0.00606531510129571, 1.00033438205719, -0.00022203903063200414, -0.0005330753629095852, -5.1320064812898636e-05, 0.0, 0.0, 0.0, 0, 0, 0, 0, 0, 0, -0.00022203903063200414, -0.0005330753629095852, -5.1320064812898636e-05
103726, 0.0034578118938952684, -0.003235751995816827, 0.0009229951538145542, 0.08021532744169235, 0.2881866693496704, 0.013151366263628006, 0.00022199067461770028, -0.0029591983184218407, 0.9993296265602112, -0.0002476470544934273, -0.0006034650723449886, -5.428004078567028e-05, 0.0, 0.0, 0.0, 0, 0, 0, 0, 0, 0, -0.0002476470544934273, -0.0006034650723449886, -5.428004078567028e-05
103736, 0.0038045630790293217, -0.0014584981836378574, 0.0012865314492955804, 0.13824477791786194, -0.33730313181877136, 0.13204360008239746, -0.001842515543103218, -0.0020810544956475496, 0.9999305009841919, -0.00027302431408315897, -0.0006784657598473132, -5.718524334952235e-05, 0.0, 0.0, 0.0, 0, 0, 0, 0, 0, 0, -0.00027302431408315897, -0.0006784657598473132, -5.718524334952235e-05
103746, 0.003943868912756443, -0.0024311707820743322, 0.0018535425188019872, 0.07355382293462753, 0.1150713860988617, 0.069186270236969, -0.0036936106625944376, -0.0039263213984668255, 0.9993738532066345, -0.00029883094248361886, -0.0007563327089883387, -6.062322063371539e-05, 0.0, 0.0, 0.0, 0, 0, 0, 0, 0, 0, -0.00029883094248361886, -0.0007563327089883387, -6.062322063371539e-05
103756, 0.002729264786466956, -0.0036923878360539675, 0.0014363568043336272, -0.1515568047761917, 0.06765399128198624, -0.11927688866853714, -0.0002907326852437109, -0.003988000098615885, 1.0022072792053223, -0.0003269833396188915, -0.0008368887938559055, -6.46454282104969e-05, 0.0, 0.0, 0.0, 0, 0, 0, 0, 0, 0, -0.0003269833396188915, -0.0008368887938559055, -6.46454282104969e-05
103766, 0.003951072692871094, -0.0050499639473855495, 0.0012262105010449886, 0.09664839506149292, 0.20904871821403503, -0.1401987224817276, 0.000733585620764643, -0.0025229468010365963, 1.0010360479354858, -0.0003571724228095263, -0.0009210575954057276, -6.806498277001083e-05, 0.0, 0.0, 0.0, 0, 0, 0, 0, 0, 0, -0.0003571724228095263, -0.0009210575954057276, -6.806498277001083e-05
103776, 0.004859326407313347, -0.005147687625139952, 0.0012891188962385058, 0.11279116570949554, -0.07257362455129623, 0.1177588701248169, 0.00013043922081124038, -0.005281703546643257, 0.998163640499115, -0.00038742576725780964, -0.0010087190894410014, -6.988001405261457e-05, 0.0, 0.0, 0.0, 0, 0, 0, 0, 0, 0, -0.00038742576725780964, -0.0010087190894410014, -6.988001405261457e-05
103786, 0.005537720397114754, -0.0056112962774932384, 0.002098261611536145, 0.14902065694332123, 0.0038086071144789457, 0.19339342415332794, -0.0008814757457002997, -0.004190011881291866, 1.000636100769043, -0.0004171703476458788, -0.001100333291105926, -7.178916712291539e-05, 0.0, 0.0, 0.0, 0, 0, 0, 0, 0, 0, -0.0004171703476458788, -0.001100333291105926, -7.178916712291539e-05
103796, 0.0055335997603833675, -0.005469868890941143, 0.0016760448925197124, 0.12331818789243698, 0.015342452563345432, -0.03563249111175537, -0.0007793157128617167, -0.0041578165255486965, 1.0011268854141235, -0.00044715768308378756, -0.0011966549791395664, -7.445397204719484e-05, 0.0, 0.0, 0.0, 0, 0, 0, 0, 0, 0, -0.00044715768308378756, -0.0011966549791395664, -7.445397204719484e-05
103806, 0.005128571763634682, -0.004124655853956938, 0.0022731798235327005, 0.0033831328619271517, 0.009628183208405972, 0.24396425485610962, -0.00033594376873224974, -0.004375585820525885, 1.0010123252868652, -0.00047779723536223173, -0.001297299051657319, -7.648600148968399e-05, 0.0, 0.0, 0.0, 0, 0, 0, 0, 0, 0, -0.00047779723536223173, -0.001297299051657319, -7.648600148968399e-05
103816, 0.0058599854819476604, -0.0007070790161378682, 0.0012952277902513742, 0.2029212862253189, -0.11862371116876602, -0.014984129928052425, -0.0014266717480495572, -0.005274623166769743, 0.9995496273040771, -0.0005088662728667259, -0.0014022189425304532, -7.731738151051104e-05, 0.0, 0.0, 0.0, 0, 0, 0, 0, 0, 0, -0.0005088662728667259, -0.0014022189425304532, -7.731738151051104e-05
103826, 0.004540983587503433, 0.0005813995958305895, -0.0003205609682481736, -6.426370237022638e-05, -0.08158407360315323, -0.16945533454418182, -0.002216427819803357, -0.005957038141787052, 0.9996218681335449, -0.0005406243144534528, -0.0015116073191165924, -7.759590516798198e-05, 0.0, 0.0, 0.0, 0, 0, 0, 0, 0, 0, -0.0005406243144534528, -0.0015116073191165924, -7.759590516798198e-05
103836, 0.004347164183855057, 0.0005364665994420648, -0.0008731263224035501, 0.12460934370756149, -0.0631939172744751, -0.048344213515520096, -0.0011983935255557299, -0.005112634971737862, 0.9998834133148193, -0.000573937373701483, -0.0016262118006125093, -7.821721374057233e-05, 0.0, 0.0, 0.0, 0, 0, 0, 0, 0, 0, -0.000573937373701483, -0.0016262118006125093, -7.821721374057233e-05
103846, 0.004453486297279596, -0.0002710752305574715, -0.0002938831166829914, 0.022104574367403984, 0.13596443831920624, 0.019053414463996887, -0.0008409966831095517, -0.005127141252160072, 0.9997192621231079, -0.0006089320522733033, -0.0017462364630773664, -7.912531145848334e-05, 0.0, 0.0, 0.0, 0, 0, 0, 0, 0, 0, -0.0006089320522733033, -0.0017462364630773664, -7.912531145848334e-05
103856, 0.00485373055562377, -0.0019786471966654062, 0.0001666122698225081, 0.031014565378427505, 0.17088906466960907, 0.1091991737484932, -0.0019356540869921446, -0.004854777827858925, 1.0012413263320923, -0.0006450646324083209, -0.001871201442554593, -8.009091834537685e-05, 0.0, 0.0, 0.0, 0, 0, 0, 0, 0, 0, -0.0006450646324083209, -0.001871201442554593, -8.009091834537685e-05
103866, 0.005477384198457003, -0.0012744945706799626, -0.0005805731634609401, 0.0887417271733284, -0.17086705565452576, 0.027447251603007317, -0.0018267774721607566, -0.005333876237273216, 0.9995213150978088, -0.0006825504824519157, -0.002001008717343211, -8.066921145655215e-05, 0.0, 0.0, 0.0, 0, 0, 0, 0, 0, 0, -0.0006825504824519157, -0.002001008717343211, -8.066921145655215e-05
103876, 0.006227979902178049, -0.0016895942389965057, -0.0011961209820583463, 0.10068060457706451, 0.08677257597446442, -0.13054193556308746, -0.0023733540438115597, -0.006036063190549612, 0.9995560646057129, -0.0007219129474833608, -0.002135824179276824, -8.078446262516081e-05, 0.0, 0.0, 0.0, 0, 0, 0, 0, 0, 0, -0.0007219129474833608, -0.002135824179276824, -8.078446262516081e-05
103886, 0.007187293842434883, -0.0029223423916846514, -0.0009518949082121253, -0.007753204088658094, 0.1792658120393753, -0.0005721838679164648, -0.002067048102617264, -0.004855235107243061, 0.9974989891052246, -0.0007633519708178937, -0.0022761686705052853, -8.10640340205282e-05, 0.0, 0.0, 0.0, 0, 0, 0, 0, 0, 0, -0.0007633519708178937, -0.0022761686705052853, -8.10640340205282e-05
103896, 0.007841345854103565, -0.003463197033852339, -0.00046416278928518295, 0.05863616615533829, 0.10245202481746674, 0.036967840045690536, -0.00019853842968586832, -0.004029275383800268, 0.9986192584037781, -0.0008069738978520036, -0.0024219402112066746, -8.250193786807358e-05, 0.0, 0.0, 0.0, 0, 0, 0, 0, 0, 0, -0.0008069738978520036, -0.0024219402112066746, -8.250193786807358e-05
103906, 0.007773928809911013, -0.003279472701251507, -0.00045671508996747434, -0.14501447975635529, 0.10417716950178146, -0.08403884619474411, -0.000684689381159842, -0.005810900591313839, 1.0000029802322388, -0.0008518435643054545, -0.0025721678975969553, -8.575280662626028e-05, 0.0, 0.0, 0.0, 0, 0, 0, 0, 0, 0, -0.0008518435643054545, -0.0025721678975969553, -8.575280662626028e-05
103916, 0.00790410302579403, -0.0026686610653996468, -0.0010148872388526797, -0.032176680862903595, 0.07253018021583557, -0.1842033416032791, -0.0030422841664403677, -0.004211991559714079, 0.99912428855896, -0.0008971963543444872, -0.0027272410225123167, -8.988400804810226e-05, 0.0, 0.0, 0.0, 0, 0, 0, 0, 0, 0, -0.0008971963543444872, -0.0027272410225123167, -8.988400804810226e-05
103926, 0.00803257618099451, -0.0035889032296836376, -0.0009398720576427877, -0.017379598692059517, 0.18074601888656616, -0.009334434755146503, -0.001528280321508646, -0.0030761423986405134, 0.9993605613708496, -0.0009441597503609955, -0.0028874280396848917, -9.439580026082695e-05, 0.0, 0.0, 0.0, 0, 0, 0, 0, 0, 0, -0.0009441597503609955, -0.0028874280396848917, -9.439580026082695e-05
103936, 0.010152625851333141, -0.0008458294323645532, -0.0009248286951333284, 0.37150081992149353, -0.34582850337028503, 0.04022557660937309, -0.0011123127769678831, -0.002387695014476776, 0.9999837875366211, -0.0009932898683473468, -0.0030516169499605894, -9.960512397810817e-05, 0.0, 0.0, 0.0, 0, 0, 0, 0, 0, 0, -0.0009932898683473468, -0.0030516169499605894, -9.960512397810817e-05
103946, 0.010125963017344475, -0.0030579357407987118, -0.0024879651609808207, 0.003661218099296093, 0.17994102835655212, -0.07320915162563324, -0.0033052207436412573, -0.0022295929957181215, 0.9986304640769958, -0.001043632859364152, -0.0032187332399189472, -0.00010520085925236344, 0.0, 0.0, 0.0, 0, 0, 0, 0, 0, 0, -0.001043632859364152, -0.0032187332399189472, -0.00010520085925236344
103956, 0.01017273310571909, -0.005705386865884066, -0.0019965888932347298, -0.0161229707300663, 0.36165010929107666, 0.19644711911678314, -6.302768269961234e-06, -0.0033914451487362385, 0.9995157122612, -0.0010957003105431795, -0.0033882565330713987, -0.00011128594633191824, 0.0, 0.0, 0.0, 0, 0, 0, 0, 0, 0, -0.0010957003105431795, -0.0033882565330713987, -0.00011128594633191824
103966, 0.010848475620150566, -0.005399452522397041, -0.0014813750749453902, -0.012222439050674438, 0.06211770325899124, 0.021494388580322266, 6.160745397210121e-05, -0.005053479224443436, 0.99970543384552, -0.0011494888458400965, -0.003560728393495083, -0.00011821388034150004, 0.0, 0.0, 0.0, 0, 0, 0, 0, 0, 0, -0.0011494888458400965, -0.003560728393495083, -0.00011821388034150004
103976, 0.01179798599332571, -0.005240417085587978, -0.0012553554261103272, 0.049683209508657455, 0.06272129714488983, 0.03203615918755531, -0.0023691903334110975, -0.0072814179584383965, 0.9989422559738159, -0.00120343710295856, -0.0037371458020061255, -0.00012580497423186898, 0.0, 0.0, 0.0, 0, 0, 0, 0, 0, 0, -0.0012580865295603871, -0.00391931040212512, -0.00013392651453614235
103986, 0.012281945906579494, -0.006482819560915232, -0.0014933187048882246, 0.05579820275306702, 0.23878884315490723, -0.018045535311102867, -0.002640302525833249, -0.005339845083653927, 0.9992815852165222, -0.0012580865295603871, -0.00391931040212512, -0.00013392651453614235, 0.0, 0.0, 0.0, 0, 0, 0, 0, 0, 0, -0.0013148728758096695, -0.0041079833172261715, -0.00014283915515989065
103996, 0.012694689445197582, -0.00472594378516078, -0.001961402129381895, 0.07430624961853027, -0.2297823131084442, -0.05401264503598213, -0.0019043456995859742, -0.005657192785292864, 1.0019181966781616, -0.0013148728758096695, -0.0041079833172261715, -0.00014283915515989065, 0.0, 0.0, 0.0, 0, 0, 0, 0, 0, 0, -0.0013737175613641739, -0.004302222281694412, -0.00015164364594966173
104006, 0.013900035060942173, -0.005467679351568222, -0.0029720908496528864, 0.2263108342885971, -0.1167413592338562, -0.02706228196620941, -0.002132793888449669, -0.005648108199238777, 1.0015360116958618, -0.0013737175613641739, -0.004302222281694412, -0.00015164364594966173, 0.0, 0.0, 0.0, 0, 0, 0, 0, 0, 0, -0.0014344599330797791, -0.004502076655626297, -0.00015884428285062313
104016, 0.013974053785204887, -0.0047002388164401054, -0.003946579061448574, 0.1348554790019989, -0.08477175980806351, -0.03322248533368111, -0.0017671664245426655, -0.004017369356006384, 0.9991301894187927, -0.0014344599330797791, -0.004502076655626297, -0.00015884428285062313, 0.0, 0.0, 0.0, 0, 0, 0, 0, 0, 0, -0.0014970643678680062, -0.00470733642578125, -0.00016524517559446394
104026, 0.01406175922602415, -0.0057004839181900024, -0.0006351068732328713, 0.013655317015945911, 0.2797313630580902, 0.3931117355823517, -0.002561342203989625, -0.004153380636125803, 0.9995372891426086, -0.0014970643678680062, -0.00470733642578125, -0.00016524517559446394, 0.0, 0.0, 0.0, 0, 0, 0, 0, 0, 0, -0.0015617732424288988, -0.004916981793940067, -0.00017205323092639446
104036, 0.014337345026433468, -0.005824010819196701, -0.0008164704777300358, -0.08633820712566376, -0.005914567969739437, 0.03559962287545204, -0.001773577998392284, -0.0035531828179955482, 0.999594509601593, -0.0015617732424288988, -0.004916981793940067, -0.00017205323092639446, 0.0, 0.0, 0.0, 0, 0, 0, 0, 0, 0, -0.0016287281177937984, -0.005130419973284006, -0.0001792099792510271
104046, 0.01488401647657156, -0.006602725945413113, -0.0022316803224384785, 0.16240808367729187, 0.14387354254722595, -0.29680147767066956, -0.0001489325804868713, -0.002006310038268566, 1.001124382019043, -0.0016287281177937984, -0.005130419973284006, -0.0001792099792510271, 0.0, 0.0, 0.0, 0, 0, 0, 0, 0, 0, -0.001696692663244903, -0.0053470018319785595, -0.00018615194130688906
104056, 0.015676772221922874, -0.0065535143949091434, -0.0014212079113349319, 0.12752526998519897, 0.008953954093158245, 0.18642853200435638, -0.002463729353621602, -0.0030824467539787292, 1.0022341012954712, -0.001696692663244903, -0.0053470018319785595, -0.00018615194130688906, 0.0, 0.0, 0.0, 0, 0, 0, 0, 0, 0, -0.001765357330441475, -0.005566626787185669, -0.00019165771664120257
104066, 0.01736588589847088, -0.00889628566801548, -0.0011444113915786147, 0.09575296938419342, 0.3825857937335968, -0.10478153824806213, -0.003421007888391614, -0.00701349601149559, 1.0010545253753662, -0.001765357330441475, -0.005566626787185669, -0.00019165771664120257, 0.0, 0.0, 0.0, 0, 0, 0, 0, 0, 0, -0.001836455543525517, -0.005791043397039175, -0.0001954169711098075
104076, 0.017563100904226303, -0.009320303797721863, -0.001476277015171945, -0.14490953087806702, -0.011583161540329456, -0.11700963973999023, 0.0002819937071762979, -0.007459046319127083, 0.9986628293991089, -0.001836455543525517, -0.005791043397039175, -0.0001954169711098075, 0.0, 0.0, 0.0, 0, 0, 0, 0, 0, 0, -0.001836455543525517, -0.005791043397039175, -0.0001954169711098075
104086, 0.01740935631096363, -0.010975935496389866, -0.0018441957654431462, 0.04592007398605347, 0.2713238298892975, 0.08747667074203491, 0.0012057940475642681, -0.0046938033774495125, 0.99928218126297, -0.0019096045289188623, -0.006022293120622635, -0.00019883617642335594, 0.0, 0.0, 0.0, 0, 0, 0, 0, 0, 0, -0.0019096045289188623, -0.006022293120622635, -0.00019883617642335594
104096, 0.01824687048792839, -0.011099804192781448, -0.0019624345004558563, 0.04546632245182991, -0.02264578640460968, 0.0008546660537831485, -0.00024398128152824938, -0.0037788606714457273, 1.0015767812728882, -0.0019824157934635878, -0.006260032765567303, -0.00020303778001107275, 0.0, 0.0, 0.0, 0, 0, 0, 0, 0, 0, -0.0019824157934635878, -0.006260032765567303, -0.00020303778001107275
104106, 0.018315445631742477, -0.01193227805197239, -0.0021824478171765804, -0.0750788152217865, 0.13188306987285614, -0.09853542596101761, 0.000783110735937953, -0.0028484815265983343, 1.001285195350647, -0.0020546752493828535, -0.0065026977099478245, -0.00020704069174826145, 0.0, 0.0, 0.0, 0, 0, 0, 0, 0, 0, -0.0020546752493828535, -0.0065026977099478245, -0.00020704069174826145
104116, 0.01842576265335083, -0.014452357776463032, -0.00247032823972404, -0.10514026135206223, 0.38912004232406616, -0.0064393579959869385, -0.0006795272929593921, -0.004284162539988756, 1.0020835399627686, -0.0021264345850795507, -0.006749141030013561, -0.0002097344840876758, 0.0, 0.0, 0.0, 0, 0, 0, 0, 0, 0, -0.0021264345850795507, -0.006749141030013561, -0.0002097344840876758
104126, 0.019189534708857536, -0.013285023160278797, -0.0037241741083562374, 0.14639540016651154, -0.40268826484680176, -0.1216040626168251, -0.0027035698294639587, -0.005055448971688747, 1.0001477003097534, -0.0021978700533509254, -0.006999407894909382, -0.00021075550466775894, 0.0, 0.0, 0.0, 0, 0, 0, 0, 0, 0, -0.0021978700533509254, -0.006999407894909382, -0.00021075550466775894
104136, 0.019520489498972893, -0.014025824144482613, -0.004270981531590223, 0.002963881939649582, 0.1629338264465332, -0.05160887539386749, -0.00016511845751665533, -0.0047359406016767025, 0.9998392462730408, -0.002270493423566222, -0.007254537660628557, -0.0002105211024172604, 0.0, 0.0, 0.0, 0, 0, 0, 0, 0, 0, -0.002270493423566222, -0.007254537660628557, -0.0002105211024172604
104146, 0.02015397697687149, -0.013765893876552582, -0.0025334847159683704, 0.13327281177043915, -0.030562909319996834, 0.23588527739048004, -0.0004712252994067967, -0.006376723758876324, 0.9992630481719971, -0.0023442483507096767, -0.007514853496104479, -0.00021029490744695067, 0.0, 0.0, 0.0, 0, 0, 0, 0, 0, 0, -0.0023442483507096767, -0.007514853496104479, -0.00021029490744695067
104156, 0.020356444641947746, -0.014482301659882069, -0.0025204040575772524, 0.12178228795528412, -0.1456114947795868, -0.02555103972554207, -0.002668951638042927, -0.005119651090353727, 1.0003670454025269, -0.0024180756881833076, -0.007780871819704771, -0.00021039432613179088, 0.0, 0.0, 0.0, 0, 0, 0, 0, 0, 0, -0.0024180756881833076, -0.007780871819704771, -0.00021039432613179088
104166, 0.020082199946045876, -0.0150655722245574, -0.0027857585810124874, -0.010066762566566467, -0.11823204159736633, -0.02640034817159176, -0.0018819523975253105, -0.00447262916713953, 1.0020033121109009, -0.0024929011706262827, -0.008052905090153217, -0.00021055730758234859, 0.0, 0.0, 0.0, 0, 0, 0, 0, 0, 0, -0.0024929011706262827, -0.008052905090153217, -0.00021055730758234859
104176, 0.020777011290192604, -0.015880297869443893, -0.0011518464889377356, 0.20221559703350067, -0.059835173189640045, 0.22989396750926971, 0.00019077905744779855, -0.0034913301933556795, 0.9986660480499268, -0.002569755306467414, -0.008330111391842365, -0.00021006324095651507, 0.0, 0.0, 0.0, 0, 0, 0, 0, 0, 0, -0.002569755306467414, -0.008330111391842365, -0.00021006324095651507
104186, 0.021074391901493073, -0.016492130234837532, -0.0009847490582615137, 0.08984197676181793, -0.044083498418331146, -0.003130428260192275, 0.0023909846786409616, -0.005499360151588917, 0.9986368417739868, -0.002647695131599903, -0.008611736819148064, -0.00020923453848809004, 0.0, 0.0, 0.0, 0, 0, 0, 0, 0, 0, -0.002647695131599903, -0.008611736819148064, -0.00020923453848809004
104196, 0.020464899018406868, -0.017885638400912285, -0.0029547058511525393, -0.06864756345748901, 0.2262924760580063, -0.19709840416908264, 0.001354645355604589, -0.0031320478301495314, 1.0015196800231934, -0.0027245960664004087, -0.00889812596142292, -0.00020937580848112702, 0.0, 0.0, 0.0, 0, 0, 0, 0, 0, 0, -0.0027245960664004087, -0.00889812596142292, -0.00020937580848112702
104206, 0.02018379606306553, -0.018438056111335754, -0.004625380039215088, -0.05098234862089157, 0.24704404175281525, -0.10733722150325775, -0.0008482960402034223, -0.005357831716537476, 0.9985021352767944, -0.0027995030395686626, -0.009189004078507423, -0.0002097521210089326, 0.0, 0.0, 0.0, 0, 0, 0, 0, 0, 0, -0.0027995030395686626, -0.009189004078507423, -0.0002097521210089326
104216, 0.019846299663186073, -0.018298503011465073, -0.004584478214383125, -0.09749095141887665, -0.0017496998189017177, -0.0006097443983890116, -0.000996418995782733, -0.004742125514894724, 0.9983721375465393, -0.0028736661188304424, -0.009484265930950642, -0.00021019962150603533, 0.0, 0.0, 0.0, 0, 0, 0, 0, 0, 0, -0.0028736661188304424, -0.009484265930950642, -0.00021019962150603533
104226, 0.02127031423151493, -0.017223013564944267, -0.0054395245388150215, 0.22637999057769775, -0.1740187257528305, -0.1627899706363678, -0.0010452150600031018, -0.005293537396937609, 0.9988250732421875, -0.0029482925310730934, -0.009784691035747528, -0.00021212012507021427, 0.0, 0.0, 0.0, 0, 0, 0, 0, 0, 0, -0.0029482925310730934, -0.009784691035747528, -0.00021212012507021427
104236, 0.02081531099975109, -0.01740240678191185, -0.006955306511372328, -0.1779758334159851, 0.024811720475554466, -0.2257046103477478, -0.0011131188366562128, -0.003499803366139531, 0.9994332194328308, -0.0030235883314162493, -0.010090348310768604, -0.0002155461988877505, 0.0, 0.0, 0.0, 0, 0, 0, 0, 0, 0, -0.0030235883314162493, -0.010090348310768604, -0.0002155461988877505
104246, 0.021239975467324257, -0.017036383971571922, -0.006301060784608126, 0.011902120895683765, -0.08882394433021545, 0.11749722808599472, -0.00190654955804348, -0.0015275772893801332, 1.0014915466308594, -0.0030995786655694246, -0.010400723665952682, -0.00021991925314068794, 0.0, 0.0, 0.0, 0, 0, 0, 0, 0, 0, -0.0030995786655694246, -0.010400723665952682, -0.00021991925314068794
104256, 0.02225002646446228, -0.0161031074821949, -0.0077429478988051414, 0.13619069755077362, -0.23416925966739655, -0.19631998240947723, -0.002016795566305518, -0.004713546950370073, 1.0016521215438843, -0.003176579950377345, -0.010714331641793251, -0.00022420127061195672, 0.0, 0.0, 0.0, 0, 0, 0, 0, 0, 0, -0.003176579950377345, -0.010714331641793251, -0.00022420127061195672
104266, 0.02260993979871273, -0.01696093939244747, -0.008537105284631252, -0.0063008880242705345, 0.2642563581466675, -0.14350835978984833, -0.0012728868750855327, -0.005034544505178928, 1.0002602338790894, -0.00325508089736104, -0.011031235568225384, -0.0002271018165629357, 0.0, 0.0, 0.0, 0, 0, 0, 0, 0, 0, -0.00325508089736104, -0.011031235568225384, -0.0002271018165629357
104276, 0.022490965202450752, -0.015578736551105976, -0.00941062904894352, 0.03709401190280914, -0.23819854855537415, -0.1410093456506729, -0.0016382205067202449, -0.003980665467679501, 0.9984561800956726, -0.0033349378500133753, -0.011352923698723316, -0.00022874775459058583, 0.0, 0.0, 0.0, 0, 0, 0, 0, 0, 0, -0.0033349378500133753, -0.011352923698723316, -0.00022874775459058583
104286, 0.022490791976451874, -0.01611342281103134, -0.00845832284539938, 0.04556950181722641, -0.11070284992456436, 0.228903666138649, -0.0032464885152876377, -0.004224441014230251, 0.9997990727424622, -0.003416089341044426, -0.011679393239319324, -0.0002307837421540171, 0.0, 0.0, 0.0, 0, 0, 0, 0, 0, 0, -0.003416089341044426, -0.011679393239319324, -0.0002307837421540171
104296, 0.022907694801688194, -0.01811523735523224, -0.008330012671649456, -0.05771392211318016, 0.3489854633808136, 0.1048281341791153, -0.002024278976023197, -0.004778371658176184, 0.9996247291564941, -0.003499662270769477, -0.012010394595563412, -0.00023383190273307264, 0.0, 0.0, 0.0, 0, 0, 0, 0, 0, 0, -0.003499662270769477, -0.012010394595563412, -0.00023383190273307264
104306, 0.0238354355096817, -0.0184969212859869, -0.008861820213496685, 0.11806116998195648, 0.014245242811739445, -0.029031958431005478, -0.0018084462499246001, -0.0033859270624816418, 0.9993607997894287, -0.0035859046038240194, -0.012346421368420124, -0.00023728972882963717, 0.0, 0.0, 0.0, 0, 0, 0, 0, 0, 0, -0.0035859046038240194, -0.012346421368420124, -0.00023728972882963717
104316, 0.023257194086909294, -0.019242988899350166, -0.009078064933419228, -0.10456953197717667, 0.02697952650487423, -0.027072517201304436, -0.0026515405625104904, -0.004720229655504227, 1.000190258026123, -0.0036739585921168327, -0.012687030248343945, -0.0002410414454061538, 0.0, 0.0, 0.0, 0, 0, 0, 0, 0, 0, -0.0036739585921168327, -0.012687030248343945, -0.0002410414454061538
104326, 0.02323276363313198, -0.01871226355433464, -0.008329013362526894, -0.015538718551397324, -0.05271099507808685, 0.019898435100913048, -0.0035473303869366646, -0.004416319075971842, 1.0011491775512695, -0.003763598157092929, -0.013031909242272377, -0.00024510128423571587, 0.0, 0.0, 0.0, 0, 0, 0, 0, 0, 0, -0.003763598157092929, -0.013031909242272377, -0.00024510128423571587
104336, 0.02493622899055481, -0.018718881532549858, -0.0087160998955369, 0.17879325151443481, -0.041562050580978394, -0.28432929515838623, -0.00396795803681016, -0.005277889780700207, 1.0018386840820312, -0.003855681512504816, -0.013381541706621647, -0.00024872462381608784, 0.0, 0.0, 0.0, 0, 0, 0, 0, 0, 0, -0.003855681512504816, -0.013381541706621647, -0.00024872462381608784
104346, 0.024525947868824005, -0.01674165576696396, -0.009410764090716839, -0.0985364094376564, -0.24373532831668854, -0.09960935264825821, -0.0029022793751209974, -0.004349162336438894, 1.0013196468353271, -0.003951117862015963, -0.013736399821937084, -0.0002508531615603715, 0.0, 0.0, 0.0, 0, 0, 0, 0, 0, 0, -0.003951117862015963, -0.013736399821937084, -0.0002508531615603715
104356, 0.0251289252191782, -0.0143559779971838, -0.010208132676780224, 0.2409040629863739, -0.24265190958976746, -0.021028032526373863, -0.0014520848635584116, -0.004079118836671114, 0.9993423223495483, -0.004049581475555897, -0.014096527360379696, -0.0002514542720746249, 0.0, 0.0, 0.0, 0, 0, 0, 0, 0, 0, -0.004049581475555897, -0.014096527360379696, -0.0002514542720746249
104366, 0.025471976026892662, -0.014760605059564114, -0.009155670180916786, 0.01503825280815363, 0.19002099335193634, 0.16399966180324554, -0.0013259152183309197, -0.0029017722699791193, 0.9984390139579773, -0.00415016571059823, -0.01446149218827486, -0.0002515870437491685, 0.0, 0.0, 0.0, 0, 0, 0, 0, 0, 0, -0.00415016571059823, -0.01446149218827486, -0.0002515870437491685
104376, 0.026596887037158012, -0.015346875414252281, -0.010570314712822437, 0.16566622257232666, 0.04347870498895645, -0.24127335846424103, -0.002775866072624922, -0.0038735177367925644, 0.9976618885993958, -0.004252179060131311, -0.014830459840595722, -0.00025252634077332914, 0.0, 0.0, 0.0, 0, 0, 0, 0, 0, 0, -0.004252179060131311, -0.014830459840595722, -0.00025252634077332914
104386, 0.02627280168235302, -0.014983062632381916, -0.010920282453298569, -0.13571840524673462, -0.16498057544231415, -0.12281437963247299, -0.003107252763584256, -0.005915660411119461, 0.9986510872840881, -0.004355933982878923, -0.015202922746539116, -0.0002552844525780529, 0.0, 0.0, 0.0, 0, 0, 0, 0, 0, 0, -0.004355933982878923, -0.015202922746539116, -0.0002552844525780529
104396, 0.026263346895575523, -0.014270113781094551, -0.009861916303634644, -0.023655954748392105, -0.05936824902892113, 0.1254740059375763, -0.0019348025089129806, -0.004961883649230003, 1.000178575515747, -0.00446241395547986, -0.015580193139612675, -0.0002599190338514745, 0.0, 0.0, 0.0, 0, 0, 0, 0, 0, 0, -0.00446241395547986, -0.015580193139612675, -0.0002599190338514745
104406, 0.026888905093073845, -0.013017241843044758, -0.009562811814248562, 0.0689070075750351, -0.21466854214668274, 0.008602140471339226, -0.0011225210037082434, -0.003506107721477747, 0.9998106360435486, -0.00457135122269392, -0.01596330851316452, -0.00026552873896434903, 0.0, 0.0, 0.0, 0, 0, 0, 0, 0, 0, -0.00457135122269392, -0.01596330851316452, -0.00026552873896434903
104416, 0.02893095836043358, -0.011700807139277458, -0.008244906552135944, 0.2715304493904114, -0.28030696511268616, 0.20842505991458893, -0.002799996407702565, -0.0015983954071998596, 0.9985707402229309, -0.004681803751736879, -0.016351480036973953, -0.000271431083092466, 0.0, 0.0, 0.0, 0, 0, 0, 0, 0, 0, -0.004681803751736879, -0.016351480036973953, -0.000271431083092466
104426, 0.030147479847073555, -0.011906102299690247, -0.008255084045231342, 0.09824851900339127, 0.033600930124521255, 0.026196610182523727, -0.0034114981535822153, -0.0031706318259239197, 0.9997899532318115, -0.004793890286237001, -0.01674310863018036, -0.00027772289467975497, 0.0, 0.0, 0.0, 0, 0, 0, 0, 0, 0, -0.004793890286237001, -0.01674310863018036, -0.00027772289467975497
104436, 0.030208908021450043, -0.013447042554616928, -0.008828436955809593, -0.0744362473487854, 0.30799588561058044, 0.008929971605539322, -0.003932338207960129, -0.004265117458999157, 0.9995133280754089, -0.004908636212348938, -0.017137698829174042, -0.0002846833667717874, 0.0, 0.0, 0.0, 0, 0, 0, 0, 0, 0, -0.004908636212348938, -0.017137698829174042, -0.0002846833667717874
104446, 0.03076764941215515, -0.014239627867937088, -0.00837640929967165, 0.11463642865419388, 0.19790704548358917, 0.08723526448011398, -0.0015523788752034307, -0.0038378399331122637, 1.000593900680542, -0.005026635713875294, -0.017536383122205734, -0.0002920614497270435, 0.0, 0.0, 0.0, 0, 0, 0, 0, 0, 0, -0.005026635713875294, -0.017536383122205734, -0.0002920614497270435
104456, 0.03095393255352974, -0.0132878003641963, -0.01085774227976799, 0.05831056460738182, -0.041236549615859985, -0.38389089703559875, -0.0014695768477395177, -0.0009877755073830485, 0.9985449910163879, -0.005147060379385948, -0.017939817160367966, -0.00029951430042274296, 0.0, 0.0, 0.0, 0, 0, 0, 0, 0, 0, -0.005147060379385948, -0.017939817160367966, -0.00029951430042274296
104466, 0.031414516270160675, -0.014059176668524742, -0.009851844049990177, -0.0015823765425011516, 0.1870395690202713, 1.9749471903196536e-05, -0.0005159268621355295, -0.0025273377541452646, 0.9982918500900269, -0.005268880166113377, -0.018346648663282394, -0.0003075545246247202, 0.0, 0.0, 0.0, 0, 0, 0, 0, 0, 0, -0.005268880166113377, -0.018346648663282394, -0.0003075545246247202
104476, 0.031302399933338165, -0.015892382711172104, -0.008871565572917461, 0.007308316417038441, 0.29400041699409485, 0.0176077913492918, -0.002425349783152342, -0.005599961616098881, 0.9984995126724243, -0.005391443148255348, -0.01875578612089157, -0.00031709313043393195, 0.0, 0.0, 0.0, 0, 0, 0, 0, 0, 0, -0.005391443148255348, -0.01875578612089157, -0.00031709313043393195
104486, 0.032159700989723206, -0.016151370480656624, -0.009084935300052166, 0.1858842670917511, 0.07320841401815414, -0.06442227214574814, -0.0030681255739182234, -0.006546120159327984, 0.9990003705024719, -0.005515065509825945, -0.01916876621544361, -0.0003282656252849847, 0.0, 0.0, 0.0, 0, 0, 0, 0, 0, 0, -0.005515065509825945, -0.01916876621544361, -0.0003282656252849847
104496, 0.03240897133946419, -0.014912491664290428, -0.010290572419762611, 0.056266214698553085, -0.03093401901423931, -0.03681694343686104, -0.0006037391722202301, -0.005868777632713318, 0.9990222454071045, -0.005640885327011347, -0.01958778128027916, -0.00034072124981321394, 0.0, 0.0, 0.0, 0, 0, 0, 0, 0, 0, -0.005640885327011347, -0.01958778128027916, -0.00034072124981321394
104506, 0.03406191244721413, -0.014218682423233986, -0.011491818353533745, 0.2557677924633026, -0.05560029670596123, -0.026799658313393593, -0.002455909736454487, -0.00490453140810132, 0.9987969398498535, -0.0057683358900249004, -0.02001340314745903, -0.000354133197106421, 0.0, 0.0, 0.0, 0, 0, 0, 0, 0, 0, -0.0057683358900249004, -0.02001340314745903, -0.000354133197106421
104516, 0.033513735979795456, -0.011801695451140404, -0.011494584381580353, -0.11088569462299347, -0.18986627459526062, 0.04624690115451813, -0.0003887768543791026, -0.0037465107161551714, 1.0005711317062378, -0.00589711731299758, -0.020445002242922783, -0.0003685909032355994, 0.0, 0.0, 0.0, 0, 0, 0, 0, 0, 0, -0.00589711731299758, -0.020445002242922783, -0.0003685909032355994
104526, 0.03455687686800957, -0.012415009550750256, -0.013022112660109997, 0.18030615150928497, 0.07225862145423889, -0.16912536323070526, -0.001781780505552888, -0.0037551098503172398, 1.0003892183303833, -0.006027230992913246, -0.020881744101643562, -0.00038367335218936205, 0.0, 0.0, 0.0, 0, 0, 0, 0, 0, 0, -0.006027230992913246, -0.020881744101643562, -0.00038367335218936205
104536, 0.035606734454631805, -0.012950235977768898, -0.013973681256175041, 0.08914391696453094, 0.03681925684213638, -0.0603303462266922, -0.00042734970338642597, -0.003551625646650791, 1.000720500946045, -0.006158385891467333, -0.021322911605238914, -0.00039848327287472785, 0.0, 0.0, 0.0, 0, 0, 0, 0, 0, 0, -0.006158385891467333, -0.021322911605238914, -0.00039848327287472785
104546, 0.03683650121092796, -0.012538756243884563, -0.012957390397787094, 0.17003925144672394, -0.056954141706228256, 0.3135772943496704, 0.00017972190107684582, -0.004399619530886412, 1.0003677606582642, -0.006290476303547621, -0.02176824025809765, -0.0004125962732359767, 0.0, 0.0, 0.0, 0, 0, 0, 0, 0, 0, -0.006290476303547621, -0.02176824025809765, -0.0004125962732359767
104556, 0.03722896799445152, -0.01174502819776535, -0.012631948105990887, -0.008156144060194492, 0.008118325844407082, -0.01676907390356064, -0.0018069067737087607, -0.0035708053037524223, 1.0003637075424194, -0.00642265472561121, -0.02221790701150894, -0.0004259598790667951, 0.0, 0.0, 0.0, 0, 0, 0, 0, 0, 0, -0.00642265472561121, -0.02221790701150894, -0.0004259598790667951
104566, 0.03756260126829147, -0.013903811573982239, -0.01274127047508955, -0.07197768241167068, 0.29074984788894653, 0.004380618687719107, -0.0018780018435791135, -0.004930050112307072, 1.0004448890686035, -0.006555346306413412, -0.022671889513731003, -0.0004388484812807292, 0.0, 0.0, 0.0, 0, 0, 0, 0, 0, 0, -0.006555346306413412, -0.022671889513731003, -0.0004388484812807292
104576, 0.03853916376829147, -0.01464340090751648, -0.012677943333983421, 0.04613248631358147, 0.2560003697872162, -0.026604602113366127, -0.0004466439422685653, -0.005110987927764654, 1.0018689632415771, -0.006689342204481363, -0.023130549117922783, -0.0004514032043516636, 0.0, 0.0, 0.0, 0, 0, 0, 0, 0, 0, -0.006689342204481363, -0.023130549117922783, -0.0004514032043516636
104586, 0.039754997938871384, -0.012870573438704014, -0.011730602011084557, 0.031193790957331657, 0.035938557237386703, 0.0917772650718689, -0.002587803639471531, -0.003450817195698619, 0.9993536472320557, -0.006824200041592121, -0.023594699800014496, -0.00046294074854813516, 0.0, 0.0, 0.0, 0, 0, 0, 0, 0, 0, -0.006824200041592121, -0.023594699800014496, -0.00046294074854813516
104596, 0.039214733988046646, -0.012066775932908058, -0.01204882562160492, -0.14309076964855194, 0.0011139590060338378, -0.013250824064016342, -0.0036633701529353857, -0.004475212190300226, 0.9978662133216858, -0.006960216443985701, -0.02406390942633152, -0.0004739489813800901, 0.0, 0.0, 0.0, 0, 0, 0, 0, 0, 0, -0.006960216443985701, -0.02406390942633152, -0.0004739489813800901
104606, 0.039975713938474655, -0.012853551656007767, -0.013045105151832104, 0.0405319519340992, 0.1600322425365448, -0.09031848609447479, -0.000912749907001853, -0.004617379512637854, 1.0003401041030884, -0.00709878746420145, -0.024537619203329086, -0.00048636883730068803, 0.0, 0.0, 0.0, 0, 0, 0, 0, 0, 0, -0.00709878746420145, -0.024537619203329086, -0.00048636883730068803
104616, 0.04079003259539604, -0.010825332254171371, -0.014832723885774612, 0.025838037952780724, -0.13165414333343506, -0.21670298278331757, -0.0006709330482408404, -0.0041902638040483, 0.9993408918380737, -0.007239433005452156, -0.02501632645726204, -0.0004998984513804317, 0.0, 0.0, 0.0, 0, 0, 0, 0, 0, 0, -0.007239433005452156, -0.02501632645726204, -0.0004998984513804317
104626, 0.04011452943086624, -0.01234037522226572, -0.01427531335502863, -0.17562335729599, 0.2391708642244339, -0.0070829493924975395, -0.0004488425038289279, -0.0031922347843647003, 0.9988294839859009, -0.0073806545697152615, -0.025500131770968437, -0.0005135242827236652, 0.0, 0.0, 0.0, 0, 0, 0, 0, 0, 0, -0.0073806545697152615, -0.025500131770968437, -0.0005135242827236652
104636, 0.040772777050733566, -0.012301670387387276, -0.013241906650364399, 0.06672471761703491, -0.020895006135106087, -0.0340777225792408, -0.0007433418068103492, -0.0032842133659869432, 0.998448371887207, -0.007522185333073139, -0.025988375768065453, -0.0005279533215798438, 0.0, 0.0, 0.0, 0, 0, 0, 0, 0, 0, -0.007522185333073139, -0.025988375768065453, -0.0005279533215798438
104646, 0.04115244001150131, -0.011953647248446941, -0.012810924090445042, 0.008797847665846348, 0.11200566589832306, -0.10073357075452805, 2.2667021767119877e-05, -0.004250719677656889, 0.9994533061981201, -0.007664134260267019, -0.02648058906197548, -0.0005437646759673953, 0.0, 0.0, 0.0, 0, 0, 0, 0, 0, 0, -0.007664134260267019, -0.02648058906197548, -0.0005437646759673953
104656, 0.041853152215480804, -0.010379648767411709, -0.012841957621276379, -0.01194646954536438, -0.11076188832521439, -0.14925196766853333, 0.0004981361562386155, -0.0032168799079954624, 0.9991273283958435, -0.007806289941072464, -0.02697722800076008, -0.0005606509512290359, 0.0, 0.0, 0.0, 0, 0, 0, 0, 0, 0, -0.007806289941072464, -0.02697722800076008, -0.0005606509512290359
104666, 0.042506538331508636, -0.011242460459470749, -0.012635272927582264, 0.05908076837658882, 0.10728897154331207, -0.041562870144844055, -0.0023781077470630407, -0.00513699883595109, 1.0003418922424316, -0.007948335260152817, -0.027478456497192383, -0.000578351435251534, 0.0, 0.0, 0.0, 0, 0, 0, 0, 0, 0, -0.007948335260152817, -0.027478456497192383, -0.000578351435251534
104676, 0.041858378797769547, -0.011937122792005539, -0.012147040106356144, -0.03983798623085022, 0.013549028895795345, 0.033928029239177704, -0.0010590865276753902, -0.00565149262547493, 0.9986938834190369, -0.008091120980679989, -0.027984322980046272, -0.0005963746225461364, 0.0, 0.0, 0.0, 0, 0, 0, 0, 0, 0, -0.008091120980679989, -0.027984322980046272, -0.0005963746225461364
104686, 0.041372574865818024, -0.011810044758021832, -0.011075819842517376, 0.04425818845629692, -0.2144058793783188, 0.08092711120843887, -0.0031964166555553675, -0.003831942565739155, 0.9991828203201294, -0.008235537447035313, -0.028495896607637405, -0.0006147053209133446, 0.0, 0.0, 0.0, 0, 0, 0, 0, 0, 0, -0.008235537447035313, -0.028495896607637405, -0.0006147053209133446
104696, 0.040868546813726425, -0.01276993378996849, -0.011478511616587639, -0.03442533686757088, 0.16911038756370544, -0.09587346017360687, -0.0010464972583577037, -0.003722683060914278, 0.9996730089187622, -0.008381995372474194, -0.029013102874159813, -0.0006339541869238019, 0.0, 0.0, 0.0, 0, 0, 0, 0, 0, 0, -0.008381995372474194, -0.029013102874159813, -0.0006339541869238019
104706, 0.04191889241337776, -0.014262659475207329, -0.010657897219061852, 0.1593778133392334, 0.08120674639940262, 0.09866972267627716, -0.0025252329651266336, -0.005062139127403498, 0.9990891218185425, -0.008530459366738796, -0.029535092413425446, -0.0006537811132147908, 0.0, 0.0, 0.0, 0, 0, 0, 0, 0, 0, -0.008530459366738796, -0.029535092413425446, -0.0006537811132147908
104716, 0.041877277195453644, -0.01632990501821041, -0.010761978104710579, -0.027226297184824944, 0.17858996987342834, 0.06309020519256592, -0.0011643827892839909, -0.005829765927046537, 0.9994516372680664, -0.008680535480380058, -0.03006197325885296, -0.0006740866811014712, 0.0, 0.0, 0.0, 0, 0, 0, 0, 0, 0, -0.008680535480380058, -0.03006197325885296, -0.0006740866811014712
104726, 0.04170181602239609, -0.01561536081135273, -0.010310824029147625, 0.03909708186984062, -0.21271124482154846, 0.15319345891475677, -0.002385856816545129, -0.005886530969291925, 1.000372290611267, -0.008831948973238468, -0.03059445321559906, -0.0006950641982257366, 0.0, 0.0, 0.0, 0, 0, 0, 0, 0, 0, -0.008831948973238468, -0.03059445321559906, -0.0006950641982257366
104736, 0.04178339242935181, -0.015560244210064411, -0.008963322266936302, -0.01643550954759121, 0.043077968060970306, 0.22063638269901276, -0.0019720925483852625, -0.0040220823138952255, 1.000119924545288, -0.00898471288383007, -0.031133292242884636, -0.0007160785607993603, 0.0, 0.0, 0.0, 0, 0, 0, 0, 0, 0, -0.00898471288383007, -0.031133292242884636, -0.0007160785607993603
104746, 0.04281340911984444, -0.0142014529556036, -0.00955891702324152, 0.22226767241954803, -0.1746026575565338, -0.0008133064256981015, -0.0004925701068714261, -0.004782875068485737, 0.9982304573059082, -0.009139272384345531, -0.03167807310819626, -0.000736612593755126, 0.0, 0.0, 0.0, 0, 0, 0, 0, 0, 0, -0.009139272384345531, -0.03167807310819626, -0.000736612593755126
104756, 0.042839415371418, -0.014027410186827183, -0.009674576111137867, 0.03339199721813202, 0.07494888454675674, -0.012565073557198048, -0.0014833734603598714, -0.0035964851267635822, 0.9997297525405884, -0.009294948540627956, -0.03222815319895744, -0.0007575893541797996, 0.0, 0.0, 0.0, 0, 0, 0, 0, 0, 0, -0.009294948540627956, -0.03222815319895744, -0.0007575893541797996
104766, 0.04394463822245598, -0.012207120656967163, -0.008871251717209816, 0.1802968829870224, -0.3382945954799652, 0.05810723826289177, -0.0006653873715549707, -0.004804420750588179, 1.0013883113861084, -0.009451311081647873, -0.03278312087059021, -0.0007795430137775838, 0.0, 0.0, 0.0, 0, 0, 0, 0, 0, 0, -0.009451311081647873, -0.03278312087059021, -0.0007795430137775838
104776, 0.04470864310860634, -0.012199587188661098, -0.007477927953004837, 0.15150313079357147, 0.027810221537947655, 0.16864220798015594, -0.0025385760236531496, -0.00606193533167243, 1.0018833875656128, -0.009608456864953041, -0.03334308788180351, -0.0008011797908693552, 0.0, 0.0, 0.0, 0, 0, 0, 0, 0, 0, -0.009766844101250172, -0.03390928730368614, -0.0008212996763177216
104786, 0.045273564755916595, -0.011787104420363903, -0.007530201226472855, 0.04218354821205139, -0.04594950005412102, -0.09809935092926025, -0.0014133361401036382, -0.005113381892442703, 1.000847578048706, -0.009766844101250172, -0.03390928730368614, -0.0008212996763177216, 0.0, 0.0, 0.0, 0, 0, 0, 0, 0, 0, -0.009927096776664257, -0.03448205441236496, -0.0008397604105994105
104796, 0.04507814720273018, -0.013144971802830696, -0.007954603992402554, 0.05466209352016449, 0.13008132576942444, -0.02287747524678707, -0.0019457296002656221, -0.004030880052596331, 1.0003509521484375, -0.009927096776664257, -0.03448205441236496, -0.0008397604105994105, 0.0, 0.0, 0.0, 0, 0, 0, 0, 0, 0, -0.010088787414133549, -0.035060375928878784, -0.0008574551902711391
104806, 0.04497857019305229, -0.01452056784182787, -0.008096450939774513, -0.0038757300935685635, 0.19433221220970154, -0.016601145267486572, -0.0013528907438740134, -0.004262938629835844, 1.001456379890442, -0.010088787414133549, -0.035060375928878784, -0.0008574551902711391, 0.0, 0.0, 0.0, 0, 0, 0, 0, 0, 0, -0.010251662693917751, -0.03564345836639404, -0.0008743828511796892
104816, 0.04544687271118164, -0.014745845459401608, -0.007617514114826918, 0.11620909720659256, 0.01524373795837164, 0.20049242675304413, -0.001658066757954657, -0.003424285212531686, 0.9990708231925964, -0.010251662693917751, -0.03564345836639404, -0.0008743828511796892, 0.0, 0.0, 0.0, 0, 0, 0, 0, 0, 0, -0.010415677912533283, -0.03623117879033089, -0.0008907482260838151
104826, 0.046758245676755905, -0.017257090657949448, -0.006625583861023188, 0.18726548552513123, 0.3072913587093353, 0.31137874722480774, -0.0014170986833050847, -0.0012483729515224695, 0.9983745813369751, -0.010415677912533283, -0.03623117879033089, -0.0008907482260838151, 0.0, 0.0, 0.0, 0, 0, 0, 0, 0, 0, -0.010580765083432198, -0.03682253137230873, -0.0009078365401364863
104836, 0.04678383842110634, -0.01799645647406578, -0.006385469809174538, 0.01402941532433033, -0.06964337080717087, 0.021773114800453186, -0.0022498336620628834, -0.0033214082941412926, 0.9991340041160583, -0.010580765083432198, -0.03682253137230873, -0.0009078365401364863, 0.0, 0.0, 0.0, 0, 0, 0, 0, 0, 0, -0.010747388936579227, -0.03741683065891266, -0.000925959087908268
104846, 0.047020819038152695, -0.01801794208586216, -0.006791231222450733, -0.01867636665701866, -0.028324412181973457, 0.06334786862134933, -0.0003366865566931665, -0.0035101273097097874, 1.000234842300415, -0.010747388936579227, -0.03741683065891266, -0.000925959087908268, 0.0, 0.0, 0.0, 0, 0, 0, 0, 0, 0, -0.010915258899331093, -0.038015130907297134, -0.0009446304757148027
104856, 0.046896252781152725, -0.0176018625497818, -0.0063973478972911835, -0.04949048161506653, -0.15130314230918884, -0.09089211374521255, -0.0015111544635146856, -0.0030094285029917955, 1.0008673667907715, -0.010915258899331093, -0.038015130907297134, -0.0009446304757148027, 0.0, 0.0, 0.0, 0, 0, 0, 0, 0, 0, -0.011083846911787987, -0.03861774131655693, -0.0009630239801481366
104866, 0.04644516855478287, -0.0174576323479414, -0.005447904579341412, -0.1343100666999817, 0.1673227846622467, 0.34569603204727173, -0.00012526418140623719, -0.005633873399347067, 0.9987536668777466, -0.011083846911787987, -0.03861774131655693, -0.0009630239801481366, 0.0, 0.0, 0.0, 0, 0, 0, 0, 0, 0, -0.011252790689468384, -0.03922500088810921, -0.000981341116130352
104876, 0.04617293179035187, -0.01904222182929516, -0.005278405267745256, -0.05961958318948746, 0.26880109310150146, 0.007304470986127853, -0.0014096465893089771, -0.004722838290035725, 0.9990906715393066, -0.011252790689468384, -0.03922500088810921, -0.000981341116130352, 0.0, 0.0, 0.0, 0, 0, 0, 0, 0, 0, -0.011421818286180496, -0.03983765095472336, -0.0010006338125094771
104886, 0.04546315595507622, -0.01883305422961712, -0.0075058164075016975, 0.0004147109866607934, -0.07123755663633347, -0.07119974493980408, -0.0022596551571041346, -0.0069811986759305, 1.000540018081665, -0.011421818286180496, -0.03983765095472336, -0.0010006338125094771, 0.0, 0.0, 0.0, 0, 0, 0, 0, 0, 0, -0.011421818286180496, -0.03983765095472336, -0.0010006338125094771
104896, 0.04588910937309265, -0.016707995906472206, -0.008515231311321259, 0.0733904168009758, -0.2732943892478943, -0.1511923223733902, -0.0008085747831501067, -0.004362260922789574, 1.0000940561294556, -0.01160916592925787, -0.04051899537444115, -0.0010224629659205675, 0.0, 0.0, 0.0, 0, 0, 0, 0, 0, 0, -0.01160916592925787, -0.04051899537444115, -0.0010224629659205675
104906, 0.04635583609342575, -0.017793375998735428, -0.008738058619201183, -0.015486812219023705, 0.22276555001735687, -0.11372896283864975, -0.0005663864430971444, -0.0036349748261272907, 1.000220537185669, -0.011780990287661552, -0.04114532098174095, -0.0010420510079711676, 0.0, 0.0, 0.0, 0, 0, 0, 0, 0, 0, -0.011780990287661552, -0.04114532098174095, -0.0010420510079711676
104916, 0.0465482659637928, -0.01895858347415924, -0.00836693961173296, -0.019236847758293152, 0.12000669538974762, 0.028403103351593018, -0.0015113952104002237, -0.0056884982623159885, 0.9996866583824158, -0.01195328589528799, -0.04177670180797577, -0.0010615349747240543, 0.0, 0.0, 0.0, 0, 0, 0, 0, 0, 0, -0.01195328589528799, -0.04177670180797577, -0.0010615349747240543
104926, 0.0458378829061985, -0.02018548548221588, -0.00838023517280817, -0.09669917821884155, 0.19647745788097382, 0.0338229238986969, -0.0024371210020035505, -0.003951424267143011, 0.9988514184951782, -0.012126361951231956, -0.04241345450282097, -0.001081199967302382, 0.0, 0.0, 0.0, 0, 0, 0, 0, 0, 0, -0.012126361951231956, -0.04241345450282097, -0.001081199967302382
104936, 0.04754917323589325, -0.018636586144566536, -0.007957186549901962, 0.32355615496635437, -0.26921623945236206, 0.06143638864159584, -0.0017985048471018672, -0.0041588167659938335, 1.0002431869506836, -0.012301130220293999, -0.04305580258369446, -0.0011015177005901933, 0.0, 0.0, 0.0, 0, 0, 0, 0, 0, 0, -0.012301130220293999, -0.04305580258369446, -0.0011015177005901933
104946, 0.04768972098827362, -0.02066713199019432, -0.007662573829293251, 0.14251331984996796, 0.35849976539611816, 0.1418219953775406, -0.00064768799347803, -0.0045937602408230305, 1.0008604526519775, -0.012477673590183258, -0.043702974915504456, -0.0011222270550206304, 0.0, 0.0, 0.0, 0, 0, 0, 0, 0, 0, -0.012477673590183258, -0.043702974915504456, -0.0011222270550206304
104956, 0.047521673142910004, -0.01967376470565796, -0.00773432245478034, -0.019125526770949364, -0.273826539516449, -0.01290087215602398, -0.0001941125956363976, -0.004734199494123459, 1.0002111196517944, -0.012655139900743961, -0.0443551130592823, -0.0011423429241403937, 0.0, 0.0, 0.0, 0, 0, 0, 0, 0, 0, -0.012655139900743961, -0.0443551130592823, -0.0011423429241403937
104966, 0.047981299459934235, -0.01778489723801613, -0.008226056583225727, 0.04132821038365364, -0.3083885908126831, -0.07511695474386215, -0.000657407334074378, -0.0035763834603130817, 0.9984806776046753, -0.012832704000175, -0.045012544840574265, -0.00116180838085711, 0.0, 0.0, 0.0, 0, 0, 0, 0, 0, 0, -0.012832704000175, -0.045012544840574265, -0.00116180838085711
104976, 0.04799573868513107, -0.01888808235526085, -0.008719815872609615, 0.06759073585271835, 0.2318969964981079, -0.005493764765560627, -0.0007207601447589695, -0.0036506815813481808, 1.0001566410064697, -0.0130103575065732, -0.04567500203847885, -0.0011817964259535074, 0.0, 0.0, 0.0, 0, 0, 0, 0, 0, 0, -0.0130103575065732, -0.04567500203847885, -0.0011817964259535074
