timeTick, roll, pitch, yaw, gyroX, gyroY, gyroZ, accX, accY, accZ, stateX, stateY, stateZ, target_x, target_y, target_z, otX, otY, otZ, otRoll, otPitch, otYaw, kalX, kalY, kalZ
11919, 0.018863750621676445, -0.20227201282978058, 0.046318575739860535, 0, 0, 0, 0, 0, 0, 0, 0, 0, 0, 0, 0, 0, 0, 0, 0, 0, 0, 0, 0, 0
11929, 0.018997149541974068, -0.20111657679080963, 0.046319570392370224, 0.04406830295920372, -0.09817655384540558, 0.10676531493663788, -0.0038481620140373707, 0.00012753123883157969, 1.0000407695770264, -0.2868759036064148, -0.9255107045173645, 0.16414904594421387, 0.0, 0.0, 0.0, 0, 0, 0, 0, 0, 0, -0.28713107109069824, -0.9276698231697083, 0.16457825899124146
11939, 0.019277391955256462, -0.20122173428535461, 0.045770313590765, 0.10552039742469788, 0.1483938843011856, 0.09550537168979645, -0.0012104553170502186, 0.0001623443968128413, 1.0006099939346313, -0.28713107109069824, -0.9276698231697083, 0.16457825899124146, 0.0, 0.0, 0.0, 0, 0, 0, 0, 0, 0, -0.28738561272621155, -0.9298294186592102, 0.1650076061487198
11949, 0.019241109490394592, -0.20245839655399323, 0.04527207091450691, 0.04780540615320206, 0.07118667662143707, -0.05596961826086044, -0.004296961706131697, -0.0020679659210145473, 0.9992691278457642, -0.28738561272621155, -0.9298294186592102, 0.1650076061487198, 0.0, 0.0, 0.0, 0, 0, 0, 0, 0, 0, -0.2876395285129547, -0.931989848613739, 0.1654372364282608
11959, 0.021110517904162407, -0.20368348062038422, 0.04579664394259453, 0.17022521793842316, -0.1309792548418045, 0.2079012244939804, -0.0022997732739895582, -0.0008854691404849291, 0.9991617202758789, -0.2876395285129547, -0.931989848613739, 0.1654372364282608, 0.0, 0.0, 0.0, 0, 0, 0, 0, 0, 0, -0.2878932058811188, -0.9341520071029663, 0.16586604714393616
11969, 0.021294686943292618, -0.2029619663953781, 0.04513273015618324, 0.029637224972248077, -0.003079339861869812, -0.05233827978372574, -0.001407958217896521, -0.0005659419111907482, 1.0001293420791626, -0.2878932058811188, -0.9341520071029663, 0.16586604714393616, 0.0, 0.0, 0.0, 0, 0, 0, 0, 0, 0, -0.28814539313316345, -0.9363155364990234, 0.16629444062709808
11979, 0.02155473083257675, -0.20290395617485046, 0.04411984235048294, -0.020653318613767624, -0.18310745060443878, -0.2374897301197052, -0.002555489307269454, -0.0022065916564315557, 1.0003060102462769, -0.28814539313316345, -0.9363155364990234, 0.16629444062709808, 0.0, 0.0, 0.0, 0, 0, 0, 0, 0, 0, -0.2883957326412201, -0.9384803771972656, 0.16672328114509583
11989, 0.022110644727945328, -0.20683029294013977, 0.044201117008924484, 0.11166785657405853, 0.7017068862915039, -0.003176402999088168, -0.0036724586971104145, -0.0028918965253978968, 1.0014456510543823, -0.2883957326412201, -0.9384803771972656, 0.16672328114509583, 0.0, 0.0, 0.0, 0, 0, 0, 0, 0, 0, -0.28864535689353943, -0.9406476616859436, 0.16715261340141296
11999, 0.021931808441877365, -0.2057437002658844, 0.04387727379798889, -0.06123786047101021, -0.04661870747804642, -0.01671803742647171, -0.0028548119589686394, -0.0036177271977066994, 1.0020263195037842, -0.28864535689353943, -0.9406476616859436, 0.16715261340141296, 0.0, 0.0, 0.0, 0, 0, 0, 0, 0, 0, -0.288894921541214, -0.9428183436393738, 0.16758331656455994
12009, 0.02173217572271824, -0.20530691742897034, 0.04434764385223389, -0.053634658455848694, -0.26401183009147644, -0.08692150563001633, -0.0024391189217567444, -0.0026634251698851585, 0.9978525042533875, -0.288894921541214, -0.9428183436393738, 0.16758331656455994, 0.0, 0.0, 0.0, 0, 0, 0, 0, 0, 0, -0.2891438901424408, -0.9449927806854248, 0.16801467537879944
12019, 0.021401304751634598, -0.2052648514509201, 0.04365280643105507, 0.1242360770702362, 0.10956231504678726, -0.12182586640119553, -0.0021704616956412792, -0.002262706868350506, 0.9985533356666565, -0.2891438901424408, -0.9449927806854248, 0.16801467537879944, 0.0, 0.0, 0.0, 0, 0, 0, 0, 0, 0, -0.28939148783683777, -0.947170615196228, 0.16844481229782104
12029, 0.02012559212744236, -0.2045198678970337, 0.04319014400243759, -0.13728757202625275, -0.12401483207941055, 0.06429625302553177, -0.0013228957541286945, -0.0014625655021518469, 0.9982627630233765, -0.28939148783683777, -0.947170615196228, 0.16844481229782104, 0.0, 0.0, 0.0, 0, 0, 0, 0, 0, 0, -0.2896377146244049, -0.9493508338928223, 0.16887310147285461
12039, 0.020777160301804543, -0.20543745160102844, 0.042293731123209, -0.029045986011624336, 0.3011133670806885, -0.10405456274747849, -0.001329474151134491, 0.00030321485246531665, 0.9975670576095581, -0.2896377146244049, -0.9493508338928223, 0.16887310147285461, 0.0, 0.0, 0.0, 0, 0, 0, 0, 0, 0, -0.2898821234703064, -0.951532244682312, 0.16929979622364044
12049, 0.021111104637384415, -0.2048627883195877, 0.04337248206138611, 0.04027288407087326, 0.1399020552635193, 0.2519957423210144, -0.0022574150934815407, -0.0033843563869595528, 0.9987940788269043, -0.2898821234703064, -0.951532244682312, 0.16929979622364044, 0.0, 0.0, 0.0, 0, 0, 0, 0, 0, 0, -0.2901245057582855, -0.9537148475646973, 0.16972476243972778
12059, 0.02160998061299324, -0.2047634720802307, 0.044659629464149475, 0.1150202602148056, 0.09228843450546265, 0.15058118104934692, -0.004505115561187267, -0.004615727346390486, 0.9980742931365967, -0.2901245057582855, -0.9537148475646973, 0.16972476243972778, 0.0, 0.0, 0.0, 0, 0, 0, 0, 0, 0, -0.29036620259284973, -0.9559009075164795, 0.1701478660106659
12069, 0.021399689838290215, -0.20371976494789124, 0.0446445569396019, 0.1230355054140091, -0.015016981400549412, -0.1655997484922409, -0.0012068856740370393, -0.003074227599427104, 1.000160813331604, -0.29036620259284973, -0.9559009075164795, 0.1701478660106659, 0.0, 0.0, 0.0, 0, 0, 0, 0, 0, 0, -0.29060739278793335, -0.9580914974212646, 0.17056988179683685
12079, 0.02123875357210636, -0.2021399289369583, 0.04501980543136597, -0.12455973029136658, -0.18921764194965363, -0.056767720729112625, -0.003528377041220665, -0.0009259897633455694, 0.999714732170105, -0.29060739278793335, -0.9580914974212646, 0.17056988179683685, 0.0, 0.0, 0.0, 0, 0, 0, 0, 0, 0, -0.2908475399017334, -0.9602852463722229, 0.17099148035049438
12089, 0.021837016567587852, -0.20240511000156403, 0.044487982988357544, 0.0013953844318166375, 0.3741053342819214, -0.058504361659288406, -0.0038797068409621716, 0.0009351857588626444, 1.0012233257293701, -0.2908475399017334, -0.9602852463722229, 0.17099148035049438, 0.0, 0.0, 0.0, 0, 0, 0, 0, 0, 0, -0.29108738899230957, -0.9624802470207214, 0.1714133471250534
12099, 0.022400852292776108, -0.20240764319896698, 0.04325873777270317, 0.060861267149448395, -0.07457536458969116, -0.0359664186835289, -0.0022483556531369686, 0.00037401492591015995, 1.0015603303909302, -0.29108738899230957, -0.9624802470207214, 0.1714133471250534, 0.0, 0.0, 0.0, 0, 0, 0, 0, 0, 0, -0.2913270890712738, -0.9646751284599304, 0.17183639109134674
12109, 0.02345779351890087, -0.20198433101177216, 0.043510135263204575, 0.04444592073559761, -0.049158986657857895, -0.10133865475654602, -0.000989830121397972, 0.0004733582609333098, 0.9995777606964111, -0.2913270890712738, -0.9646751284599304, 0.17183639109134674, 0.0, 0.0, 0.0, 0, 0, 0, 0, 0, 0, -0.29156559705734253, -0.9668698906898499, 0.17226019501686096
12119, 0.02387448586523533, -0.20134221017360687, 0.04285413771867752, 0.04503734037280083, 0.1855650544166565, 0.01013980247080326, -0.0031634075567126274, -0.0025779714342206717, 1.002109408378601, -0.29156559705734253, -0.9668698906898499, 0.17226019501686096, 0.0, 0.0, 0.0, 0, 0, 0, 0, 0, 0, -0.29180270433425903, -0.9690658450126648, 0.17268478870391846
12129, 0.02343801036477089, -0.20153231918811798, 0.04322370886802673, -0.09059756994247437, -0.08562164008617401, 0.17592157423496246, -0.0036217274609953165, -0.0016794324619695544, 0.9999151229858398, -0.29180270433425903, -0.9690658450126648, 0.17268478870391846, 0.0, 0.0, 0.0, 0, 0, 0, 0, 0, 0, -0.2920396625995636, -0.9712642431259155, 0.1731102168560028
12139, 0.02475089579820633, -0.19909702241420746, 0.04285362735390663, 0.21838949620723724, -0.24250122904777527, -0.03561936318874359, -0.002572454046458006, -0.0012271549785509706, 0.9993845224380493, -0.2920396625995636, -0.9712642431259155, 0.1731102168560028, 0.0, 0.0, 0.0, 0, 0, 0, 0, 0, 0, -0.2922763526439667, -0.9734647870063782, 0.17353558540344238
12149, 0.02451477013528347, -0.20061548054218292, 0.04306011274456978, 0.10765894502401352, 0.15371854603290558, 0.04212324693799019, -0.0036831072065979242, -0.0028229113668203354, 0.9986488223075867, -0.2922763526439667, -0.9734647870063782, 0.17353558540344238, 0.0, 0.0, 0.0, 0, 0, 0, 0, 0, 0, -0.2925126850605011, -0.9756671786308289, 0.17396032810211182
12159, 0.02496466040611267, -0.1992259919643402, 0.042812298983335495, -0.014802283607423306, -0.31397923827171326, -0.13086991012096405, -0.0027561152819544077, -0.002951613161712885, 0.9988731145858765, -0.2925126850605011, -0.9756671786308289, 0.17396032810211182, 0.0, 0.0, 0.0, 0, 0, 0, 0, 0, 0, -0.2927487790584564, -0.9778722524642944, 0.1743839681148529
12169, 0.025630515068769455, -0.20008403062820435, 0.041959844529628754, -0.017817731946706772, 0.17118866741657257, -0.192752867937088, -0.0016707517206668854, -0.0026169961784034967, 1.0010428428649902, -0.2927487790584564, -0.9778722524642944, 0.1743839681148529, 0.0, 0.0, 0.0, 0, 0, 0, 0, 0, 0, -0.29298368096351624, -0.980080783367157, 0.17480728030204773
12179, 0.02667539194226265, -0.20012561976909637, 0.042038045823574066, 0.11375630646944046, -0.13722489774227142, 0.014540217816829681, -0.0036202888004481792, -0.0015565631911158562, 1.000394344329834, -0.29298368096351624, -0.980080783367157, 0.17480728030204773, 0.0, 0.0, 0.0, 0, 0, 0, 0, 0, 0, -0.29321756958961487, -0.9822923541069031, 0.17523087561130524
12189, 0.0273443590849638, -0.19974438846111298, 0.04236189275979996, 0.18318629264831543, 0.04032774642109871, -0.03238353505730629, -0.001069893129169941, -0.0037689933087676764, 1.0020877122879028, -0.29321756958961487, -0.9822923541069031, 0.17523087561130524, 0.0, 0.0, 0.0, 0, 0, 0, 0, 0, 0, -0.29345062375068665, -0.9845067858695984, 0.17565523087978363
12199, 0.02692890353500843, -0.19946226477622986, 0.04213832691311836, 0.079218789935112, -0.056440144777297974, 0.02834245376288891, -0.0027631635311990976, -0.0027292876038700342, 1.0028413534164429, -0.29345062375068665, -0.9845067858695984, 0.17565523087978363, 0.0, 0.0, 0.0, 0, 0, 0, 0, 0, 0, -0.29368269443511963, -0.9867249727249146, 0.1760816127061844
12209, 0.02700992301106453, -0.20135395228862762, 0.04259512573480606, 0.0019092438742518425, -0.045037586241960526, -0.10708432644605637, -0.0021851821802556515, -0.0006025498150847852, 1.0008810758590698, -0.29368269443511963, -0.9867249727249146, 0.1760816127061844, 0.0, 0.0, 0.0, 0, 0, 0, 0, 0, 0, -0.29391372203826904, -0.9889461398124695, 0.17651008069515228
12219, 0.027270257472991943, -0.20080968737602234, 0.04270188510417938, 0.1894562989473343, 0.07047625631093979, 0.058864280581474304, -0.0015250352444127202, -0.00016527246043551713, 1.0015705823898315, -0.29391372203826904, -0.9889461398124695, 0.17651008069515228, 0.0, 0.0, 0.0, 0, 0, 0, 0, 0, 0, -0.29414328932762146, -0.9911684989929199, 0.17693984508514404
12229, 0.027290524914860725, -0.20440183579921722, 0.04196757823228836, -0.11018446832895279, 0.39606812596321106, 0.09263332188129425, -0.0004929117276333272, -0.0024199646431952715, 1.0016499757766724, -0.29414328932762146, -0.9911684989929199, 0.17693984508514404, 0.0, 0.0, 0.0, 0, 0, 0, 0, 0, 0, -0.29437050223350525, -0.9933923482894897, 0.1773708611726761
12239, 0.027427472174167633, -0.20434686541557312, 0.04119542986154556, -0.04103919491171837, -0.09309353679418564, -0.012566057965159416, -0.00214972672984004, -0.00313937128521502, 0.999098002910614, -0.29437050223350525, -0.9933923482894897, 0.1773708611726761, 0.0, 0.0, 0.0, 0, 0, 0, 0, 0, 0, -0.2945951521396637, -0.9956189393997192, 0.1778029352426529
12249, 0.026288559660315514, -0.20393966138362885, 0.041930075734853745, -0.003963361494243145, -0.1667548269033432, -0.026380185037851334, -0.0010826759971678257, -0.0022870637476444244, 0.9999713897705078, -0.2945951521396637, -0.9956189393997192, 0.1778029352426529, 0.0, 0.0, 0.0, 0, 0, 0, 0, 0, 0, -0.29481804370880127, -0.9978487491607666, 0.17823496460914612
12259, 0.02561143785715103, -0.20541949570178986, 0.0408838726580143, -0.1511283665895462, -0.04644925519824028, -0.23884651064872742, -0.003675834508612752, -0.0021357957739382982, 1.0012072324752808, -0.29481804370880127, -0.9978487491607666, 0.17823496460914612, 0.0, 0.0, 0.0, 0, 0, 0, 0, 0, 0, -0.2950396239757538, -1.0000814199447632, 0.17866705358028412
12269, 0.02634035237133503, -0.20451176166534424, 0.03984557092189789, 0.015149359591305256, 0.074304960668087, -0.14056506752967834, -0.0007497907499782741, -0.00450001610442996, 1.0019915103912354, -0.2950396239757538, -1.0000814199447632, 0.17866705358028412, 0.0, 0.0, 0.0, 0, 0, 0, 0, 0, 0, -0.29525986313819885, -1.0023174285888672, 0.17910081148147583
12279, 0.026273146271705627, -0.20363077521324158, 0.04041982442140579, -0.034811198711395264, -0.12874695658683777, 0.17995226383209229, -0.003200884908437729, -0.0011947547318413854, 1.0006183385849, -0.29525986313819885, -1.0023174285888672, 0.17910081148147583, 0.0, 0.0, 0.0, 0, 0, 0, 0, 0, 0, -0.2954787015914917, -1.0045568943023682, 0.1795358806848526
12289, 0.026585284620523453, -0.20224124193191528, 0.040815096348524094, -0.1628517210483551, -0.1364712119102478, -0.07847757637500763, -0.0028794961981475353, -0.0010371197713539004, 1.001916527748108, -0.2954787015914917, -1.0045568943023682, 0.1795358806848526, 0.0, 0.0, 0.0, 0, 0, 0, 0, 0, 0, -0.29569655656814575, -1.0067983865737915, 0.17997224628925323
12299, 0.026056598871946335, -0.2012397050857544, 0.040621232241392136, -0.1583825945854187, -0.13233983516693115, -0.058428023010492325, -0.0028034865390509367, -0.0026210385840386152, 1.000856876373291, -0.29569655656814575, -1.0067983865737915, 0.17997224628925323, 0.0, 0.0, 0.0, 0, 0, 0, 0, 0, 0, -0.2959136962890625, -1.009041666984558, 0.1804104447364807
12309, 0.02606244385242462, -0.20167545974254608, 0.04146690294146538, -0.010956126265227795, 0.010931107215583324, 0.17489883303642273, -0.0032682595774531364, -0.0034142998047173023, 0.9997972249984741, -0.2959136962890625, -1.009041666984558, 0.1804104447364807, 0.0, 0.0, 0.0, 0, 0, 0, 0, 0, 0, -0.2961302399635315, -1.011288046836853, 0.180849090218544
12319, 0.025647304952144623, -0.2030482292175293, 0.04207472503185272, -0.0349741205573082, 0.20986787974834442, 0.059048302471637726, -0.002565448870882392, -0.0032992293126881123, 1.0032424926757812, -0.2961302399635315, -1.011288046836853, 0.180849090218544, 0.0, 0.0, 0.0, 0, 0, 0, 0, 0, 0, -0.2963463366031647, -1.0135382413864136, 0.1812886744737625
12329, 0.026798294857144356, -0.20310238003730774, 0.04283462092280388, 0.08172589540481567, -0.17853213846683502, 0.13568787276744843, -0.0029991604387760162, -0.003243381157517433, 1.003330945968628, -0.2963463366031647, -1.0135382413864136, 0.1812886744737625, 0.0, 0.0, 0.0, 0, 0, 0, 0, 0, 0, -0.2965618371963501, -1.0157922506332397, 0.18173089623451233
12339, 0.028096258640289307, -0.2035941779613495, 0.041401445865631104, 0.17242124676704407, 0.2643578350543976, -0.04298067092895508, -0.0021838638931512833, -0.00245648087002337, 1.0018972158432007, -0.2965618371963501, -1.0157922506332397, 0.18173089623451233, 0.0, 0.0, 0.0, 0, 0, 0, 0, 0, 0, -0.29677650332450867, -1.018049716949463, 0.18217600882053375
12349, 0.027948487550020218, -0.20334796607494354, 0.041828643530607224, -0.003967438358813524, -0.05714079365134239, -0.1506117731332779, -0.0044040074571967125, -0.0022244914434850216, 1.0018097162246704, -0.29677650332450867, -1.018049716949463, 0.18217600882053375, 0.0, 0.0, 0.0, 0, 0, 0, 0, 0, 0, -0.29699042439460754, -1.0203100442886353, 0.18262329697608948
12359, 0.028713323175907135, -0.2018546164035797, 0.04032301902770996, -0.09518150240182877, -0.19118419289588928, -0.3478531539440155, -1.9298515780974412e-06, -0.002294674515724182, 1.0006837844848633, -0.29699042439460754, -1.0203100442886353, 0.18262329697608948, 0.0, 0.0, 0.0, 0, 0, 0, 0, 0, 0, -0.29720330238342285, -1.0225728750228882, 0.18307195603847504
12369, 0.028707196936011314, -0.20069944858551025, 0.040038060396909714, 0.03488938510417938, -0.22843743860721588, -0.1918918639421463, -0.0004479722701944411, -0.0043634227477014065, 1.0021008253097534, -0.29720330238342285, -1.0225728750228882, 0.18307195603847504, 0.0, 0.0, 0.0, 0, 0, 0, 0, 0, 0, -0.2974139153957367, -1.024838924407959, 0.18352222442626953
12379, 0.027763675898313522, -0.201845183968544, 0.039717935025691986, -0.11796705424785614, 0.2809641659259796, 0.09365417063236237, -0.0015357229858636856, -0.0031439249869436026, 1.0005779266357422, -0.2974139153957367, -1.024838924407959, 0.18352222442626953, 0.0, 0.0, 0.0, 0, 0, 0, 0, 0, 0, -0.29762187600135803, -1.027108907699585, 0.18397392332553864
12389, 0.02879440225660801, -0.20281009376049042, 0.03980885446071625, 0.1827225387096405, 0.11424598842859268, 0.16010735929012299, -0.0013850294053554535, -0.004017641767859459, 0.9987229108810425, -0.29762187600135803, -1.027108907699585, 0.18397392332553864, 0.0, 0.0, 0.0, 0, 0, 0, 0, 0, 0, -0.2978278696537018, -1.0293828248977661, 0.18442639708518982
12399, 0.027478210628032684, -0.20254552364349365, 0.03972717747092247, -0.22719337046146393, 0.04792176932096481, -0.09039688110351562, 0.0013720946153625846, -0.0014099605614319444, 0.999832272529602, -0.2978278696537018, -1.0293828248977661, 0.18442639708518982, 0.0, 0.0, 0.0, 0, 0, 0, 0, 0, 0, -0.2980313003063202, -1.0316604375839233, 0.18487846851348877
12409, 0.028271805495023727, -0.2009485512971878, 0.03880060836672783, -0.08022701740264893, -0.18340204656124115, 0.0910801887512207, -0.0007807431975379586, -0.001739758299663663, 0.9995074272155762, -0.2980313003063202, -1.0316604375839233, 0.18487846851348877, 0.0, 0.0, 0.0, 0, 0, 0, 0, 0, 0, -0.29823124408721924, -1.0339404344558716, 0.18532966077327728
12419, 0.028726760298013687, -0.20212984085083008, 0.038526926189661026, 0.13309819996356964, 0.2607365846633911, -0.008184339851140976, -0.00034644699189811945, -0.003358806949108839, 1.0008915662765503, -0.29823124408721924, -1.0339404344558716, 0.18532966077327728, 0.0, 0.0, 0.0, 0, 0, 0, 0, 0, 0, -0.2984280586242676, -1.0362229347229004, 0.18578097224235535
12429, 0.028844524174928665, -0.20165351033210754, 0.0389716662466526, -0.00686072651296854, -0.06474482268095016, 0.16573163866996765, -0.0026171342469751835, -0.0033144832123070955, 1.0015400648117065, -0.2984280586242676, -1.0362229347229004, 0.18578097224235535, 0.0, 0.0, 0.0, 0, 0, 0, 0, 0, 0, -0.2986227571964264, -1.0385092496871948, 0.18623273074626923
12439, 0.02920781821012497, -0.2031581997871399, 0.039430856704711914, 0.09486353397369385, 0.20319890975952148, -0.09747878462076187, -0.0044268355704844, -0.0024991496466100216, 1.0009822845458984, -0.2986227571964264, -1.0385092496871948, 0.18623273074626923, 0.0, 0.0, 0.0, 0, 0, 0, 0, 0, 0, -0.2988165616989136, -1.0407991409301758, 0.18668587505817413
12449, 0.027714693918824196, -0.20503677427768707, 0.039462607353925705, -0.17645536363124847, 0.29456424713134766, 0.12388458847999573, -0.0031475245486944914, -0.002032260177657008, 1.0005197525024414, -0.2988165616989136, -1.0407991409301758, 0.18668587505817413, 0.0, 0.0, 0.0, 0, 0, 0, 0, 0, 0, -0.2990107834339142, -1.043091893196106, 0.18714001774787903
12459, 0.027124814689159393, -0.20498758554458618, 0.0397324375808239, -0.08268234133720398, 0.035436637699604034, 0.07933945953845978, -0.00020943327399436384, -0.004309800919145346, 1.002578616142273, -0.2990107834339142, -1.043091893196106, 0.18714001774787903, 0.0, 0.0, 0.0, 0, 0, 0, 0, 0, 0, -0.2992040812969208, -1.045388102531433, 0.1875949203968048
12469, 0.0273955836892128, -0.2074539214372635, 0.03979429230093956, 0.1747773140668869, 0.3307633697986603, 0.0709541067481041, -0.0007480388158001006, -0.0028167027048766613, 1.001135230064392, -0.2992040812969208, -1.045388102531433, 0.1875949203968048, 0.0, 0.0, 0.0, 0, 0, 0, 0, 0, 0, -0.2993944585323334, -1.0476881265640259, 0.18805205821990967
12479, 0.027568744495511055, -0.20838014781475067, 0.03982849046587944, -0.1576610803604126, -0.001037495443597436, -0.010935073718428612, -0.001854808651842177, -0.0030239506158977747, 1.000104546546936, -0.2993944585323334, -1.0476881265640259, 0.18805205821990967, 0.0, 0.0, 0.0, 0, 0, 0, 0, 0, 0, -0.29958218336105347, -1.0499917268753052, 0.18851034343242645
12489, 0.028148692101240158, -0.20856283605098724, 0.039003077894449234, -0.008827390149235725, -0.010920343920588493, -0.207899808883667, -0.0037867401260882616, -0.002541878493502736, 1.0018006563186646, -0.29958218336105347, -1.0499917268753052, 0.18851034343242645, 0.0, 0.0, 0.0, 0, 0, 0, 0, 0, 0, -0.29976850748062134, -1.0522987842559814, 0.18896928429603577
12499, 0.027534760534763336, -0.20891478657722473, 0.0385616272687912, -0.15243136882781982, 0.17946474254131317, -0.009820173494517803, -0.0009329367894679308, -0.0010931901633739471, 1.0026448965072632, -0.29976850748062134, -1.0522987842559814, 0.18896928429603577, 0.0, 0.0, 0.0, 0, 0, 0, 0, 0, 0, -0.29995420575141907, -1.0546083450317383, 0.18943004310131073
12509, 0.027850795537233353, -0.2086196094751358, 0.036610640585422516, -0.04842405393719673, -0.06275555491447449, -0.31543657183647156, -0.0008976394892670214, -0.0021137564908713102, 0.999680757522583, -0.29995420575141907, -1.0546083450317383, 0.18943004310131073, 0.0, 0.0, 0.0, 0, 0, 0, 0, 0, 0, -0.30013778805732727, -1.056919813156128, 0.18989214301109314
12519, 0.028309494256973267, -0.20899878442287445, 0.03783077001571655, 0.05839737132191658, 0.09298113733530045, 0.20410852134227753, 2.7463351216283627e-05, -0.005582999438047409, 1.001946210861206, -0.30013778805732727, -1.056919813156128, 0.18989214301109314, 0.0, 0.0, 0.0, 0, 0, 0, 0, 0, 0, -0.3003181219100952, -1.0592347383499146, 0.1903553605079651
12529, 0.02796093188226223, -0.21120867133140564, 0.03850381448864937, -0.010029462166130543, 0.03951588273048401, -0.0645517036318779, -0.0023172316141426563, -0.004178094677627087, 1.0007514953613281, -0.3003181219100952, -1.0592347383499146, 0.1903553605079651, 0.0, 0.0, 0.0, 0, 0, 0, 0, 0, 0, -0.30049577355384827, -1.0615549087524414, 0.19081979990005493
12539, 0.028430994600057602, -0.21148957312107086, 0.03869708254933357, 0.23081780970096588, 0.010315305553376675, 0.16047367453575134, -0.0025594711769372225, -0.0027883772272616625, 1.0008295774459839, -0.30049577355384827, -1.0615549087524414, 0.19081979990005493, 0.0, 0.0, 0.0, 0, 0, 0, 0, 0, 0, -0.3006717562675476, -1.0638797283172607, 0.19128520786762238
12549, 0.02791520580649376, -0.21165652573108673, 0.04003426805138588, -0.03866970166563988, -0.006589062046259642, 0.1483122855424881, -0.0001964168477570638, -0.0008028484880924225, 1.0021203756332397, -0.3006717562675476, -1.0638797283172607, 0.19128520786762238, 0.0, 0.0, 0.0, 0, 0, 0, 0, 0, 0, -0.3008460998535156, -1.0662075281143188, 0.19175207614898682
12559, 0.027734603732824326, -0.21222379803657532, 0.03955854848027229, 0.0508747398853302, 0.015803037211298943, 0.005609981250017881, -0.0024392311461269855, 0.0012942233588546515, 0.9986429810523987, -0.3008460998535156, -1.0662075281143188, 0.19175207614898682, 0.0, 0.0, 0.0, 0, 0, 0, 0, 0, 0, -0.3010181486606598, -1.0685362815856934, 0.19221988320350647
12569, 0.026243528351187706, -0.21380208432674408, 0.038709960877895355, -0.038157008588314056, 0.3180963695049286, 0.03169603645801544, -0.0029594304505735636, -0.0008512091590091586, 1.0002367496490479, -0.3010181486606598, -1.0685362815856934, 0.19221988320350647, 0.0, 0.0, 0.0, 0, 0, 0, 0, 0, 0, -0.3011886179447174, -1.0708649158477783, 0.19268758594989777
12579, 0.02604564093053341, -0.21379518508911133, 0.039851535111665726, -0.18026462197303772, 0.08528976887464523, 0.0636022761464119, -0.001985614886507392, -0.002739455085247755, 0.998997688293457, -0.3011886179447174, -1.0708649158477783, 0.19268758594989777, 0.0, 0.0, 0.0, 0, 0, 0, 0, 0, 0, -0.30135804414749146, -1.073195219039917, 0.19315487146377563
12589, 0.027317441999912262, -0.21644482016563416, 0.041190892457962036, 0.16213347017765045, 0.29146435856819153, 0.08473534882068634, -0.001440898166038096, -0.0003855754039250314, 0.9991719126701355, -0.30135804414749146, -1.073195219039917, 0.19315487146377563, 0.0, 0.0, 0.0, 0, 0, 0, 0, 0, 0, -0.30152571201324463, -1.0755276679992676, 0.19362139701843262
12599, 0.026055200025439262, -0.21480901539325714, 0.04201248660683632, -0.15067610144615173, -0.30478811264038086, 0.20138730108737946, 0.00042597076389938593, -0.002740164054557681, 1.0003498792648315, -0.30152571201324463, -1.0755276679992676, 0.19362139701843262, 0.0, 0.0, 0.0, 0, 0, 0, 0, 0, 0, -0.30169054865837097, -1.0778619050979614, 0.19408740103244781
12609, 0.027227405458688736, -0.21461956202983856, 0.0407073050737381, -0.0042585209012031555, -0.17610466480255127, -0.2375609129667282, 0.0004443155194167048, -0.0011654149275273085, 0.9984862208366394, -0.30169054865837097, -1.0778619050979614, 0.19408740103244781, 0.0, 0.0, 0.0, 0, 0, 0, 0, 0, 0, -0.30185142159461975, -1.0801985263824463, 0.19455274939537048
12619, 0.026869164779782295, -0.2140425741672516, 0.04048305004835129, -0.016216225922107697, 0.18955916166305542, 0.027266651391983032, -0.00023996809613890946, -0.001980383647605777, 1.0013128519058228, -0.30185142159461975, -1.0801985263824463, 0.19455274939537048, 0.0, 0.0, 0.0, 0, 0, 0, 0, 0, 0, -0.30200833082199097, -1.0825376510620117, 0.19501785933971405
12629, 0.026593990623950958, -0.21645154058933258, 0.040677446871995926, -0.15577605366706848, 0.2767763137817383, 0.020297445356845856, -0.002566617215052247, -0.002004665555432439, 0.9996193051338196, -0.30200833082199097, -1.0825376510620117, 0.19501785933971405, 0.0, 0.0, 0.0, 0, 0, 0, 0, 0, 0, -0.3021625876426697, -1.0848792791366577, 0.19548305869102478
12639, 0.026571063324809074, -0.21493354439735413, 0.041111115366220474, 0.17414090037345886, -0.31175556778907776, 0.024167140945792198, -0.0014844051329419017, -0.002530303318053484, 0.9992855191230774, -0.3021625876426697, -1.0848792791366577, 0.19548305869102478, 0.0, 0.0, 0.0, 0, 0, 0, 0, 0, 0, -0.30231526494026184, -1.0872238874435425, 0.1959480494260788
12649, 0.026304470375180244, -0.21299448609352112, 0.04039042443037033, 0.0911615639925003, 0.017915086820721626, -0.0342235267162323, 0.0003455501573625952, -0.0006761066615581512, 1.0001577138900757, -0.30231526494026184, -1.0872238874435425, 0.1959480494260788, 0.0, 0.0, 0.0, 0, 0, 0, 0, 0, 0, -0.3024654984474182, -1.0895708799362183, 0.19641290605068207
12659, 0.027513984590768814, -0.211707204580307, 0.04143710434436798, 0.06725797057151794, -0.07720184326171875, 0.030052166432142258, -0.0017205431358888745, -0.00014976960665080696, 1.0004117488861084, -0.3024654984474182, -1.0895708799362183, 0.19641290605068207, 0.0, 0.0, 0.0, 0, 0, 0, 0, 0, 0, -0.30261245369911194, -1.091919183731079, 0.1968776136636734
12669, 0.028139164671301842, -0.21413059532642365, 0.042666126042604446, 0.13718730211257935, 0.40032830834388733, 0.26801779866218567, -0.002087489003315568, -0.0007377984584309161, 1.0011965036392212, -0.30261245369911194, -1.091919183731079, 0.1968776136636734, 0.0, 0.0, 0.0, 0, 0, 0, 0, 0, 0, -0.3027571439743042, -1.0942684412002563, 0.1973429173231125
12679, 0.02769225835800171, -0.21507272124290466, 0.04185571148991585, 0.06022658944129944, 0.28706955909729004, 0.1531175971031189, -0.003564654616639018, -0.0005206612404435873, 1.001961588859558, -0.3027571439743042, -1.0942684412002563, 0.1973429173231125, 0.0, 0.0, 0.0, 0, 0, 0, 0, 0, 0, -0.3029007911682129, -1.096618890762329, 0.1978095918893814
12689, 0.02748047560453415, -0.21620170772075653, 0.04146087169647217, -0.06647269427776337, 0.08481809496879578, -0.05831768363714218, -0.0026511403266340494, -0.0028032842092216015, 1.0020835399627686, -0.3029007911682129, -1.096618890762329, 0.1978095918893814, 0.0, 0.0, 0.0, 0, 0, 0, 0, 0, 0, -0.3030436933040619, -1.098970890045166, 0.19827815890312195
12699, 0.026895495131611824, -0.21653321385383606, 0.04239266365766525, -0.057325661182403564, 0.23301070928573608, 0.21635660529136658, -0.0038965395651757717, -0.004014826379716396, 1.0031107664108276, -0.3030436933040619, -1.098970890045166, 0.19827815890312195, 0.0, 0.0, 0.0, 0, 0, 0, 0, 0, 0, -0.30318593978881836, -1.1013262271881104, 0.19874903559684753
12709, 0.027454126626253128, -0.21801550686359406, 0.04208884760737419, 0.13480980694293976, -0.013123403303325176, -0.0026089088059961796, -0.0029150317423045635, -0.0024558138102293015, 0.9992497563362122, -0.30318593978881836, -1.1013262271881104, 0.19874903559684753, 0.0, 0.0, 0.0, 0, 0, 0, 0, 0, 0, -0.30332764983177185, -1.1036854982376099, 0.19922137260437012
12719, 0.027602914720773697, -0.2157958447933197, 0.04179898276925087, 0.037791792303323746, -0.3114868402481079, -0.15397825837135315, -0.0008895857608877122, -0.002188144950196147, 1.001237392425537, -0.30332764983177185, -1.1036854982376099, 0.19922137260437012, 0.0, 0.0, 0.0, 0, 0, 0, 0, 0, 0, -0.30346789956092834, -1.1060477495193481, 0.19969402253627777
12729, 0.028144100680947304, -0.21664918959140778, 0.04215028136968613, -0.01900009997189045, 0.3347398638725281, 0.09668530523777008, -0.003049348248168826, -0.0005217971047386527, 1.0020469427108765, -0.30346789956092834, -1.1060477495193481, 0.19969402253627777, 0.0, 0.0, 0.0, 0, 0, 0, 0, 0, 0, -0.3036063015460968, -1.1084117889404297, 0.20016753673553467
12739, 0.027831031009554863, -0.21711859107017517, 0.04176522046327591, 0.11804041266441345, 0.22185155749320984, -0.15909507870674133, -0.002299600513651967, -0.002869548974558711, 1.0011487007141113, -0.3036063015460968, -1.1084117889404297, 0.20016753673553467, 0.0, 0.0, 0.0, 0, 0, 0, 0, 0, 0, -0.30374354124069214, -1.1107776165008545, 0.2006428837776184
12749, 0.028084252029657364, -0.21599002182483673, 0.04248867928981781, 0.07090416550636292, -0.2652999460697174, 0.25672587752342224, -0.0016512316651642323, -0.0030089321080595255, 1.0019886493682861, -0.30374354124069214, -1.1107776165008545, 0.2006428837776184, 0.0, 0.0, 0.0, 0, 0, 0, 0, 0, 0, -0.30387935042381287, -1.113146185874939, 0.20111976563930511
12759, 0.027930205687880516, -0.2168121039867401, 0.0421968549489975, -0.15613818168640137, 0.13957765698432922, -0.09488337486982346, -0.0028724863659590483, -0.0033902775030583143, 1.0000272989273071, -0.30387935042381287, -1.113146185874939, 0.20111976563930511, 0.0, 0.0, 0.0, 0, 0, 0, 0, 0, 0, -0.30401360988616943, -1.1155186891555786, 0.201597660779953
12769, 0.027613628655672073, -0.21530288457870483, 0.04165387153625488, -0.07195331901311874, -0.08123404532670975, -0.24005170166492462, -0.0018397493986412883, -0.002988749649375677, 1.0014179944992065, -0.30401360988616943, -1.1155186891555786, 0.201597660779953, 0.0, 0.0, 0.0, 0, 0, 0, 0, 0, 0, -0.30414655804634094, -1.1178950071334839, 0.20207618176937103
12779, 0.02789539285004139, -0.21416312456130981, 0.04157613217830658, -0.01815696619451046, -0.016516685485839844, 0.22350475192070007, -0.0018607478123158216, -0.0007952432497404516, 1.0011119842529297, -0.30414655804634094, -1.1178950071334839, 0.20207618176937103, 0.0, 0.0, 0.0, 0, 0, 0, 0, 0, 0, -0.304277628660202, -1.1202740669250488, 0.2025556117296219
12789, 0.027589214965701103, -0.2141159623861313, 0.04053880646824837, 0.012723276391625404, -0.06014891713857651, -0.2967390716075897, -0.0023635285906493664, -0.0017914710333570838, 0.9982150793075562, -0.304277628660202, -1.1202740669250488, 0.2025556117296219, 0.0, 0.0, 0.0, 0, 0, 0, 0, 0, 0, -0.30440670251846313, -1.1226551532745361, 0.203035369515419
12799, 0.02697557955980301, -0.21243171393871307, 0.04141990840435028, -0.06776980310678482, -0.21283091604709625, 0.037668365985155106, -0.002330724149942398, -0.0010148826986551285, 1.000431776046753, -0.30440670251846313, -1.1226551532745361, 0.203035369515419, 0.0, 0.0, 0.0, 0, 0, 0, 0, 0, 0, -0.3045346438884735, -1.1250379085540771, 0.20351456105709076
12809, 0.027550306171178818, -0.21076011657714844, 0.041292861104011536, 0.17831707000732422, -0.21204820275306702, 0.016070356592535973, -0.001130937715061009, -0.0009709115256555378, 1.0018471479415894, -0.3045346438884735, -1.1250379085540771, 0.20351456105709076, 0.0, 0.0, 0.0, 0, 0, 0, 0, 0, 0, -0.3046610355377197, -1.1274222135543823, 0.20399430394172668
12819, 0.02715873159468174, -0.20831088721752167, 0.04048990458250046, 0.1016392782330513, -0.2946060597896576, 0.05286988988518715, -0.0038544831331819296, -0.003715939586982131, 1.0009138584136963, -0.3046610355377197, -1.1274222135543823, 0.20399430394172668, 0.0, 0.0, 0.0, 0, 0, 0, 0, 0, 0, -0.30478572845458984, -1.1298089027404785, 0.20447559654712677
12829, 0.02735714800655842, -0.20997831225395203, 0.040151447057724, -0.06889324635267258, 0.1175365224480629, 0.04068145900964737, -0.0031027907971292734, -0.0024791238829493523, 1.0003689527511597, -0.30478572845458984, -1.1298089027404785, 0.20447559654712677, 0.0, 0.0, 0.0, 0, 0, 0, 0, 0, 0, -0.3049098551273346, -1.1321991682052612, 0.20495790243148804
12839, 0.028637638315558434, -0.20988516509532928, 0.03886963054537773, 0.13641150295734406, -0.026050874963402748, -0.07293398678302765, -0.003573346883058548, -0.0006227429257705808, 1.0001494884490967, -0.3049098551273346, -1.1321991682052612, 0.20495790243148804, 0.0, 0.0, 0.0, 0, 0, 0, 0, 0, 0, -0.3050336241722107, -1.1345919370651245, 0.2054409384727478
12849, 0.02768658474087715, -0.20860837399959564, 0.03859509527683258, -0.16400712728500366, -0.2714638411998749, -0.2034662514925003, -0.0017436647322028875, -0.0025238976813852787, 1.001345157623291, -0.3050336241722107, -1.1345919370651245, 0.2054409384727478, 0.0, 0.0, 0.0, 0, 0, 0, 0, 0, 0, -0.3051566183567047, -1.1369861364364624, 0.2059248983860016
12859, 0.027780704200267792, -0.2094857096672058, 0.03743332251906395, -0.04076014831662178, 0.00547406543046236, -0.31612837314605713, -0.0022351709194481373, -0.004445670638233423, 0.9991402626037598, -0.3051566183567047, -1.1369861364364624, 0.2059248983860016, 0.0, 0.0, 0.0, 0, 0, 0, 0, 0, 0, -0.30527815222740173, -1.1393835544586182, 0.2064093053340912
12869, 0.028216330334544182, -0.20974594354629517, 0.03826920688152313, 0.02188318781554699, 0.24535495042800903, 0.022783523425459862, 0.00012686166155617684, -0.0037080058827996254, 1.0005245208740234, -0.30527815222740173, -1.1393835544586182, 0.2064093053340912, 0.0, 0.0, 0.0, 0, 0, 0, 0, 0, 0, -0.3053974211215973, -1.1417855024337769, 0.2068936824798584
12879, 0.027877483516931534, -0.20817948877811432, 0.038731496781110764, -0.17580023407936096, -0.06288418173789978, 0.06384865939617157, -0.0010248204926028848, -0.002451051026582718, 1.0006513595581055, -0.3053974211215973, -1.1417855024337769, 0.2068936824798584, 0.0, 0.0, 0.0, 0, 0, 0, 0, 0, 0, -0.3055136203765869, -1.1441911458969116, 0.20737823843955994
12889, 0.028475457802414894, -0.2083469182252884, 0.03922576084733009, 0.01614542305469513, 0.06709275394678116, -0.06959030032157898, -0.0013543047243729234, -0.004514597821980715, 1.0001047849655151, -0.3055136203765869, -1.1441911458969116, 0.20737823843955994, 0.0, 0.0, 0.0, 0, 0, 0, 0, 0, 0, -0.30562689900398254, -1.146600365638733, 0.20786310732364655
12899, 0.02719414234161377, -0.20899657905101776, 0.03850722685456276, 0.0010458339238539338, 0.12567302584648132, -0.025097312405705452, -0.0033478201366961002, -0.002964068902656436, 1.0005228519439697, -0.30562689900398254, -1.146600365638733, 0.20786310732364655, 0.0, 0.0, 0.0, 0, 0, 0, 0, 0, 0, -0.30573856830596924, -1.1490137577056885, 0.2083481103181839
12909, 0.027934251353144646, -0.2108294814825058, 0.0371101051568985, 0.07616548240184784, 0.13412432372570038, -0.3354225158691406, -0.0032126849982887506, -0.002057453850284219, 1.0015287399291992, -0.30573856830596924, -1.1490137577056885, 0.2083481103181839, 0.0, 0.0, 0.0, 0, 0, 0, 0, 0, 0, -0.30584973096847534, -1.1514307260513306, 0.20883354544639587
12919, 0.028256520628929138, -0.21168652176856995, 0.03761141374707222, 0.14249172806739807, 0.21074146032333374, 0.08593384921550751, -0.0014825074467808008, -0.0019554398022592068, 1.0011471509933472, -0.30584973096847534, -1.1514307260513306, 0.20883354544639587, 0.0, 0.0, 0.0, 0, 0, 0, 0, 0, 0, -0.30595988035202026, -1.1538504362106323, 0.20932017266750336
12929, 0.028308207169175148, -0.21216796338558197, 0.03738905489444733, -0.08762987703084946, -0.10204064846038818, -0.03048066422343254, -0.0025994316674768925, -0.003309340449050069, 1.0018556118011475, -0.30595988035202026, -1.1538504362106323, 0.20932017266750336, 0.0, 0.0, 0.0, 0, 0, 0, 0, 0, 0, -0.3060685992240906, -1.1562727689743042, 0.20980800688266754
12939, 0.028407195582985878, -0.21369650959968567, 0.03682785481214523, 0.1253616213798523, 0.1313423365354538, 0.030727600678801537, -0.0023413102608174086, -0.0038987956941127777, 0.9989891648292542, -0.3060685992240906, -1.1562727689743042, 0.20980800688266754, 0.0, 0.0, 0.0, 0, 0, 0, 0, 0, 0, -0.30617591738700867, -1.1586989164352417, 0.21029673516750336
12949, 0.027911676093935966, -0.2143760621547699, 0.03702763468027115, -0.12747690081596375, 0.004482030402868986, 0.060775090008974075, 0.00032791835837997496, -0.0022433269768953323, 1.0015716552734375, -0.30617591738700867, -1.1586989164352417, 0.21029673516750336, 0.0, 0.0, 0.0, 0, 0, 0, 0, 0, 0, -0.30628129839897156, -1.1611288785934448, 0.2107858806848526
12959, 0.028597567230463028, -0.2148757427930832, 0.0367201566696167, 0.13135787844657898, -0.14329268038272858, -0.0885266587138176, -0.0033207715023308992, -0.0031387312337756157, 0.999405026435852, -0.30628129839897156, -1.1611288785934448, 0.2107858806848526, 0.0, 0.0, 0.0, 0, 0, 0, 0, 0, 0, -0.306384414434433, -1.1635620594024658, 0.21127533912658691
12969, 0.028807178139686584, -0.21280112862586975, 0.03613625839352608, 0.09950549155473709, -0.10851197689771652, -0.1379735767841339, -0.0016567717539146543, -0.002568047260865569, 1.0013011693954468, -0.306384414434433, -1.1635620594024658, 0.21127533912658691, 0.0, 0.0, 0.0, 0, 0, 0, 0, 0, 0, -0.306486040353775, -1.1659984588623047, 0.21176539361476898
12979, 0.02871900238096714, -0.2125958353281021, 0.03684014081954956, -0.07051240652799606, -0.12952899932861328, 0.007970867678523064, -0.000804231152869761, -0.0028981303330510855, 1.0023657083511353, -0.306486040353775, -1.1659984588623047, 0.21176539361476898, 0.0, 0.0, 0.0, 0, 0, 0, 0, 0, 0, -0.3065859079360962, -1.1684380769729614, 0.21225641667842865
12989, 0.02867690846323967, -0.21152466535568237, 0.03704095631837845, -0.09011608362197876, 0.13972808420658112, 0.0714070200920105, -0.003799055004492402, -0.0027133363764733076, 1.0003362894058228, -0.3065859079360962, -1.1684380769729614, 0.21225641667842865, 0.0, 0.0, 0.0, 0, 0, 0, 0, 0, 0, -0.3066839277744293, -1.170880913734436, 0.21274876594543457
12999, 0.028109367936849594, -0.210506871342659, 0.036349304020404816, -0.06451329588890076, -0.14265306293964386, -0.26204153895378113, -0.002845020731911063, -0.003132335375994444, 1.0009506940841675, -0.3066839277744293, -1.170880913734436, 0.21274876594543457, 0.0, 0.0, 0.0, 0, 0, 0, 0, 0, 0, -0.30678150057792664, -1.173327088356018, 0.21324200928211212
13009, 0.029419900849461555, -0.21085819602012634, 0.03830014914274216, 0.1826697438955307, -0.014315378852188587, 0.06816019862890244, -0.0016835664864629507, -0.0019309697672724724, 0.9984717965126038, -0.30678150057792664, -1.173327088356018, 0.21324200928211212, 0.0, 0.0, 0.0, 0, 0, 0, 0, 0, 0, -0.306878000497818, -1.1757763624191284, 0.21373529732227325
13019, 0.028061646968126297, -0.2121470719575882, 0.037368305027484894, 0.038061514496803284, 0.21329669654369354, -0.04778463765978813, -0.00031700063846074045, -0.002647347981110215, 0.9993263483047485, -0.306878000497818, -1.1757763624191284, 0.21373529732227325, 0.0, 0.0, 0.0, 0, 0, 0, 0, 0, 0, -0.30697205662727356, -1.1782283782958984, 0.2142276167869568
13029, 0.028012804687023163, -0.21166574954986572, 0.03754892572760582, -0.002017542254179716, -0.291379451751709, -0.059043705463409424, -0.0032916846685111523, -0.0037507954984903336, 1.00059175491333, -0.30697205662727356, -1.1782283782958984, 0.2142276167869568, 0.0, 0.0, 0.0, 0, 0, 0, 0, 0, 0, -0.307064026594162, -1.1806836128234863, 0.21471929550170898
13039, 0.02753319777548313, -0.2111484706401825, 0.037033189088106155, 0.11825612187385559, 0.16457542777061462, -0.012162070721387863, -0.002425017999485135, -0.0031057284213602543, 0.9994999766349792, -0.307064026594162, -1.1806836128234863, 0.21471929550170898, 0.0, 0.0, 0.0, 0, 0, 0, 0, 0, 0, -0.3071546256542206, -1.183142900466919, 0.21521104872226715
13049, 0.028096331283450127, -0.2098359614610672, 0.03727231174707413, 0.07412257790565491, -0.2904781103134155, 0.06125825271010399, -0.002092871582135558, -0.002171134576201439, 1.0023726224899292, -0.3071546256542206, -1.183142900466919, 0.21521104872226715, 0.0, 0.0, 0.0, 0, 0, 0, 0, 0, 0, -0.30724403262138367, -1.185605764389038, 0.21570344269275665
13059, 0.02899288758635521, -0.21176689863204956, 0.038025930523872375, 0.042269349098205566, 0.37249380350112915, 0.015519809909164906, -0.0014919755049049854, -0.0022102505899965763, 1.0003280639648438, -0.30724403262138367, -1.185605764389038, 0.21570344269275665, 0.0, 0.0, 0.0, 0, 0, 0, 0, 0, 0, -0.30733177065849304, -1.1880714893341064, 0.21619710326194763
13069, 0.02945302054286003, -0.20922204852104187, 0.03822239488363266, 0.07545207440853119, -0.4085806906223297, -0.08453136682510376, -0.0016033899737522006, -0.0028392637614160776, 1.0022666454315186, -0.30733177065849304, -1.1880714893341064, 0.21619710326194763, 0.0, 0.0, 0.0, 0, 0, 0, 0, 0, 0, -0.30741751194000244, -1.1905399560928345, 0.2166920155286789
13079, 0.028188852593302727, -0.2094169408082962, 0.037013061344623566, -0.10424959659576416, 0.12412465363740921, -0.17665725946426392, -0.0037656945642083883, -0.002775888890028, 1.0007669925689697, -0.30741751194000244, -1.1905399560928345, 0.2166920155286789, 0.0, 0.0, 0.0, 0, 0, 0, 0, 0, 0, -0.30750203132629395, -1.1930114030838013, 0.2171882539987564
13089, 0.028455916792154312, -0.21089355647563934, 0.03694460168480873, -0.024659879505634308, 0.2533094584941864, 0.047087982296943665, -0.002205760683864355, -0.0032546434085816145, 0.9994086623191833, -0.30750203132629395, -1.1930114030838013, 0.2171882539987564, 0.0, 0.0, 0.0, 0, 0, 0, 0, 0, 0, -0.30758577585220337, -1.1954861879348755, 0.21768535673618317
13099, 0.028673239052295685, -0.2107113003730774, 0.03709353134036064, -0.023166634142398834, 0.03529086709022522, -0.038969799876213074, -9.761897672433406e-05, -0.002246398711577058, 1.000719428062439, -0.30758577585220337, -1.1954861879348755, 0.21768535673618317, 0.0, 0.0, 0.0, 0, 0, 0, 0, 0, 0, -0.30766788125038147, -1.197964072227478, 0.21818281710147858
13109, 0.027413854375481606, -0.21150435507297516, 0.03646165132522583, -0.06498546898365021, 0.04682878404855728, 0.04645216837525368, -0.0005522011779248714, -0.0025762824807316065, 0.9997047781944275, -0.30766788125038147, -1.197964072227478, 0.21818281710147858, 0.0, 0.0, 0.0, 0, 0, 0, 0, 0, 0, -0.30774715542793274, -1.2004449367523193, 0.21868044137954712
13119, 0.027571527287364006, -0.211787149310112, 0.036999210715293884, 0.01842070184648037, 0.32613274455070496, 0.14231640100479126, -0.0020376720931380987, -0.0014209426008164883, 0.9996719360351562, -0.30774715542793274, -1.2004449367523193, 0.21868044137954712, 0.0, 0.0, 0.0, 0, 0, 0, 0, 0, 0, -0.3078234791755676, -1.2029286623001099, 0.21917782723903656
13129, 0.02823791094124317, -0.20976175367832184, 0.03675133362412453, 0.10526259243488312, 0.05276292562484741, -0.012151872739195824, -0.0025454640854150057, -0.0009023517486639321, 0.9995447397232056, -0.3078234791755676, -1.2029286623001099, 0.21917782723903656, 0.0, 0.0, 0.0, 0, 0, 0, 0, 0, 0, -0.3078983426094055, -1.205414056777954, 0.21967485547065735
13139, 0.028206372633576393, -0.20871415734291077, 0.0361003503203392, 0.16258667409420013, -0.1080334410071373, 0.04436498507857323, -0.0020255318377166986, -0.0028576208278536797, 0.9986400008201599, -0.3078983426094055, -1.205414056777954, 0.21967485547065735, 0.0, 0.0, 0.0, 0, 0, 0, 0, 0, 0, -0.30797192454338074, -1.2079012393951416, 0.22017154097557068
13149, 0.028803950175642967, -0.20920728147029877, 0.03659491986036301, 0.0003054977278225124, 0.06456681340932846, 0.19223058223724365, -0.003523054299876094, -0.003316998714581132, 0.9997187256813049, -0.30797192454338074, -1.2079012393951416, 0.22017154097557068, 0.0, 0.0, 0.0, 0, 0, 0, 0, 0, 0, -0.30804407596588135, -1.2103915214538574, 0.22066758573055267
13159, 0.029113532975316048, -0.20768040418624878, 0.03649618849158287, -0.014031083323061466, -0.1636144518852234, -0.07079900056123734, -0.003283389378339052, -0.0041526928544044495, 0.999854326248169, -0.30804407596588135, -1.2103915214538574, 0.22066758573055267, 0.0, 0.0, 0.0, 0, 0, 0, 0, 0, 0, -0.3081158697605133, -1.2128859758377075, 0.2211633026599884
13169, 0.028717512264847755, -0.2081131786108017, 0.03682824596762657, 0.08226509392261505, 0.020348457619547844, 0.017727937549352646, -0.0019195580389350653, -0.0036265929229557514, 1.0011712312698364, -0.3081158697605133, -1.2128859758377075, 0.2211633026599884, 0.0, 0.0, 0.0, 0, 0, 0, 0, 0, 0, -0.30818676948547363, -1.2153847217559814, 0.22165939211845398
13179, 0.029486441984772682, -0.20931145548820496, 0.03681048005819321, 0.01630309224128723, 0.35007888078689575, -0.19650287926197052, -0.00304519385099411, -0.002277957508340478, 1.0006986856460571, -0.30818676948547363, -1.2153847217559814, 0.22165939211845398, 0.0, 0.0, 0.0, 0, 0, 0, 0, 0, 0, -0.3082563281059265, -1.2178875207901, 0.22215616703033447
13189, 0.028732193633913994, -0.21000772714614868, 0.036210354417562485, -0.06769699603319168, 0.220009446144104, 0.10794001817703247, -0.0034876083955168724, -0.002631822833791375, 1.000077247619629, -0.3082563281059265, -1.2178875207901, 0.22215616703033447, 0.0, 0.0, 0.0, 0, 0, 0, 0, 0, 0, -0.30832529067993164, -1.2203936576843262, 0.2226538360118866
13199, 0.028213348239660263, -0.20867735147476196, 0.03658139333128929, -0.006614142097532749, -0.22134412825107574, 0.1230010986328125, -0.001656191423535347, -0.0029939846135675907, 1.0015780925750732, -0.30832529067993164, -1.2203936576843262, 0.2226538360118866, 0.0, 0.0, 0.0, 0, 0, 0, 0, 0, 0, -0.3083936274051666, -1.222902536392212, 0.2231522649526596
13209, 0.027495481073856354, -0.20969736576080322, 0.03731179237365723, -0.006046196445822716, -0.1203899085521698, -0.0009099126909859478, -0.0036490168422460556, -0.0020964902359992266, 0.9991956353187561, -0.3083936274051666, -1.222902536392212, 0.2231522649526596, 0.0, 0.0, 0.0, 0, 0, 0, 0, 0, 0, -0.30846092104911804, -1.225414514541626, 0.22365106642246246
13219, 0.026827318593859673, -0.20799171924591064, 0.03712888062000275, 5.964076262898743e-05, -0.04535473883152008, -0.06364233046770096, -0.002774517284706235, -0.0026303338818252087, 0.9991828799247742, -0.30846092104911804, -1.225414514541626, 0.22365106642246246, 0.0, 0.0, 0.0, 0, 0, 0, 0, 0, 0, -0.3085275888442993, -1.2279295921325684, 0.2241494506597519
13229, 0.027080059051513672, -0.2088189423084259, 0.03645924851298332, -0.0052554612047970295, 0.011018301360309124, -0.10670076310634613, -0.0004427603562362492, -0.003088353667408228, 0.9997615218162537, -0.3085275888442993, -1.2279295921325684, 0.2241494506597519, 0.0, 0.0, 0.0, 0, 0, 0, 0, 0, 0, -0.30859309434890747, -1.2304476499557495, 0.22464698553085327
13239, 0.028115948662161827, -0.21030905842781067, 0.037256453186273575, 0.12965305149555206, 0.16964055597782135, 0.2020566314458847, -0.002776714973151684, -0.0014720618491992354, 0.9990432262420654, -0.30859309434890747, -1.2304476499557495, 0.22464698553085327, 0.0, 0.0, 0.0, 0, 0, 0, 0, 0, 0, -0.3086562752723694, -1.232968807220459, 0.22514407336711884
13249, 0.027059631422162056, -0.21125710010528564, 0.03723965957760811, 0.02306843362748623, -0.07914778590202332, 0.146154522895813, -0.0026926544960588217, -0.0012946261558681726, 1.000949501991272, -0.3086562752723694, -1.232968807220459, 0.22514407336711884, 0.0, 0.0, 0.0, 0, 0, 0, 0, 0, 0, -0.3087179958820343, -1.2354919910430908, 0.22564078867435455
13259, 0.028056005015969276, -0.21093668043613434, 0.03744339942932129, 0.134683758020401, 0.12147287279367447, 0.2555392384529114, -0.0032842671498656273, -0.0018271688604727387, 0.9986168146133423, -0.3087179958820343, -1.2354919910430908, 0.22564078867435455, 0.0, 0.0, 0.0, 0, 0, 0, 0, 0, 0, -0.3087850511074066, -1.238269567489624, 0.22618669271469116
13269, 0.028158627450466156, -0.21001726388931274, 0.03815103694796562, -0.040750566869974136, 0.00030919580603949726, -0.03477773442864418, -0.0018798572709783912, -0.002470950596034527, 0.9987255334854126, -0.3087850511074066, -1.238269567489624, 0.22618669271469116, 0.0, 0.0, 0.0, 0, 0, 0, 0, 0, 0, -0.30884474515914917, -1.2407972812652588, 0.22668211162090302
13279, 0.02821158803999424, -0.20822715759277344, 0.03656775876879692, 0.061463043093681335, -0.338878870010376, -0.19891653954982758, -0.0014869144652038813, -0.0024239469785243273, 0.997929573059082, -0.30884474515914917, -1.2407972812652588, 0.22668211162090302, 0.0, 0.0, 0.0, 0, 0, 0, 0, 0, 0, -0.3089028000831604, -1.2433276176452637, 0.22717568278312683
13289, 0.02898150123655796, -0.20901089906692505, 0.035317447036504745, 0.034864410758018494, 0.024065213277935982, -0.17436155676841736, -0.003353133099153638, -0.0026195121463388205, 0.9992871284484863, -0.3089028000831604, -1.2433276176452637, 0.22717568278312683, 0.0, 0.0, 0.0, 0, 0, 0, 0, 0, 0, -0.3089595437049866, -1.2458608150482178, 0.22766777873039246
13299, 0.027583729475736618, -0.20777085423469543, 0.034295715391635895, -0.20170116424560547, 0.020116537809371948, 0.024046558886766434, -0.002322889631614089, -0.0028948483522981405, 1.0027018785476685, -0.3089595437049866, -1.2458608150482178, 0.22766777873039246, 0.0, 0.0, 0.0, 0, 0, 0, 0, 0, 0, -0.3090156018733978, -1.2483969926834106, 0.22816020250320435
13309, 0.028375158086419106, -0.21030350029468536, 0.03498321399092674, 0.02118276059627533, 0.3865410089492798, 0.15852880477905273, -0.003920413088053465, -0.004442867822945118, 0.9995622038841248, -0.3090156018733978, -1.2483969926834106, 0.22816020250320435, 0.0, 0.0, 0.0, 0, 0, 0, 0, 0, 0, -0.3090711236000061, -1.2509368658065796, 0.2286536544561386
13319, 0.02867680788040161, -0.20866689085960388, 0.03418537974357605, 0.053856901824474335, -0.09522685408592224, -0.035687144845724106, -0.000980742508545518, -0.0018359359819442034, 0.9996200799942017, -0.3090711236000061, -1.2509368658065796, 0.2286536544561386, 0.0, 0.0, 0.0, 0, 0, 0, 0, 0, 0, -0.3091255724430084, -1.2534805536270142, 0.2291473150253296
13329, 0.02832992561161518, -0.20849762856960297, 0.03370407223701477, -0.029937969520688057, 0.07198890298604965, 0.11694546788930893, -0.002449442632496357, -0.0029774170834571123, 0.9987099766731262, -0.3091255724430084, -1.2534805536270142, 0.2291473150253296, 0.0, 0.0, 0.0, 0, 0, 0, 0, 0, 0, -0.30917850136756897, -1.256027340888977, 0.2296401411294937
13339, 0.028254099190235138, -0.2098391354084015, 0.03496161103248596, -0.027946660295128822, 0.14680737257003784, 0.09478872269392014, -0.0017674715491011739, -0.00247990433126688, 0.9981155395507812, -0.30917850136756897, -1.256027340888977, 0.2296401411294937, 0.0, 0.0, 0.0, 0, 0, 0, 0, 0, 0, -0.3092295825481415, -1.2585772275924683, 0.230131596326828
13349, 0.02715819887816906, -0.2123008668422699, 0.03525163233280182, -0.10286719352006912, 0.34898725152015686, -0.24032564461231232, -0.0008739697514101863, -0.002805664436891675, 1.0003219842910767, -0.3092295825481415, -1.2585772275924683, 0.230131596326828, 0.0, 0.0, 0.0, 0, 0, 0, 0, 0, 0, -0.30927857756614685, -1.2611300945281982, 0.23062194883823395
13359, 0.02742375247180462, -0.2119217962026596, 0.03522655367851257, 0.009765537455677986, -0.006562924012541771, 0.24233058094978333, -0.003915400709956884, -0.0025034823920577765, 1.0009740591049194, -0.30927857756614685, -1.2611300945281982, 0.23062194883823395, 0.0, 0.0, 0.0, 0, 0, 0, 0, 0, 0, -0.30932602286338806, -1.2636855840682983, 0.2311123013496399
13369, 0.02719578519463539, -0.212065190076828, 0.034852124750614166, -0.07108151912689209, 0.11153008043766022, -0.2121211290359497, -0.0022627448197454214, -0.004899748135358095, 1.0007942914962769, -0.30932602286338806, -1.2636855840682983, 0.2311123013496399, 0.0, 0.0, 0.0, 0, 0, 0, 0, 0, 0, -0.3093726634979248, -1.266244888305664, 0.23160357773303986
13379, 0.027950290590524673, -0.2106924206018448, 0.03610590100288391, 0.1414240151643753, -0.26394450664520264, 0.10854171216487885, -0.0023211222141981125, -0.0008064205176196992, 1.0007461309432983, -0.3093726634979248, -1.266244888305664, 0.23160357773303986, 0.0, 0.0, 0.0, 0, 0, 0, 0, 0, 0, -0.30941832065582275, -1.2688075304031372, 0.23209582269191742
13389, 0.028397921472787857, -0.2112785130739212, 0.035722799599170685, 0.10730233043432236, 0.09853983670473099, -0.2562168836593628, -0.0026306863874197006, -0.0016133672324940562, 1.0000511407852173, -0.30941832065582275, -1.2688075304031372, 0.23209582269191742, 0.0, 0.0, 0.0, 0, 0, 0, 0, 0, 0, -0.30946269631385803, -1.2713721990585327, 0.2325889617204666
13399, 0.028861772269010544, -0.2104002833366394, 0.03476495295763016, 0.028846360743045807, -0.03548332676291466, -0.16722063720226288, -0.0019546509720385075, -0.0017099912511184812, 0.999576210975647, -0.30946269631385803, -1.2713721990585327, 0.2325889617204666, 0.0, 0.0, 0.0, 0, 0, 0, 0, 0, 0, -0.30950605869293213, -1.2739388942718506, 0.23308216035366058
13409, 0.028543788939714432, -0.21040965616703033, 0.034257225692272186, -0.12372282892465591, -0.12263792008161545, 0.01694476790726185, -0.0014710043324157596, -0.0014729169197380543, 1.0007858276367188, -0.30950605869293213, -1.2739388942718506, 0.23308216035366058, 0.0, 0.0, 0.0, 0, 0, 0, 0, 0, 0, -0.30954766273498535, -1.2765076160430908, 0.23357518017292023
13419, 0.02840978279709816, -0.21269942820072174, 0.03399251028895378, -0.07192686945199966, 0.3684179484844208, -0.04944881796836853, -0.0030397684313356876, -0.0040670400485396385, 1.0025169849395752, -0.30954766273498535, -1.2765076160430908, 0.23357518017292023, 0.0, 0.0, 0.0, 0, 0, 0, 0, 0, 0, -0.30958738923072815, -1.2790793180465698, 0.23406949639320374
13429, 0.02756108157336712, -0.21243523061275482, 0.033731989562511444, -0.265190452337265, -0.1904812455177307, -0.14184822142124176, -0.003826070809736848, -0.003228242276236415, 1.000349760055542, -0.30958738923072815, -1.2790793180465698, 0.23406949639320374, 0.0, 0.0, 0.0, 0, 0, 0, 0, 0, 0, -0.3096265494823456, -1.2816548347473145, 0.23456531763076782
13439, 0.02825448289513588, -0.21316936612129211, 0.03451047092676163, 0.11159700155258179, 0.16829854249954224, -0.11888826638460159, -0.0012289269361644983, -0.0023862191010266542, 1.0009081363677979, -0.3096265494823456, -1.2816548347473145, 0.23456531763076782, 0.0, 0.0, 0.0, 0, 0, 0, 0, 0, 0, -0.30966466665267944, -1.2842340469360352, 0.23506207764148712
13449, 0.027394704520702362, -0.210505872964859, 0.03238263353705406, -0.22931861877441406, -0.3824452757835388, -0.3064422905445099, -0.0011772895231842995, -0.0006845966563560069, 1.0012298822402954, -0.30966466665267944, -1.2842340469360352, 0.23506207764148712, 0.0, 0.0, 0.0, 0, 0, 0, 0, 0, 0, -0.30970025062561035, -1.2868154048919678, 0.2355598509311676
13459, 0.02735084295272827, -0.2109665721654892, 0.03199527785181999, -0.05693840980529785, 0.23508208990097046, 0.05200880020856857, -0.003668205812573433, -0.00030069725471548736, 0.9989760518074036, -0.30970025062561035, -1.2868154048919678, 0.2355598509311676, 0.0, 0.0, 0.0, 0, 0, 0, 0, 0, 0, -0.30973413586616516, -1.2893977165222168, 0.2360578030347824
13469, 0.026676105335354805, -0.21206797659397125, 0.03160370886325836, 0.028688421472907066, 0.03203365206718445, -0.07443661987781525, -0.004750283434987068, -0.0024535669945180416, 1.0014554262161255, -0.30973413586616516, -1.2893977165222168, 0.2360578030347824, 0.0, 0.0, 0.0, 0, 0, 0, 0, 0, 0, -0.30976834893226624, -1.29198157787323, 0.2365560680627823
13479, 0.02647663839161396, -0.21250604093074799, 0.03155096247792244, 0.0005304564838297665, 0.034875787794589996, 0.07445734739303589, -0.0014188141794875264, -0.0023472041357308626, 1.0006005764007568, -0.30976834893226624, -1.29198157787323, 0.2365560680627823, 0.0, 0.0, 0.0, 0, 0, 0, 0, 0, 0, -0.30980250239372253, -1.2945681810379028, 0.23705510795116425
13489, 0.027335302904248238, -0.21212273836135864, 0.03171475604176521, 0.1263505220413208, -0.22064091265201569, -0.002893300959840417, 0.00010255408415105194, -0.0035023055970668793, 1.0004563331604004, -0.30980250239372253, -1.2945681810379028, 0.23705510795116425, 0.0, 0.0, 0.0, 0, 0, 0, 0, 0, 0, -0.30983415246009827, -1.2971582412719727, 0.2375548779964447
13499, 0.026655107736587524, -0.2131412774324417, 0.0317186564207077, -0.11557473242282867, 0.2459566742181778, -0.1267663687467575, -0.0047825174406170845, -0.0030105947516858578, 0.9995658993721008, -0.30983415246009827, -1.2971582412719727, 0.2375548779964447, 0.0, 0.0, 0.0, 0, 0, 0, 0, 0, 0, -0.3098638653755188, -1.2997519969940186, 0.23805493116378784
13509, 0.026910938322544098, -0.21356840431690216, 0.03052162565290928, 0.02928597666323185, 0.05463161692023277, -0.07879165560007095, -0.004675592761486769, -0.0026910160668194294, 0.9999356865882874, -0.3098638653755188, -1.2997519969940186, 0.23805493116378784, 0.0, 0.0, 0.0, 0, 0, 0, 0, 0, 0, -0.30989402532577515, -1.3023490905761719, 0.2385547012090683
13519, 0.027249829843640327, -0.21390078961849213, 0.030071059241890907, 0.10719998180866241, 0.1300347000360489, -0.08591941744089127, -0.001602413016371429, -0.0027272533625364304, 1.003578782081604, -0.30989402532577515, -1.3023490905761719, 0.2385547012090683, 0.0, 0.0, 0.0, 0, 0, 0, 0, 0, 0, -0.30992406606674194, -1.304949164390564, 0.2390557825565338
13529, 0.026967454701662064, -0.21456554532051086, 0.03016757406294346, -0.09310491383075714, -0.03943665325641632, 0.13415531814098358, -0.00033477236866019666, -0.0018079434521496296, 1.0023601055145264, -0.30992406606674194, -1.304949164390564, 0.2390557825565338, 0.0, 0.0, 0.0, 0, 0, 0, 0, 0, 0, -0.3099519908428192, -1.3075519800186157, 0.23955965042114258
13539, 0.02685309760272503, -0.21389059722423553, 0.03028595820069313, 0.08976283669471741, -0.015486929565668106, -0.13745439052581787, -0.002134826499968767, -0.005184396635740995, 1.0004225969314575, -0.3099519908428192, -1.3075519800186157, 0.23955965042114258, 0.0, 0.0, 0.0, 0, 0, 0, 0, 0, 0, -0.3099772036075592, -1.310158371925354, 0.24006544053554535
13549, 0.025986753404140472, -0.21551479399204254, 0.029333757236599922, -0.1386268138885498, 0.28798797726631165, -0.2142113894224167, -0.0020323870703577995, -0.00198204698972404, 1.0012004375457764, -0.3099772036075592, -1.310158371925354, 0.24006544053554535, 0.0, 0.0, 0.0, 0, 0, 0, 0, 0, 0, -0.31000056862831116, -1.312768816947937, 0.24057209491729736
13559, 0.026014253497123718, -0.2156430333852768, 0.029649466276168823, -0.12241938710212708, 0.10341772437095642, 0.0646289810538292, -0.0019512367434799671, -0.004479653667658567, 0.9990943670272827, -0.31000056862831116, -1.312768816947937, 0.24057209491729736, 0.0, 0.0, 0.0, 0, 0, 0, 0, 0, 0, -0.3100222647190094, -1.315382957458496, 0.2410789430141449
13569, 0.026376640424132347, -0.21625511348247528, 0.030132457613945007, 0.07661455124616623, 0.16807712614536285, 0.035218361765146255, 0.0001615777873666957, -0.003734296653419733, 1.001867651939392, -0.3100222647190094, -1.315382957458496, 0.2410789430141449, 0.0, 0.0, 0.0, 0, 0, 0, 0, 0, 0, -0.31004130840301514, -1.318001389503479, 0.24158640205860138
