timeTick, roll, pitch, yaw, gyroX, gyroY, gyroZ, accX, accY, accZ, stateX, stateY, stateZ, target_x, target_y, target_z, otX, otY, otZ, otRoll, otPitch, otYaw, kalX, kalY, kalZ
12135, 0.09430772811174393, -0.1442078799009323, 0.08934669941663742, 0, 0, 0, 0, 0, 0, 0, 0, 0, 0, 0, 0, 0, 0, 0, 0, 0, 0, 0, 0, 0
12145, 0.09569764882326126, -0.1441938877105713, 0.08786879479885101, -0.11141442507505417, -0.04895761236548424, 0.04998086392879486, -0.0061368378810584545, -0.0033453290816396475, 1.001709222793579, -0.6333742737770081, -1.4201899766921997, 0.06215789169073105, 0.0, 0.0, 0.0, 0, 0, 0, 0, 0, 0, -0.6333742737770081, -1.4201899766921997, 0.06215789169073105
12155, 0.0957147628068924, -0.14369206130504608, 0.08848452568054199, 0.05311620607972145, 0.13037876784801483, 0.18611066043376923, -0.0021714100148528814, -0.0032172277569770813, 1.0013751983642578, -0.6344374418258667, -1.4235063791275024, 0.06230688840150833, 0.0, 0.0, 0.0, 0, 0, 0, 0, 0, 0, -0.6344374418258667, -1.4235063791275024, 0.06230688840150833
12165, 0.09630723297595978, -0.1432945430278778, 0.08877184987068176, -0.09378981590270996, 0.017945628613233566, -0.18027080595493317, -0.002316076774150133, -0.005053156521171331, 1.0001331567764282, -0.6355019211769104, -1.4268277883529663, 0.06245698779821396, 0.0, 0.0, 0.0, 0, 0, 0, 0, 0, 0, -0.6355019211769104, -1.4268277883529663, 0.06245698779821396
12175, 0.09550324082374573, -0.14470763504505157, 0.08690905570983887, 0.015108401887118816, 0.06470498442649841, -0.0020425289403647184, -0.003396468237042427, -0.0032409559935331345, 1.0002968311309814, -0.6365662217140198, -1.4301549196243286, 0.06260769814252853, 0.0, 0.0, 0.0, 0, 0, 0, 0, 0, 0, -0.6365662217140198, -1.4301549196243286, 0.06260769814252853
12185, 0.09437548369169235, -0.14647522568702698, 0.08742018789052963, 0.19325895607471466, -0.1733570694923401, 0.18785496056079865, -0.002070655347779393, -0.0019530316349118948, 0.9995179772377014, -0.6376308798789978, -1.4334875345230103, 0.06275854259729385, 0.0, 0.0, 0.0, 0, 0, 0, 0, 0, 0, -0.6376308798789978, -1.4334875345230103, 0.06275854259729385
12195, 0.0949501320719719, -0.14506541192531586, 0.08831120282411575, -0.26900574564933777, 0.31043586134910583, -0.1546202152967453, -0.002982297446578741, -0.0007199539104476571, 0.9997875094413757, -0.6386956572532654, -1.4368239641189575, 0.06290927529335022, 0.0, 0.0, 0.0, 0, 0, 0, 0, 0, 0, -0.6386956572532654, -1.4368239641189575, 0.06290927529335022
12205, 0.09373047202825546, -0.14662300050258636, 0.08683165162801743, 0.1317954957485199, 0.05566602572798729, -0.0018983627669513226, -0.00402854522690177, -0.0041224039159715176, 1.0012553930282593, -0.6397605538368225, -1.4401636123657227, 0.06305979192256927, 0.0, 0.0, 0.0, 0, 0, 0, 0, 0, 0, -0.6397605538368225, -1.4401636123657227, 0.06305979192256927
12215, 0.094508096575737, -0.14789322018623352, 0.08638332039117813, -0.00554032064974308, -0.037768229842185974, -0.2266368716955185, -0.004876339342445135, -0.0017938751261681318, 1.0012305974960327, -0.6408264636993408, -1.443507432937622, 0.06321090459823608, 0.0, 0.0, 0.0, 0, 0, 0, 0, 0, 0, -0.6408264636993408, -1.443507432937622, 0.06321090459823608
12225, 0.09477338194847107, -0.14796242117881775, 0.08592317998409271, -0.04488977789878845, 0.2698368430137634, 0.11598984152078629, -0.003989431541413069, -0.003997836261987686, 1.0000110864639282, -0.6418943405151367, -1.4468557834625244, 0.06336306780576706, 0.0, 0.0, 0.0, 0, 0, 0, 0, 0, 0, -0.6418943405151367, -1.4468557834625244, 0.06336306780576706
12235, 0.09519314765930176, -0.15004773437976837, 0.08631841093301773, 0.1004076898097992, 0.3548085689544678, 0.13736356794834137, -0.0015771579928696156, -0.004781101364642382, 1.0003905296325684, -0.6429636478424072, -1.4502090215682983, 0.06351567804813385, 0.0, 0.0, 0.0, 0, 0, 0, 0, 0, 0, -0.6429636478424072, -1.4502090215682983, 0.06351567804813385
12245, 0.09560804069042206, -0.15258365869522095, 0.08776134252548218, -0.11108339577913284, 0.022692609578371048, 0.1266694962978363, -0.0038353202398866415, -0.0017944072606042027, 0.9994149804115295, -0.6440328359603882, -1.4535679817199707, 0.06366845220327377, 0.0, 0.0, 0.0, 0, 0, 0, 0, 0, 0, -0.6440328359603882, -1.4535679817199707, 0.06366845220327377
12255, 0.09532556682825089, -0.15165013074874878, 0.087452232837677, 0.019400732591748238, -0.29683879017829895, 0.013129448518157005, -0.003593160305172205, -0.005006600171327591, 1.0002704858779907, -0.6451021432876587, -1.456931710243225, 0.06382103264331818, 0.0, 0.0, 0.0, 0, 0, 0, 0, 0, 0, -0.6451021432876587, -1.456931710243225, 0.06382103264331818
12265, 0.09601012617349625, -0.14999857544898987, 0.08685186505317688, 0.23504149913787842, 0.004467352759093046, 0.030224278569221497, -0.0014445243868976831, -0.0024383394047617912, 0.9996534585952759, -0.6461721062660217, -1.460300326347351, 0.06397346407175064, 0.0, 0.0, 0.0, 0, 0, 0, 0, 0, 0, -0.6461721062660217, -1.460300326347351, 0.06397346407175064
12275, 0.09752659499645233, -0.1485825777053833, 0.0867861658334732, 0.006343364249914885, -0.04063346982002258, 0.003013410372659564, -0.0028392404783517122, -0.0031002615578472614, 0.999886155128479, -0.6472419500350952, -1.4636741876602173, 0.06412599980831146, 0.0, 0.0, 0.0, 0, 0, 0, 0, 0, 0, -0.6472419500350952, -1.4636741876602173, 0.06412599980831146
12285, 0.09822076559066772, -0.14868780970573425, 0.08596833795309067, 0.1351567655801773, -0.2807016670703888, 0.10679526627063751, -0.0033708885312080383, -0.00380508229136467, 1.0007603168487549, -0.6483116149902344, -1.467052698135376, 0.06427852064371109, 0.0, 0.0, 0.0, 0, 0, 0, 0, 0, 0, -0.6483116149902344, -1.467052698135376, 0.06427852064371109
12295, 0.09800831228494644, -0.1462702751159668, 0.08611831068992615, 0.09390423446893692, 0.24510124325752258, 0.16286639869213104, -0.0032211849465966225, -0.002435273490846157, 1.0007878541946411, -0.6493819355964661, -1.4704363346099854, 0.06443151831626892, 0.0, 0.0, 0.0, 0, 0, 0, 0, 0, 0, -0.6493819355964661, -1.4704363346099854, 0.06443151831626892
12305, 0.09876585751771927, -0.1466885656118393, 0.08591513335704803, -0.1999354213476181, -0.16911941766738892, -0.05237411707639694, -0.003561856225132942, -0.003209787653759122, 1.0012556314468384, -0.6504529118537903, -1.4738247394561768, 0.06458526849746704, 0.0, 0.0, 0.0, 0, 0, 0, 0, 0, 0, -0.6504529118537903, -1.4738247394561768, 0.06458526849746704
12315, 0.09791494160890579, -0.14470908045768738, 0.08678938448429108, -0.017362957820296288, 0.16720952093601227, -0.1062447652220726, -0.0028542540967464447, -0.0016945393290370703, 1.003002405166626, -0.6515247225761414, -1.477217435836792, 0.06474022567272186, 0.0, 0.0, 0.0, 0, 0, 0, 0, 0, 0, -0.6515247225761414, -1.477217435836792, 0.06474022567272186
12325, 0.09775695204734802, -0.14609259366989136, 0.0867656022310257, -0.07257137447595596, 0.11588051170110703, -0.0011414973996579647, -0.002298496663570404, -0.001582225551828742, 0.9991426467895508, -0.6525972485542297, -1.4806139469146729, 0.0648970678448677, 0.0, 0.0, 0.0, 0, 0, 0, 0, 0, 0, -0.6525972485542297, -1.4806139469146729, 0.0648970678448677
12335, 0.0986393466591835, -0.1472821831703186, 0.08724625408649445, 0.05115853622555733, -0.20685048401355743, -0.27349743247032166, -0.0035025684628635645, -0.003400285029783845, 1.0004490613937378, -0.6536697745323181, -1.4840140342712402, 0.06505453586578369, 0.0, 0.0, 0.0, 0, 0, 0, 0, 0, 0, -0.6536697745323181, -1.4840140342712402, 0.06505453586578369
12345, 0.09867360442876816, -0.14563296735286713, 0.08660963922739029, 0.0005634952685795724, -0.05047965049743652, 0.03834526985883713, -0.003041954478248954, -0.003807949833571911, 1.0027459859848022, -0.6547425389289856, -1.4874184131622314, 0.06521210819482803, 0.0, 0.0, 0.0, 0, 0, 0, 0, 0, 0, -0.6547425389289856, -1.4874184131622314, 0.06521210819482803
12355, 0.09885954856872559, -0.14565099775791168, 0.08680135756731033, 0.30038660764694214, 0.18089920282363892, 0.09542090445756912, -0.0019717782270163298, -0.0032487427815794945, 1.0011712312698364, -0.6558157801628113, -1.490828037261963, 0.06537125259637833, 0.0, 0.0, 0.0, 0, 0, 0, 0, 0, 0, -0.6558157801628113, -1.490828037261963, 0.06537125259637833
12365, 0.10033940523862839, -0.1447526514530182, 0.08693259209394455, 0.005259208846837282, 0.08744702488183975, -0.36554157733917236, -0.0012007724726572633, -0.0033146038185805082, 1.001434564590454, -0.6568886637687683, -1.4942426681518555, 0.06553211063146591, 0.0, 0.0, 0.0, 0, 0, 0, 0, 0, 0, -0.6568886637687683, -1.4942426681518555, 0.06553211063146591
12375, 0.10016278922557831, -0.1440041959285736, 0.0860132947564125, -0.13302195072174072, 0.0821378231048584, 0.04229843616485596, -0.0017442124662920833, -0.002692864276468754, 1.002092719078064, -0.6579605340957642, -1.4976623058319092, 0.0656944289803505, 0.0, 0.0, 0.0, 0, 0, 0, 0, 0, 0, -0.6579605340957642, -1.4976623058319092, 0.0656944289803505
12385, 0.09941132366657257, -0.14492490887641907, 0.08684255182743073, 0.03712308034300804, 0.25010812282562256, -0.05043061450123787, -0.002012197393923998, -0.0018073093378916383, 1.0000128746032715, -0.6590312719345093, -1.5010864734649658, 0.06585856527090073, 0.0, 0.0, 0.0, 0, 0, 0, 0, 0, 0, -0.6590312719345093, -1.5010864734649658, 0.06585856527090073
12395, 0.09942357242107391, -0.14517870545387268, 0.08654602617025375, -0.08338171243667603, 0.12744279205799103, 0.13996240496635437, -0.002942215884104371, -0.003228632267564535, 1.0002440214157104, -0.6601013541221619, -1.504514455795288, 0.06602370738983154, 0.0, 0.0, 0.0, 0, 0, 0, 0, 0, 0, -0.6601013541221619, -1.504514455795288, 0.06602370738983154
12405, 0.09890683740377426, -0.14682650566101074, 0.08742415904998779, 0.09930766373872757, 0.10203707218170166, 0.047771651297807693, -0.0014112076023593545, -0.0035088779404759407, 1.0007965564727783, -0.6611713171005249, -1.5079468488693237, 0.06618908792734146, 0.0, 0.0, 0.0, 0, 0, 0, 0, 0, 0, -0.6611713171005249, -1.5079468488693237, 0.06618908792734146
12415, 0.09905801713466644, -0.14777052402496338, 0.08738142997026443, 0.07022283971309662, 0.04523365572094917, -0.027415359392762184, -0.0027649349067360163, -0.0048253596760332584, 0.9998770356178284, -0.6622408032417297, -1.5113844871520996, 0.06635474413633347, 0.0, 0.0, 0.0, 0, 0, 0, 0, 0, 0, -0.6622408032417297, -1.5113844871520996, 0.06635474413633347
12425, 0.09961514174938202, -0.14677685499191284, 0.08620890229940414, 0.09290098398923874, -0.2131621390581131, -0.227393239736557, -0.003641305025666952, -0.00123280577827245, 1.001442313194275, -0.6633100509643555, -1.5148276090621948, 0.06652045994997025, 0.0, 0.0, 0.0, 0, 0, 0, 0, 0, 0, -0.6633100509643555, -1.5148276090621948, 0.06652045994997025
12435, 0.09910818189382553, -0.1492530256509781, 0.08702703565359116, -0.046844273805618286, 0.19173938035964966, 0.21986669301986694, -0.0032585738226771355, -0.0009032545494847, 1.0001319646835327, -0.6643801331520081, -1.5182751417160034, 0.0666867047548294, 0.0, 0.0, 0.0, 0, 0, 0, 0, 0, 0, -0.6643801331520081, -1.5182751417160034, 0.0666867047548294
12445, 0.09936806559562683, -0.14877228438854218, 0.08602523058652878, 0.018377363681793213, -0.19798283278942108, -0.1492767333984375, -0.0026821219362318516, -0.0026988228783011436, 1.0002384185791016, -0.6654510498046875, -1.5217257738113403, 0.06685362756252289, 0.0, 0.0, 0.0, 0, 0, 0, 0, 0, 0, -0.6654510498046875, -1.5217257738113403, 0.06685362756252289
12455, 0.09923748672008514, -0.14865897595882416, 0.08671389520168304, 0.011679230257868767, -0.2630029320716858, 0.11461252719163895, -0.003832560498267412, -0.0020077787339687347, 1.0021960735321045, -0.6665226221084595, -1.5251799821853638, 0.06702086329460144, 0.0, 0.0, 0.0, 0, 0, 0, 0, 0, 0, -0.6665226221084595, -1.5251799821853638, 0.06702086329460144
12465, 0.09807667881250381, -0.15157733857631683, 0.08659715950489044, -0.24966903030872345, 0.25543853640556335, -0.10011007636785507, -0.003865889273583889, -0.0036374940536916256, 0.9997743964195251, -0.6675949096679688, -1.528638243675232, 0.06718917936086655, 0.0, 0.0, 0.0, 0, 0, 0, 0, 0, 0, -0.6675949096679688, -1.528638243675232, 0.06718917936086655
12475, 0.09684629738330841, -0.15194033086299896, 0.08630310744047165, -0.2204706072807312, 0.17948266863822937, 0.0236989576369524, -0.003808900248259306, -0.004346450790762901, 0.9979254007339478, -0.6686683297157288, -1.5321011543273926, 0.06735816597938538, 0.0, 0.0, 0.0, 0, 0, 0, 0, 0, 0, -0.6686683297157288, -1.5321011543273926, 0.06735816597938538
12485, 0.09698305279016495, -0.15164268016815186, 0.08631666749715805, 0.0006728713633492589, 0.12034183740615845, 0.15598630905151367, -0.002263796515762806, -0.0021048879716545343, 0.9982326626777649, -0.669743001461029, -1.5355695486068726, 0.06752597540616989, 0.0, 0.0, 0.0, 0, 0, 0, 0, 0, 0, -0.669743001461029, -1.5355695486068726, 0.06752597540616989
12495, 0.09618986397981644, -0.1507902443408966, 0.08747522532939911, -0.19716225564479828, -0.14484098553657532, 0.20165282487869263, -0.0015454486710950732, -0.0015989027451723814, 0.9998935461044312, -0.6708179712295532, -1.539042592048645, 0.06769196689128876, 0.0, 0.0, 0.0, 0, 0, 0, 0, 0, 0, -0.6708179712295532, -1.539042592048645, 0.06769196689128876
12505, 0.09618986397981644, -0.1507902443408966, 0.08747522532939911, -0.031351566314697266, 0.07802079617977142, 0.058898355811834335, -0.003330450737848878, -0.0031103806104511023, 0.9994188547134399, -0.6718922853469849, -1.5425190925598145, 0.06785696744918823, 0.0, 0.0, 0.0, 0, 0, 0, 0, 0, 0, -0.6718922853469849, -1.5425190925598145, 0.06785696744918823
12515, 0.09661611914634705, -0.15161636471748352, 0.08805515617132187, 0.04237614944577217, 0.07113976776599884, 0.05927002802491188, -0.0028373815584927797, -0.004093951545655727, 1.0004808902740479, -0.673073947429657, -1.5463480949401855, 0.06803819537162781, 0.0, 0.0, 0.0, 0, 0, 0, 0, 0, 0, -0.673073947429657, -1.5463480949401855, 0.06803819537162781
12525, 0.09690779447555542, -0.15161427855491638, 0.08866637945175171, -0.059096261858940125, 0.4182307720184326, -0.13802365958690643, -0.004129426553845406, -0.002009877236559987, 0.9999386072158813, -0.6741487979888916, -1.5498343706130981, 0.06820320338010788, 0.0, 0.0, 0.0, 0, 0, 0, 0, 0, 0, -0.6741487979888916, -1.5498343706130981, 0.06820320338010788
12535, 0.09649945050477982, -0.15361203253269196, 0.08775832504034042, 0.0769503116607666, 0.06898133456707001, 0.08993010967969894, -0.0013489228440448642, -0.003353618085384369, 0.9992669224739075, -0.675224244594574, -1.5533252954483032, 0.06836840510368347, 0.0, 0.0, 0.0, 0, 0, 0, 0, 0, 0, -0.675224244594574, -1.5533252954483032, 0.06836840510368347
12545, 0.09689899533987045, -0.15347222983837128, 0.08857566863298416, -0.11859201639890671, 0.15585602819919586, 0.1200760155916214, -0.0020337472669780254, -0.004561663139611483, 0.9998753070831299, -0.6764068603515625, -1.5571703910827637, 0.06854962557554245, 0.0, 0.0, 0.0, 0, 0, 0, 0, 0, 0, -0.6764068603515625, -1.5571703910827637, 0.06854962557554245
12555, 0.09658536314964294, -0.15532372891902924, 0.0891592800617218, 0.011120789684355259, 0.28269851207733154, 0.05337618291378021, -0.003194985678419471, -0.004306300543248653, 0.9982502460479736, -0.6774810552597046, -1.5606719255447388, 0.06871369481086731, 0.0, 0.0, 0.0, 0, 0, 0, 0, 0, 0, -0.6774810552597046, -1.5606719255447388, 0.06871369481086731
12565, 0.09559169411659241, -0.1563854068517685, 0.09019745886325836, 0.098189577460289, -0.08460374176502228, -0.03454736992716789, -0.0031793443486094475, -0.0014748976100236177, 1.0009318590164185, -0.678555428981781, -1.5641789436340332, 0.06887701153755188, 0.0, 0.0, 0.0, 0, 0, 0, 0, 0, 0, -0.678555428981781, -1.5641789436340332, 0.06887701153755188
12575, 0.09531726688146591, -0.15869401395320892, 0.0894395187497139, -0.15747720003128052, 0.19453008472919464, 0.04468836635351181, -0.0004103297251276672, -0.0009802517015486956, 0.9995231032371521, -0.6796303391456604, -1.5676896572113037, 0.06904011964797974, 0.0, 0.0, 0.0, 0, 0, 0, 0, 0, 0, -0.6796303391456604, -1.5676896572113037, 0.06904011964797974
12585, 0.09506373852491379, -0.15996189415454865, 0.09030083566904068, 0.183266744017601, 0.15199793875217438, 0.2271878570318222, -0.0009671359439380467, -0.0032506235875189304, 0.9989455938339233, -0.6807039976119995, -1.571203589439392, 0.06920302659273148, 0.0, 0.0, 0.0, 0, 0, 0, 0, 0, 0, -0.6807039976119995, -1.571203589439392, 0.06920302659273148
12595, 0.09588303416967392, -0.16026908159255981, 0.09091278910636902, 0.17112836241722107, -0.35109850764274597, -0.033157121390104294, -0.0026747952215373516, -0.004576470237225294, 0.999692440032959, -0.6817758083343506, -1.5747219324111938, 0.0693652555346489, 0.0, 0.0, 0.0, 0, 0, 0, 0, 0, 0, -0.6817758083343506, -1.5747219324111938, 0.0693652555346489
12605, 0.09736917912960052, -0.1585967242717743, 0.09201045334339142, -0.052625250071287155, 0.06780952960252762, -0.10657737404108047, -0.004587335977703333, -0.0039617451839149, 1.0003598928451538, -0.6828474998474121, -1.5782461166381836, 0.06952685862779617, 0.0, 0.0, 0.0, 0, 0, 0, 0, 0, 0, -0.6828474998474121, -1.5782461166381836, 0.06952685862779617
12615, 0.09834790229797363, -0.15821467339992523, 0.0917539894580841, 0.2321387380361557, -0.22010600566864014, 0.05376479774713516, -0.0013090214924886823, -0.002083179773762822, 1.0016323328018188, -0.6839196681976318, -1.5817759037017822, 0.06968867033720016, 0.0, 0.0, 0.0, 0, 0, 0, 0, 0, 0, -0.6839196681976318, -1.5817759037017822, 0.06968867033720016
12625, 0.09917515516281128, -0.1567802131175995, 0.09041709452867508, 0.11502358317375183, -0.002774488413706422, 0.12997612357139587, -0.0022256914526224136, -0.0039253695867955685, 1.003116250038147, -0.6849915981292725, -1.5853102207183838, 0.06985205411911011, 0.0, 0.0, 0.0, 0, 0, 0, 0, 0, 0, -0.6849915981292725, -1.5853102207183838, 0.06985205411911011
12635, 0.09900829195976257, -0.15828002989292145, 0.09078186750411987, -0.035151150077581406, -0.1901659220457077, -0.08920596539974213, -0.001212564529851079, -0.003912400454282761, 0.998553991317749, -0.686062753200531, -1.5888495445251465, 0.0700170174241066, 0.0, 0.0, 0.0, 0, 0, 0, 0, 0, 0, -0.686062753200531, -1.5888495445251465, 0.0700170174241066
12645, 0.09946612268686295, -0.15578243136405945, 0.09127359092235565, 0.14243707060813904, -0.16680684685707092, 0.056709058582782745, -0.0013872344279661775, -0.003989886026829481, 0.99847811460495, -0.6871325969696045, -1.592394471168518, 0.07018165290355682, 0.0, 0.0, 0.0, 0, 0, 0, 0, 0, 0, -0.6871325969696045, -1.592394471168518, 0.07018165290355682
12655, 0.10070852935314178, -0.1545899361371994, 0.09091068059206009, 0.09442403167486191, 0.05044807866215706, -0.14336706697940826, -0.0021938232239335775, -0.002174493856728077, 0.9979739189147949, -0.6882010698318481, -1.595944881439209, 0.07034467160701752, 0.0, 0.0, 0.0, 0, 0, 0, 0, 0, 0, -0.6882010698318481, -1.595944881439209, 0.07034467160701752
12665, 0.1005602478981018, -0.1544199436903, 0.09134067595005035, 0.03518969193100929, 0.21744009852409363, 0.1318846493959427, -0.0024648034013807774, -0.0021711860317736864, 0.9985780119895935, -0.6892688274383545, -1.5994997024536133, 0.07050621509552002, 0.0, 0.0, 0.0, 0, 0, 0, 0, 0, 0, -0.6892688274383545, -1.5994997024536133, 0.07050621509552002
12675, 0.09901438653469086, -0.15402500331401825, 0.09170994162559509, -0.14811256527900696, -0.2921748757362366, -0.017154932022094727, -0.0032559423707425594, 0.0002700553450267762, 1.0022140741348267, -0.6903364062309265, -1.6030579805374146, 0.07066687196493149, 0.0, 0.0, 0.0, 0, 0, 0, 0, 0, 0, -0.6903364062309265, -1.6030579805374146, 0.07066687196493149
12685, 0.09927797317504883, -0.15384916961193085, 0.09214765578508377, 0.14096595346927643, 0.011644765734672546, -0.10599241405725479, -0.004163133911788464, -0.003442866960540414, 1.000128149986267, -0.6914045214653015, -1.606619119644165, 0.07082818448543549, 0.0, 0.0, 0.0, 0, 0, 0, 0, 0, 0, -0.6914045214653015, -1.606619119644165, 0.07082818448543549
12695, 0.09926503151655197, -0.15324227511882782, 0.0910823792219162, -0.07961063832044601, -0.055013589560985565, 0.004261526744812727, -0.002537841210141778, -0.0052569652907550335, 1.001286268234253, -0.6924733519554138, -1.6101844310760498, 0.07099059969186783, 0.0, 0.0, 0.0, 0, 0, 0, 0, 0, 0, -0.6924733519554138, -1.6101844310760498, 0.07099059969186783
12705, 0.10035067796707153, -0.15222714841365814, 0.09195154905319214, 0.1773180216550827, 0.012132653035223484, 0.005559458862990141, -0.0017021744279190898, -0.005028790328651667, 1.0001320838928223, -0.6935425400733948, -1.6137560606002808, 0.07115357369184494, 0.0, 0.0, 0.0, 0, 0, 0, 0, 0, 0, -0.6935425400733948, -1.6137560606002808, 0.07115357369184494
12715, 0.10163557529449463, -0.15104414522647858, 0.09156002849340439, 0.16786253452301025, -0.15130598843097687, -0.15217654407024384, -0.0024074497632682323, -0.004578679334372282, 0.9979095458984375, -0.6946113705635071, -1.6173341274261475, 0.07131652534008026, 0.0, 0.0, 0.0, 0, 0, 0, 0, 0, 0, -0.6946113705635071, -1.6173341274261475, 0.07131652534008026
12725, 0.10195132344961166, -0.15047353506088257, 0.09060891717672348, 0.030943123623728752, 0.263712614774704, 0.03996921330690384, -0.0016930392012000084, -0.0035356420557945967, 0.9975347518920898, -0.6956796050071716, -1.6209182739257812, 0.0714779868721962, 0.0, 0.0, 0.0, 0, 0, 0, 0, 0, 0, -0.6956796050071716, -1.6209182739257812, 0.0714779868721962
12735, 0.10256855934858322, -0.15252715349197388, 0.09191187471151352, 0.018297629430890083, 0.12437043339014053, 0.145621657371521, -0.0016014431603252888, -0.0015837571118026972, 0.9988522529602051, -0.6967470049858093, -1.6245077848434448, 0.07163732498884201, 0.0, 0.0, 0.0, 0, 0, 0, 0, 0, 0, -0.6967470049858093, -1.6245077848434448, 0.07163732498884201
12745, 0.10156029462814331, -0.15270845592021942, 0.09167925268411636, -0.10925067216157913, 0.020322667434811592, -0.052226606756448746, -0.0008743071812205017, -0.0030062347650527954, 1.0013810396194458, -0.6978133320808411, -1.6281015872955322, 0.07179564982652664, 0.0, 0.0, 0.0, 0, 0, 0, 0, 0, 0, -0.6978133320808411, -1.6281015872955322, 0.07179564982652664
12755, 0.10178398340940475, -0.15175046026706696, 0.09091203659772873, -0.18745172023773193, 0.035483889281749725, -0.13752037286758423, -0.0012627397663891315, -0.0024706078693270683, 1.001007080078125, -0.698878288269043, -1.631699562072754, 0.07195442169904709, 0.0, 0.0, 0.0, 0, 0, 0, 0, 0, 0, -0.698878288269043, -1.631699562072754, 0.07195442169904709
12765, 0.10119554400444031, -0.15281814336776733, 0.09061853587627411, 0.08809790015220642, 0.14922764897346497, -0.09216843545436859, -0.001252431538887322, -0.001106377923861146, 0.997323215007782, -0.6999416947364807, -1.6353013515472412, 0.07211364060640335, 0.0, 0.0, 0.0, 0, 0, 0, 0, 0, 0, -0.6999416947364807, -1.6353013515472412, 0.07211364060640335
12775, 0.10204456746578217, -0.15387091040611267, 0.08965135365724564, 0.13393506407737732, -0.07250402867794037, -0.14787349104881287, -0.0024350921157747507, -0.00409531407058239, 0.9991797804832458, -0.7010043859481812, -1.638906717300415, 0.07227154821157455, 0.0, 0.0, 0.0, 0, 0, 0, 0, 0, 0, -0.7010043859481812, -1.638906717300415, 0.07227154821157455
12785, 0.10323673486709595, -0.1526123583316803, 0.08831095695495605, 0.17513075470924377, -0.2182079553604126, -0.0441233366727829, -0.002040301449596882, -0.0028144330717623234, 1.0018271207809448, -0.7020668387413025, -1.64251708984375, 0.07242844253778458, 0.0, 0.0, 0.0, 0, 0, 0, 0, 0, 0, -0.7020668387413025, -1.64251708984375, 0.07242844253778458
12795, 0.10330726951360703, -0.15220223367214203, 0.08923257142305374, 0.002822934417054057, 0.18250058591365814, -0.03742647171020508, -0.002594288904219866, -0.0014012192841619253, 0.9996361136436462, -0.7031289935112, -1.6461321115493774, 0.07258593291044235, 0.0, 0.0, 0.0, 0, 0, 0, 0, 0, 0, -0.7031289935112, -1.6461321115493774, 0.07258593291044235
12805, 0.10301806032657623, -0.15216673910617828, 0.08844045549631119, -0.2927303612232208, -0.10927531868219376, -0.12849776446819305, -0.0030792916659265757, -0.0020427298732101917, 0.9994329214096069, -0.7041913270950317, -1.6497505903244019, 0.07274363934993744, 0.0, 0.0, 0.0, 0, 0, 0, 0, 0, 0, -0.7041913270950317, -1.6497505903244019, 0.07274363934993744
12815, 0.10279691964387894, -0.15183137357234955, 0.08916252851486206, 0.053392212837934494, 0.061439916491508484, -0.07396004348993301, -0.0013873173156753182, -0.004470029845833778, 0.9973695874214172, -0.7052536010742188, -1.653372883796692, 0.07290057837963104, 0.0, 0.0, 0.0, 0, 0, 0, 0, 0, 0, -0.7052536010742188, -1.653372883796692, 0.07290057837963104
12825, 0.10270671546459198, -0.15096968412399292, 0.08816657960414886, -0.059977442026138306, 0.19589471817016602, 0.014456377364695072, -0.0028154405299574137, -0.0019024120410904288, 1.002123236656189, -0.7063153982162476, -1.6570003032684326, 0.07305625081062317, 0.0, 0.0, 0.0, 0, 0, 0, 0, 0, 0, -0.7063153982162476, -1.6570003032684326, 0.07305625081062317
12835, 0.10322929918766022, -0.15243184566497803, 0.08846455067396164, 0.08305347710847855, -0.17295150458812714, -0.07712611556053162, -0.0041379258036613464, -0.004237125627696514, 1.0011404752731323, -0.7073771357536316, -1.6606324911117554, 0.07321227341890335, 0.0, 0.0, 0.0, 0, 0, 0, 0, 0, 0, -0.7073771357536316, -1.6606324911117554, 0.07321227341890335
12845, 0.10380339622497559, -0.14986969530582428, 0.08825544267892838, 0.23554733395576477, 0.08231943100690842, -0.24045173823833466, -0.0035124034620821476, -0.004350102506577969, 1.0007752180099487, -0.7084395289421082, -1.6642699241638184, 0.07336963713169098, 0.0, 0.0, 0.0, 0, 0, 0, 0, 0, 0, -0.7084395289421082, -1.6642699241638184, 0.07336963713169098
12855, 0.10416796803474426, -0.14986391365528107, 0.08764304965734482, -0.07817105948925018, 0.15535728633403778, 0.03499551862478256, -0.005720789078623056, -0.0054878415539860725, 0.9999286532402039, -0.7095033526420593, -1.6679139137268066, 0.07352776825428009, 0.0, 0.0, 0.0, 0, 0, 0, 0, 0, 0, -0.7095033526420593, -1.6679139137268066, 0.07352776825428009
12865, 0.10456068068742752, -0.14903156459331512, 0.08754633367061615, 0.1038866713643074, -0.10308565944433212, 0.13754309713840485, -0.0011342583457008004, -0.004148509819060564, 0.9988163709640503, -0.7105687856674194, -1.6715644598007202, 0.07368617504835129, 0.0, 0.0, 0.0, 0, 0, 0, 0, 0, 0, -0.7105687856674194, -1.6715644598007202, 0.07368617504835129
12875, 0.10347805172204971, -0.14910195767879486, 0.08743522316217422, -0.04776601493358612, -0.15271244943141937, 0.15341952443122864, -0.003962638322263956, -0.0007156250067055225, 1.0003858804702759, -0.7116346955299377, -1.6752208471298218, 0.07384409010410309, 0.0, 0.0, 0.0, 0, 0, 0, 0, 0, 0, -0.7116346955299377, -1.6752208471298218, 0.07384409010410309
12885, 0.10317222028970718, -0.14861059188842773, 0.08809445798397064, 0.08583340048789978, 0.004624851979315281, 0.08404713869094849, -0.004624054301530123, -0.0026185873430222273, 0.9994676113128662, -0.7127010226249695, -1.6788811683654785, 0.0740017369389534, 0.0, 0.0, 0.0, 0, 0, 0, 0, 0, 0, -0.7127010226249695, -1.6788811683654785, 0.0740017369389534
12895, 0.10190384835004807, -0.1490318775177002, 0.08895549923181534, -0.044183094054460526, -0.062244877219200134, 0.036296047270298004, -0.0025190659798681736, -0.004789315164089203, 0.9982485771179199, -0.7137686014175415, -1.6825450658798218, 0.07415899634361267, 0.0, 0.0, 0.0, 0, 0, 0, 0, 0, 0, -0.7137686014175415, -1.6825450658798218, 0.07415899634361267
12905, 0.10229219496250153, -0.14801426231861115, 0.08834262937307358, 0.08452977240085602, 0.05698677897453308, 0.0433492437005043, -0.002569691278040409, -0.004736595321446657, 0.9990825057029724, -0.7148369550704956, -1.686214566230774, 0.07431506365537643, 0.0, 0.0, 0.0, 0, 0, 0, 0, 0, 0, -0.7148369550704956, -1.686214566230774, 0.07431506365537643
12915, 0.10208182781934738, -0.15057921409606934, 0.08875812590122223, 0.05891195312142372, -0.03051159530878067, -0.021214477717876434, -0.00046496823779307306, -0.003816723357886076, 0.9992817044258118, -0.7159050107002258, -1.6898905038833618, 0.0744701698422432, 0.0, 0.0, 0.0, 0, 0, 0, 0, 0, 0, -0.7159050107002258, -1.6898905038833618, 0.0744701698422432
12925, 0.10225187242031097, -0.1499459445476532, 0.09019450843334198, 0.06615029275417328, -0.19266252219676971, 0.004618003033101559, -0.0038849497213959694, -0.0046135783195495605, 1.0003613233566284, -0.7169722318649292, -1.6935725212097168, 0.07462483644485474, 0.0, 0.0, 0.0, 0, 0, 0, 0, 0, 0, -0.7169722318649292, -1.6935725212097168, 0.07462483644485474
12935, 0.10330121964216232, -0.15009024739265442, 0.09039882570505142, -0.07912278175354004, 0.011645402759313583, 0.07633617520332336, -0.002931357827037573, -0.003825283842161298, 0.9997923970222473, -0.7180398106575012, -1.6972606182098389, 0.07477953284978867, 0.0, 0.0, 0.0, 0, 0, 0, 0, 0, 0, -0.7180398106575012, -1.6972606182098389, 0.07477953284978867
12945, 0.10247331112623215, -0.14903680980205536, 0.09052882343530655, 0.0080075329169631, 0.2818416953086853, -0.2075071930885315, 0.0006944449269212782, -0.0011235881829634309, 1.0009043216705322, -0.7191075682640076, -1.7009539604187012, 0.07493478804826736, 0.0, 0.0, 0.0, 0, 0, 0, 0, 0, 0, -0.7191075682640076, -1.7009539604187012, 0.07493478804826736
12955, 0.10285621136426926, -0.14954160153865814, 0.08959176391363144, 0.21056264638900757, 0.07983721047639847, 0.18655893206596375, -0.0009710213635116816, -0.0030391905456781387, 0.9985657334327698, -0.7201734781265259, -1.7046514749526978, 0.07509023696184158, 0.0, 0.0, 0.0, 0, 0, 0, 0, 0, 0, -0.7201734781265259, -1.7046514749526978, 0.07509023696184158
12965, 0.1037609726190567, -0.14874102175235748, 0.08957835286855698, 0.08333727717399597, -0.1336170732975006, -0.01921413652598858, -0.0020885085687041283, -0.0037834628019481897, 1.0017821788787842, -0.7212374210357666, -1.7083532810211182, 0.07524554431438446, 0.0, 0.0, 0.0, 0, 0, 0, 0, 0, 0, -0.7212374210357666, -1.7083532810211182, 0.07524554431438446
12975, 0.10366196185350418, -0.14897455275058746, 0.09003672003746033, 0.01213500089943409, 0.11688636988401413, 0.1191571056842804, -0.0020722488407045603, -0.003568994579836726, 1.001020073890686, -0.72230064868927, -1.7120604515075684, 0.07540159672498703, 0.0, 0.0, 0.0, 0, 0, 0, 0, 0, 0, -0.72230064868927, -1.7120604515075684, 0.07540159672498703
12985, 0.10282055288553238, -0.14822173118591309, 0.0895199105143547, 0.11171386390924454, -0.3479415476322174, 0.23021025955677032, -0.0021223837975412607, -0.0011977088870480657, 1.000333547592163, -0.72336345911026, -1.7157728672027588, 0.07555864006280899, 0.0, 0.0, 0.0, 0, 0, 0, 0, 0, 0, -0.72336345911026, -1.7157728672027588, 0.07555864006280899
12995, 0.1017862930893898, -0.14674781262874603, 0.09017889946699142, -0.11463748663663864, -0.13891257345676422, 0.028472216799855232, -0.0021908804774284363, -0.0030525585170835257, 1.0020519495010376, -0.7244257926940918, -1.7194888591766357, 0.07571649551391602, 0.0, 0.0, 0.0, 0, 0, 0, 0, 0, 0, -0.7244257926940918, -1.7194888591766357, 0.07571649551391602
13005, 0.10308068990707397, -0.14551673829555511, 0.0905776396393776, 0.061104390770196915, 0.271926611661911, 0.08004980534315109, -0.0031695901416242123, -0.0029159702826291323, 0.9996808767318726, -0.725488007068634, -1.7232087850570679, 0.07587548345327377, 0.0, 0.0, 0.0, 0, 0, 0, 0, 0, 0, -0.725488007068634, -1.7232087850570679, 0.07587548345327377
13015, 0.10296512395143509, -0.1464211791753769, 0.08976313471794128, -0.041855260729789734, -0.02356886863708496, 0.039494190365076065, -0.001694123144261539, -0.004007081501185894, 0.9994982481002808, -0.7265504002571106, -1.726933479309082, 0.07603495568037033, 0.0, 0.0, 0.0, 0, 0, 0, 0, 0, 0, -0.7265504002571106, -1.726933479309082, 0.07603495568037033
13025, 0.10283651947975159, -0.14567452669143677, 0.09097661823034286, 0.09545628726482391, -0.09889145940542221, 0.13345496356487274, -0.004216088447719812, -0.004051120951771736, 0.9998151659965515, -0.7276129126548767, -1.7306636571884155, 0.07619422674179077, 0.0, 0.0, 0.0, 0, 0, 0, 0, 0, 0, -0.7276129126548767, -1.7306636571884155, 0.07619422674179077
13035, 0.1035446971654892, -0.144285187125206, 0.09160325676202774, 0.23572653532028198, 0.04017837345600128, -0.03170226141810417, -0.005332102067768574, -0.004414914641529322, 1.0019220113754272, -0.7286765575408936, -1.7343999147415161, 0.07635367661714554, 0.0, 0.0, 0.0, 0, 0, 0, 0, 0, 0, -0.7286765575408936, -1.7343999147415161, 0.07635367661714554
13045, 0.10330703854560852, -0.14319120347499847, 0.0898534506559372, -0.03218276426196098, -0.05809153616428375, -0.03937193378806114, -0.0044822050258517265, -0.0021018951665610075, 1.0007565021514893, -0.7297425270080566, -1.7381417751312256, 0.07651432603597641, 0.0, 0.0, 0.0, 0, 0, 0, 0, 0, 0, -0.7297425270080566, -1.7381417751312256, 0.07651432603597641
13055, 0.10334984958171844, -0.14258407056331635, 0.09029614925384521, -0.09844817966222763, 0.24289946258068085, 0.1506042629480362, -0.004690134432166815, -0.002147209830582142, 0.9991607069969177, -0.7308106422424316, -1.7418882846832275, 0.07667578011751175, 0.0, 0.0, 0.0, 0, 0, 0, 0, 0, 0, -0.7308106422424316, -1.7418882846832275, 0.07667578011751175
13065, 0.10279000550508499, -0.14500002562999725, 0.09055805206298828, 0.08647388219833374, 0.0707118809223175, -0.02831258811056614, -0.005483534652739763, -0.0035260580480098724, 0.9999926686286926, -0.7318811416625977, -1.7456388473510742, 0.07683705538511276, 0.0, 0.0, 0.0, 0, 0, 0, 0, 0, 0, -0.7318811416625977, -1.7456388473510742, 0.07683705538511276
13075, 0.10374339669942856, -0.14360040426254272, 0.09187295287847519, 0.007421158719807863, 0.043165773153305054, 0.08340040594339371, -0.0042991070076823235, -0.005619610194116831, 1.0008798837661743, -0.7329542636871338, -1.7493945360183716, 0.0769982561469078, 0.0, 0.0, 0.0, 0, 0, 0, 0, 0, 0, -0.7329542636871338, -1.7493945360183716, 0.0769982561469078
13085, 0.1033410057425499, -0.14475329220294952, 0.09117484837770462, -0.08433756977319717, 0.23822258412837982, -0.12087047845125198, -0.004056234378367662, -0.004978572484105825, 1.0005054473876953, -0.7340293526649475, -1.7531566619873047, 0.07715988904237747, 0.0, 0.0, 0.0, 0, 0, 0, 0, 0, 0, -0.7340293526649475, -1.7531566619873047, 0.07715988904237747
13095, 0.10348977148532867, -0.14689591526985168, 0.09174127131700516, 0.0940965935587883, 0.04448116943240166, 0.09981579333543777, -0.0031920243054628372, -0.0032484405674040318, 1.0008409023284912, -0.7351056337356567, -1.7569249868392944, 0.0773223340511322, 0.0, 0.0, 0.0, 0, 0, 0, 0, 0, 0, -0.7351056337356567, -1.7569249868392944, 0.0773223340511322
13105, 0.10410984605550766, -0.1476181000471115, 0.0913359746336937, -0.14481359720230103, -0.2290673851966858, -0.016751261427998543, -0.0011649185325950384, -0.004107122775167227, 1.0003618001937866, -0.7361823320388794, -1.760698914527893, 0.07748547196388245, 0.0, 0.0, 0.0, 0, 0, 0, 0, 0, 0, -0.7361823320388794, -1.760698914527893, 0.07748547196388245
13115, 0.10374031215906143, -0.14708545804023743, 0.0923319086432457, 0.09579875320196152, 0.005964368581771851, 0.20476874709129333, -0.001367997727356851, -0.0028488580137491226, 1.0011945962905884, -0.7372583150863647, -1.764478087425232, 0.07764912396669388, 0.0, 0.0, 0.0, 0, 0, 0, 0, 0, 0, -0.7372583150863647, -1.764478087425232, 0.07764912396669388
13125, 0.10397215932607651, -0.14748615026474, 0.09237510710954666, 0.00014902626571711153, -0.16092225909233093, -0.11403471976518631, -0.002071743831038475, -0.003138381289318204, 1.0013173818588257, -0.738332986831665, -1.768262505531311, 0.07781358808279037, 0.0, 0.0, 0.0, 0, 0, 0, 0, 0, 0, -0.738332986831665, -1.768262505531311, 0.07781358808279037
13135, 0.10340701788663864, -0.1486493945121765, 0.0917598158121109, 0.09037105739116669, -0.018536588177084923, -0.15811024606227875, -0.001962896902114153, -0.0034200833179056644, 0.9971877932548523, -0.7394068241119385, -1.7720518112182617, 0.07797868549823761, 0.0, 0.0, 0.0, 0, 0, 0, 0, 0, 0, -0.7394068241119385, -1.7720518112182617, 0.07797868549823761
13145, 0.1033218502998352, -0.14821428060531616, 0.09197630733251572, -0.13478441536426544, 0.10537296533584595, 0.0831398293375969, -0.004951531067490578, -0.002311008982360363, 0.9969807863235474, -0.7404806017875671, -1.7758457660675049, 0.07814252376556396, 0.0, 0.0, 0.0, 0, 0, 0, 0, 0, 0, -0.7404806017875671, -1.7758457660675049, 0.07814252376556396
13155, 0.10324060916900635, -0.14984561502933502, 0.09107799828052521, 0.09253567457199097, 0.08655691891908646, -0.1306164264678955, -0.005348508711904287, -0.0020063843112438917, 0.9980127215385437, -0.7415557503700256, -1.7796440124511719, 0.07830371707677841, 0.0, 0.0, 0.0, 0, 0, 0, 0, 0, 0, -0.7415557503700256, -1.7796440124511719, 0.07830371707677841
13165, 0.10373823344707489, -0.15022945404052734, 0.09106535464525223, 0.11685509979724884, 0.08890002220869064, 0.010488707572221756, -0.0020040241070091724, -0.002039331942796707, 1.0013720989227295, -0.7426329851150513, -1.783445954322815, 0.07846339046955109, 0.0, 0.0, 0.0, 0, 0, 0, 0, 0, 0, -0.7426329851150513, -1.783445954322815, 0.07846339046955109
13175, 0.10330832004547119, -0.14901353418827057, 0.09035792946815491, 0.22661744058132172, -0.15902480483055115, 0.1685735583305359, -0.002904493361711502, -0.004534206353127956, 1.001652717590332, -0.7437108159065247, -1.7872519493103027, 0.07862340658903122, 0.0, 0.0, 0.0, 0, 0, 0, 0, 0, 0, -0.7437108159065247, -1.7872519493103027, 0.07862340658903122
13185, 0.10391807556152344, -0.14866775274276733, 0.08866722136735916, 0.14070037007331848, -0.445639431476593, 0.06726540625095367, -0.002725384896621108, -0.004372292198240757, 1.001306414604187, -0.7447884678840637, -1.7910634279251099, 0.07878481596708298, 0.0, 0.0, 0.0, 0, 0, 0, 0, 0, 0, -0.7447884678840637, -1.7910634279251099, 0.07878481596708298
13195, 0.10417427122592926, -0.14646866917610168, 0.08863438665866852, 0.030512575060129166, -0.08914109319448471, -0.1477764993906021, -0.00200148718431592, -0.003225780790671706, 1.0010966062545776, -0.7458661794662476, -1.7948808670043945, 0.07894763350486755, 0.0, 0.0, 0.0, 0, 0, 0, 0, 0, 0, -0.7458661794662476, -1.7948808670043945, 0.07894763350486755
13205, 0.10472602397203445, -0.1482522338628769, 0.08840397000312805, -0.12171303480863571, 0.37683045864105225, 0.1384463608264923, -0.0030459431000053883, -0.0032751348335295916, 1.000376582145691, -0.7469435334205627, -1.7987037897109985, 0.07911138236522675, 0.0, 0.0, 0.0, 0, 0, 0, 0, 0, 0, -0.7469435334205627, -1.7987037897109985, 0.07911138236522675
13215, 0.10410217940807343, -0.1498229056596756, 0.08745087683200836, 0.06427143514156342, 0.14711734652519226, 0.00029605175950564444, -0.005176727194339037, -0.003106827847659588, 1.0016063451766968, -0.7480212450027466, -1.8025315999984741, 0.07927607744932175, 0.0, 0.0, 0.0, 0, 0, 0, 0, 0, 0, -0.7480212450027466, -1.8025315999984741, 0.07927607744932175
13225, 0.10533260554075241, -0.14952664077281952, 0.08904092013835907, 0.12665563821792603, 0.10041935741901398, 0.06754827499389648, -0.00201308517716825, -0.0015940526500344276, 1.00015389919281, -0.7491006851196289, -1.8063640594482422, 0.07944189012050629, 0.0, 0.0, 0.0, 0, 0, 0, 0, 0, 0, -0.7491006851196289, -1.8063640594482422, 0.07944189012050629
13235, 0.1063176617026329, -0.1499532014131546, 0.08978410810232162, -0.12336237728595734, -0.15470686554908752, 0.1214684471487999, -0.002065042033791542, -0.0008058188832364976, 0.9996473789215088, -0.7501806616783142, -1.8102002143859863, 0.07960816472768784, 0.0, 0.0, 0.0, 0, 0, 0, 0, 0, 0, -0.7501806616783142, -1.8102002143859863, 0.07960816472768784
13245, 0.10487423837184906, -0.15058811008930206, 0.09017612785100937, 0.01684183068573475, 0.026078861206769943, -0.08471668511629105, -0.0012394802179187536, -0.0034595837350934744, 1.0012518167495728, -0.7512599229812622, -1.8140395879745483, 0.07977462559938431, 0.0, 0.0, 0.0, 0, 0, 0, 0, 0, 0, -0.7512599229812622, -1.8140395879745483, 0.07977462559938431
13255, 0.10400127619504929, -0.1539529711008072, 0.08907504379749298, -0.07226758450269699, -0.15541033446788788, -0.012132063508033752, -0.0014474536292254925, -0.0038208141922950745, 0.9997316598892212, -0.7523380517959595, -1.8178837299346924, 0.0799417570233345, 0.0, 0.0, 0.0, 0, 0, 0, 0, 0, 0, -0.7523380517959595, -1.8178837299346924, 0.0799417570233345
13265, 0.10340879112482071, -0.15369783341884613, 0.09021048247814178, -0.009351094253361225, 0.07571378350257874, -0.08167693763971329, -0.0036437169183045626, -0.0027123617473989725, 0.9999438524246216, -0.7534154057502747, -1.8217333555221558, 0.08010939508676529, 0.0, 0.0, 0.0, 0, 0, 0, 0, 0, 0, -0.7534154057502747, -1.8217333555221558, 0.08010939508676529
13275, 0.10426162928342819, -0.1533224731683731, 0.08929586410522461, 0.15482686460018158, 0.009228801354765892, 0.12220334261655807, -0.0024909640196710825, -0.002444411162286997, 1.0011407136917114, -0.7544931173324585, -1.825587511062622, 0.08027701079845428, 0.0, 0.0, 0.0, 0, 0, 0, 0, 0, 0, -0.7544931173324585, -1.825587511062622, 0.08027701079845428
13285, 0.10452151298522949, -0.15320193767547607, 0.08849409967660904, 0.00356469489634037, 0.028649190440773964, 0.1729927808046341, -0.0036656789015978575, -0.002125420840457082, 1.0008238554000854, -0.7555710077285767, -1.8294459581375122, 0.08044511079788208, 0.0, 0.0, 0.0, 0, 0, 0, 0, 0, 0, -0.7555710077285767, -1.8294459581375122, 0.08044511079788208
13295, 0.10473809391260147, -0.15251193940639496, 0.08991190791130066, -0.0043906038627028465, 0.14068858325481415, 0.035266317427158356, -0.003355972468852997, -0.0025411914102733135, 1.0013940334320068, -0.7566494941711426, -1.8333083391189575, 0.08061429113149643, 0.0, 0.0, 0.0, 0, 0, 0, 0, 0, 0, -0.7566494941711426, -1.8333083391189575, 0.08061429113149643
13305, 0.10521315783262253, -0.15400011837482452, 0.089590884745121, 0.3322998285293579, 0.05160371586680412, 0.1539149135351181, -0.0035805366933345795, -0.002924394328147173, 1.000106692314148, -0.7577290534973145, -1.837174892425537, 0.08078434318304062, 0.0, 0.0, 0.0, 0, 0, 0, 0, 0, 0, -0.7577290534973145, -1.837174892425537, 0.08078434318304062
13315, 0.10585618019104004, -0.154610276222229, 0.09067187458276749, -0.08099068701267242, -0.06896228343248367, 0.18466097116470337, -0.0019101310754194856, -0.0056559122167527676, 0.9994720816612244, -0.7588090300559998, -1.8410463333129883, 0.08095474541187286, 0.0, 0.0, 0.0, 0, 0, 0, 0, 0, 0, -0.7588090300559998, -1.8410463333129883, 0.08095474541187286
13325, 0.10547837615013123, -0.15373340249061584, 0.09158176183700562, 0.0018144219648092985, -0.5431092977523804, -0.053607139736413956, -0.0021310888696461916, -0.004255796317011118, 0.9989540576934814, -0.7598890066146851, -1.8449240922927856, 0.08112460374832153, 0.0, 0.0, 0.0, 0, 0, 0, 0, 0, 0, -0.7598890066146851, -1.8449240922927856, 0.08112460374832153
13335, 0.10579076409339905, -0.15040142834186554, 0.09190297871828079, 0.05407990515232086, -0.08797061443328857, -0.2553006112575531, -0.0028078656177967787, -0.003700105706229806, 0.9983724355697632, -0.7609685659408569, -1.8488084077835083, 0.08129347115755081, 0.0, 0.0, 0.0, 0, 0, 0, 0, 0, 0, -0.7609685659408569, -1.8488084077835083, 0.08129347115755081
13345, 0.10630417615175247, -0.15014667809009552, 0.0913429781794548, 0.039224401116371155, 0.35710224509239197, 0.027849795296788216, -0.0021134777925908566, -0.0026546369772404432, 0.9981316328048706, -0.7620479464530945, -1.8526982069015503, 0.08146107941865921, 0.0, 0.0, 0.0, 0, 0, 0, 0, 0, 0, -0.7620479464530945, -1.8526982069015503, 0.08146107941865921
13355, 0.10557349771261215, -0.150959774851799, 0.09103354811668396, -0.10318008810281754, 0.03861106187105179, 0.05730282887816429, -0.003742651781067252, -0.0022359106224030256, 1.0009111166000366, -0.7631272077560425, -1.8565926551818848, 0.0816272720694542, 0.0, 0.0, 0.0, 0, 0, 0, 0, 0, 0, -0.7631272077560425, -1.8565926551818848, 0.0816272720694542
13365, 0.10571503639221191, -0.15274889767169952, 0.09067842364311218, -0.14479292929172516, 0.09464044868946075, -0.1940901130437851, -0.0032173083163797855, -0.00251069781370461, 1.0017304420471191, -0.7642068862915039, -1.860491156578064, 0.08179356157779694, 0.0, 0.0, 0.0, 0, 0, 0, 0, 0, 0, -0.7642068862915039, -1.860491156578064, 0.08179356157779694
13375, 0.10514568537473679, -0.15083743631839752, 0.08885183185338974, -0.05801963806152344, 0.007212849333882332, -0.053747162222862244, -0.0025303505826741457, -0.003820992074906826, 1.0016226768493652, -0.7652873396873474, -1.8643938302993774, 0.0819615051150322, 0.0, 0.0, 0.0, 0, 0, 0, 0, 0, 0, -0.7652873396873474, -1.8643938302993774, 0.0819615051150322
13385, 0.10576119273900986, -0.15009534358978271, 0.08950410038232803, -0.01815623603761196, 0.07273471355438232, 0.0888257771730423, -0.0017579104751348495, -0.00421547144651413, 0.9999200701713562, -0.76636803150177, -1.8683017492294312, 0.08213099092245102, 0.0, 0.0, 0.0, 0, 0, 0, 0, 0, 0, -0.76636803150177, -1.8683017492294312, 0.08213099092245102
13395, 0.10568826645612717, -0.1504523903131485, 0.08971275389194489, -0.02760695293545723, -0.043037619441747665, -0.06211436912417412, 0.00022625747078564018, -0.0024748060386627913, 1.0009634494781494, -0.7674478888511658, -1.8722151517868042, 0.08230102807283401, 0.0, 0.0, 0.0, 0, 0, 0, 0, 0, 0, -0.7674478888511658, -1.8722151517868042, 0.08230102807283401
13405, 0.10604741424322128, -0.1495516300201416, 0.08957405388355255, 0.00020969862816855311, -0.013775335624814034, 0.12806957960128784, -0.0032765904907137156, -0.00379174598492682, 1.0006251335144043, -0.7685261368751526, -1.8761335611343384, 0.08247139304876328, 0.0, 0.0, 0.0, 0, 0, 0, 0, 0, 0, -0.7685261368751526, -1.8761335611343384, 0.08247139304876328
13415, 0.10568957030773163, -0.1486181765794754, 0.09026958793401718, -0.00021510104124899954, -0.14788328111171722, -0.12847605347633362, -0.004193339962512255, -0.0022864793427288532, 0.9994937777519226, -0.7696040272712708, -1.8800568580627441, 0.08264230936765671, 0.0, 0.0, 0.0, 0, 0, 0, 0, 0, 0, -0.7696040272712708, -1.8800568580627441, 0.08264230936765671
13425, 0.10491364449262619, -0.1484624296426773, 0.0895669162273407, 0.1283896267414093, -0.1341911405324936, -0.029657032340765, -0.001368612633086741, -0.0034311574418097734, 1.0027689933776855, -0.7706828117370605, -1.8839850425720215, 0.08281352370977402, 0.0, 0.0, 0.0, 0, 0, 0, 0, 0, 0, -0.7706828117370605, -1.8839850425720215, 0.08281352370977402
13435, 0.10593892633914948, -0.1467488706111908, 0.08937156945466995, -0.09755747765302658, 0.16857469081878662, 0.03723922744393349, -0.002067833673208952, -0.0028606592677533627, 1.0020750761032104, -0.7717612981796265, -1.8879178762435913, 0.08298640698194504, 0.0, 0.0, 0.0, 0, 0, 0, 0, 0, 0, -0.7717612981796265, -1.8879178762435913, 0.08298640698194504
13445, 0.10469543933868408, -0.14755317568778992, 0.09051746875047684, 0.11627599596977234, -0.12084787338972092, 0.22432884573936462, -0.004003532230854034, -0.0032215691171586514, 0.9996460676193237, -0.7728393077850342, -1.8918555974960327, 0.08316145837306976, 0.0, 0.0, 0.0, 0, 0, 0, 0, 0, 0, -0.7728393077850342, -1.8918555974960327, 0.08316145837306976
13455, 0.10594338923692703, -0.14526380598545074, 0.09001956880092621, 0.01638822630047798, -0.23270097374916077, 0.0581381618976593, -0.0030207661911845207, -0.0031320590060204268, 0.997269332408905, -0.7739177942276001, -1.8957980871200562, 0.0833364725112915, 0.0, 0.0, 0.0, 0, 0, 0, 0, 0, 0, -0.7739177942276001, -1.8957980871200562, 0.0833364725112915
13465, 0.10610204935073853, -0.14601297676563263, 0.09035718441009521, -0.08556265383958817, 0.43562859296798706, -0.05325157567858696, -0.005112751852720976, -0.0036796473432332277, 0.998389482498169, -0.7749970555305481, -1.8997454643249512, 0.0835096538066864, 0.0, 0.0, 0.0, 0, 0, 0, 0, 0, 0, -0.7749970555305481, -1.8997454643249512, 0.0835096538066864
13475, 0.10562143474817276, -0.14856508374214172, 0.0907382145524025, -0.10832145810127258, -0.04842064529657364, -0.1019434854388237, -0.004025016911327839, -0.002794837113469839, 1.00006103515625, -0.7760778069496155, -1.9036979675292969, 0.0836811289191246, 0.0, 0.0, 0.0, 0, 0, 0, 0, 0, 0, -0.7760778069496155, -1.9036979675292969, 0.0836811289191246
13485, 0.10536329448223114, -0.14862628281116486, 0.08972228318452835, 0.07544005662202835, 0.0675511583685875, 0.11378363519906998, -0.0026177014224231243, -0.004412521608173847, 1.0000032186508179, -0.7771597504615784, -1.9076557159423828, 0.08385195583105087, 0.0, 0.0, 0.0, 0, 0, 0, 0, 0, 0, -0.7771597504615784, -1.9076557159423828, 0.08385195583105087
13495, 0.10557180643081665, -0.14837980270385742, 0.09099454432725906, 0.050445716828107834, -0.20903128385543823, -0.11197758466005325, -0.0028389005456119776, -0.004372189752757549, 1.000823736190796, -0.7782418131828308, -1.9116190671920776, 0.08402278274297714, 0.0, 0.0, 0.0, 0, 0, 0, 0, 0, 0, -0.7782418131828308, -1.9116190671920776, 0.08402278274297714
13505, 0.10668133944272995, -0.14775799214839935, 0.08802257478237152, -0.08695343881845474, -0.025603406131267548, -0.10844240337610245, -0.0012654847232624888, -0.005076189991086721, 0.9996984601020813, -0.7793238162994385, -1.9155889749526978, 0.08419375121593475, 0.0, 0.0, 0.0, 0, 0, 0, 0, 0, 0, -0.7793238162994385, -1.9155889749526978, 0.08419375121593475
13515, 0.10638286173343658, -0.1474703997373581, 0.08878824859857559, 0.26498234272003174, 0.12046149373054504, 0.052272651344537735, -0.002203201176598668, -0.002393582137301564, 0.999857485294342, -0.7804052233695984, -1.919565200805664, 0.08436466008424759, 0.0, 0.0, 0.0, 0, 0, 0, 0, 0, 0, -0.7804052233695984, -1.919565200805664, 0.08436466008424759
13525, 0.10686063021421432, -0.14809182286262512, 0.08973893523216248, 0.03756212443113327, 0.10558544099330902, 0.22725950181484222, -0.0017390386201441288, -0.003423341317102313, 0.9998555183410645, -0.781485915184021, -1.923546314239502, 0.08453530073165894, 0.0, 0.0, 0.0, 0, 0, 0, 0, 0, 0, -0.781485915184021, -1.923546314239502, 0.08453530073165894
13535, 0.10731910914182663, -0.14892390370368958, 0.09035541862249374, -0.02963954210281372, -0.0733434408903122, -0.09856299310922623, -0.002073304494842887, -0.004923985339701176, 0.9991799592971802, -0.7825660705566406, -1.9275325536727905, 0.08470553159713745, 0.0, 0.0, 0.0, 0, 0, 0, 0, 0, 0, -0.7825660705566406, -1.9275325536727905, 0.08470553159713745
13545, 0.1065252423286438, -0.14806650578975677, 0.0902368426322937, 0.1446501463651657, 0.13548344373703003, 0.07366170734167099, -0.0013444543583318591, -0.0040524620562791824, 1.0002834796905518, -0.783645510673523, -1.9315248727798462, 0.08487530797719955, 0.0, 0.0, 0.0, 0, 0, 0, 0, 0, 0, -0.783645510673523, -1.9315248727798462, 0.08487530797719955
13555, 0.10781145840883255, -0.14813876152038574, 0.09035385400056839, 0.019539725035429, -0.17660050094127655, 0.1310906559228897, -0.0019137224880978465, -0.0011762487702071667, 1.000286340713501, -0.7847240567207336, -1.9355225563049316, 0.08504467457532883, 0.0, 0.0, 0.0, 0, 0, 0, 0, 0, 0, -0.7847240567207336, -1.9355225563049316, 0.08504467457532883
13565, 0.10686903446912766, -0.14887526631355286, 0.09180165082216263, 0.08475778251886368, 0.06020950898528099, 0.12592941522598267, -8.557775799999945e-06, -0.0014213246759027243, 0.9993112683296204, -0.7858012318611145, -1.939523696899414, 0.08521388471126556, 0.0, 0.0, 0.0, 0, 0, 0, 0, 0, 0, -0.7858012318611145, -1.939523696899414, 0.08521388471126556
13575, 0.10662253201007843, -0.1489165723323822, 0.0913965106010437, 0.04238917678594589, -0.1836484968662262, 0.1348777860403061, -0.0032977669034153223, -0.0027560514863580465, 1.0008708238601685, -0.7868772745132446, -1.943528175354004, 0.08538313955068588, 0.0, 0.0, 0.0, 0, 0, 0, 0, 0, 0, -0.7868772745132446, -1.943528175354004, 0.08538313955068588
13585, 0.10742101073265076, -0.14921405911445618, 0.09267479926347733, 0.11516593396663666, 0.17528192698955536, 0.05749544873833656, -0.003542278427630663, -0.0048133330419659615, 1.0010627508163452, -0.7879531383514404, -1.9475373029708862, 0.08555258065462112, 0.0, 0.0, 0.0, 0, 0, 0, 0, 0, 0, -0.7879531383514404, -1.9475373029708862, 0.08555258065462112
13595, 0.10827871412038803, -0.1501113921403885, 0.09249809384346008, 0.03913445770740509, -0.2664341330528259, 0.06046898663043976, -0.00288546085357666, -0.0030250963754951954, 1.0022183656692505, -0.7890297174453735, -1.9515522718429565, 0.08572310209274292, 0.0, 0.0, 0.0, 0, 0, 0, 0, 0, 0, -0.7890297174453735, -1.9515522718429565, 0.08572310209274292
13605, 0.10761678218841553, -0.1498211920261383, 0.09390776604413986, -0.06639358401298523, 0.09948379546403885, 0.11558060348033905, -0.0019757847767323256, -0.002450177911669016, 0.999681830406189, -0.790106475353241, -1.9555728435516357, 0.08589494973421097, 0.0, 0.0, 0.0, 0, 0, 0, 0, 0, 0, -0.790106475353241, -1.9555728435516357, 0.08589494973421097
13615, 0.10747762769460678, -0.1516750454902649, 0.09482081234455109, -0.041866235435009, 0.13937075436115265, -0.18436303734779358, -0.0010531243169680238, -0.0037527845706790686, 0.9980573058128357, -0.7911826968193054, -1.9595978260040283, 0.0860670953989029, 0.0, 0.0, 0.0, 0, 0, 0, 0, 0, 0, -0.7911826968193054, -1.9595978260040283, 0.0860670953989029
13625, 0.10677364468574524, -0.150189608335495, 0.09466178715229034, -0.1680700033903122, -0.14413249492645264, -0.039630673825740814, -0.0016423501074314117, -0.0064551676623523235, 1.000779628753662, -0.7922580242156982, -1.9636281728744507, 0.08623871207237244, 0.0, 0.0, 0.0, 0, 0, 0, 0, 0, 0, -0.7922580242156982, -1.9636281728744507, 0.08623871207237244
13635, 0.10714337974786758, -0.15124759078025818, 0.09451710432767868, 0.09770870208740234, 0.0006414004019461572, 0.12056516855955124, -0.0013681118143722415, -0.0033992789685726166, 0.999737024307251, -0.7933322191238403, -1.967665195465088, 0.08641014993190765, 0.0, 0.0, 0.0, 0, 0, 0, 0, 0, 0, -0.7933322191238403, -1.967665195465088, 0.08641014993190765
13645, 0.1078563928604126, -0.14981967210769653, 0.0949522852897644, -0.11410821229219437, 0.18691955506801605, 0.0024500428698956966, -0.002276595449075103, -0.0021784401033073664, 0.9985732436180115, -0.7944053411483765, -1.971708059310913, 0.08658163994550705, 0.0, 0.0, 0.0, 0, 0, 0, 0, 0, 0, -0.7944053411483765, -1.971708059310913, 0.08658163994550705
13655, 0.10751030594110489, -0.15201936662197113, 0.09408117085695267, 0.037136953324079514, 0.25017261505126953, 0.051931094378232956, -0.0020282708574086428, -0.0028241071850061417, 0.9997336268424988, -0.7954779863357544, -1.9757554531097412, 0.0867522656917572, 0.0, 0.0, 0.0, 0, 0, 0, 0, 0, 0, -0.7954779863357544, -1.9757554531097412, 0.0867522656917572
13665, 0.10710901021957397, -0.15334855020046234, 0.09412198513746262, 0.10907047241926193, -0.17224042117595673, -0.1131664514541626, -0.00041979405796155334, -0.004197828471660614, 0.999496579170227, -0.7965500354766846, -1.9798072576522827, 0.08692213147878647, 0.0, 0.0, 0.0, 0, 0, 0, 0, 0, 0, -0.7965500354766846, -1.9798072576522827, 0.08692213147878647
13675, 0.10735975950956345, -0.15267571806907654, 0.09290888905525208, 0.17294250428676605, -0.1650819182395935, -0.0748543068766594, -0.0014825238613411784, -0.0029284441843628883, 1.0001444816589355, -0.797620952129364, -1.9838645458221436, 0.0870918482542038, 0.0, 0.0, 0.0, 0, 0, 0, 0, 0, 0, -0.797620952129364, -1.9838645458221436, 0.0870918482542038
13685, 0.10796160995960236, -0.15175758302211761, 0.09254296123981476, 0.277694433927536, -0.12581655383110046, 0.2637612223625183, -0.0030992417596280575, -0.00032042988459579647, 0.9994571805000305, -0.798690676689148, -1.9879266023635864, 0.08726129680871964, 0.0, 0.0, 0.0, 0, 0, 0, 0, 0, 0, -0.798690676689148, -1.9879266023635864, 0.08726129680871964
13695, 0.10868468880653381, -0.15175355970859528, 0.09245722740888596, 0.05029871687293053, 0.40162450075149536, -0.1553603708744049, -0.003532462054863572, -0.0031717484816908836, 0.9985190629959106, -0.7997605204582214, -1.9919917583465576, 0.08743025362491608, 0.0, 0.0, 0.0, 0, 0, 0, 0, 0, 0, -0.7997605204582214, -1.9919917583465576, 0.08743025362491608
13705, 0.1090303435921669, -0.15337440371513367, 0.09225153177976608, 0.1450873464345932, -0.19075354933738708, 0.09305353462696075, -0.0038379912730306387, -0.0033802168909460306, 0.9984622597694397, -0.8008313775062561, -1.9960609674453735, 0.08759787678718567, 0.0, 0.0, 0.0, 0, 0, 0, 0, 0, 0, -0.8008313775062561, -1.9960609674453735, 0.08759787678718567
13715, 0.10904967039823532, -0.15244531631469727, 0.0910622626543045, 0.12091052532196045, -0.002716053044423461, -0.29788443446159363, -0.004073636140674353, -0.0028461129404604435, 1.0000979900360107, -0.8019028306007385, -2.0001351833343506, 0.08776438236236572, 0.0, 0.0, 0.0, 0, 0, 0, 0, 0, 0, -0.8019028306007385, -2.0001351833343506, 0.08776438236236572
13725, 0.10884831845760345, -0.15288114547729492, 0.08923263102769852, 0.09670919924974442, -0.1817542016506195, 0.30945518612861633, -0.003786182962357998, -0.0034089265391230583, 1.001682162284851, -0.8029753565788269, -2.004214286804199, 0.0879308357834816, 0.0, 0.0, 0.0, 0, 0, 0, 0, 0, 0, -0.8029753565788269, -2.004214286804199, 0.0879308357834816
13735, 0.1090957373380661, -0.1530158668756485, 0.09083029627799988, 0.03292451426386833, 0.48237380385398865, 0.024237241595983505, -0.0028095196466892958, -0.0032807467505335808, 0.9980079531669617, -0.8040490746498108, -2.008298397064209, 0.08809757977724075, 0.0, 0.0, 0.0, 0, 0, 0, 0, 0, 0, -0.8040490746498108, -2.008298397064209, 0.08809757977724075
13745, 0.10967431217432022, -0.15360061824321747, 0.09044715762138367, -0.148533895611763, -0.17221270501613617, 0.1402980387210846, -0.0017690249951556325, -0.0023193242959678173, 0.9990904927253723, -0.8051233291625977, -2.012387752532959, 0.08826354146003723, 0.0, 0.0, 0.0, 0, 0, 0, 0, 0, 0, -0.8051233291625977, -2.012387752532959, 0.08826354146003723
13755, 0.11084732413291931, -0.15270067751407623, 0.09072395414113998, 0.05544483661651611, -0.041322994977235794, -0.0396232083439827, -0.0016035238513723016, -0.0029484760016202927, 0.9986041784286499, -0.8061971068382263, -2.01648211479187, 0.08842809498310089, 0.0, 0.0, 0.0, 0, 0, 0, 0, 0, 0, -0.8061971068382263, -2.01648211479187, 0.08842809498310089
13765, 0.1113288551568985, -0.15232525765895844, 0.0898306593298912, -0.02864643558859825, -0.17415599524974823, -0.14292801916599274, -0.0012213458539918065, -0.005366070196032524, 0.9992039799690247, -0.8072697520256042, -2.0205814838409424, 0.08859147876501083, 0.0, 0.0, 0.0, 0, 0, 0, 0, 0, 0, -0.8072697520256042, -2.0205814838409424, 0.08859147876501083
13775, 0.11056231707334518, -0.15121348202228546, 0.08933233469724655, 0.03903409466147423, -0.3122275769710541, -0.16314196586608887, -0.0014862725511193275, -0.0039658271707594395, 0.9968560338020325, -0.8083412647247314, -2.0246870517730713, 0.0887535884976387, 0.0, 0.0, 0.0, 0, 0, 0, 0, 0, 0, -0.8083412647247314, -2.0246870517730713, 0.0887535884976387
13785, 0.11012715101242065, -0.15098020434379578, 0.08955743163824081, -0.1052091121673584, 0.12083317339420319, 0.1912805736064911, -0.0016186460852622986, -0.0025142007507383823, 0.9970226287841797, -0.8094115853309631, -2.028798818588257, 0.0889134332537651, 0.0, 0.0, 0.0, 0, 0, 0, 0, 0, 0, -0.8094115853309631, -2.028798818588257, 0.0889134332537651
13795, 0.11033955961465836, -0.15028835833072662, 0.0896487832069397, -0.00985071249306202, -0.027839407324790955, -0.06421158462762833, -0.0017197307897731662, -0.0021238576155155897, 0.9992837905883789, -0.8104807734489441, -2.0329151153564453, 0.08907054364681244, 0.0, 0.0, 0.0, 0, 0, 0, 0, 0, 0, -0.8104807734489441, -2.0329151153564453, 0.08907054364681244
