timeTick, roll, pitch, yaw, gyroX, gyroY, gyroZ, accX, accY, accZ, stateX, stateY, stateZ, target_x, target_y, target_z, otX, otY, otZ, otRoll, otPitch, otYaw, kalX, kalY, kalZ
11837, -0.003730915253981948, -0.0018371411133557558, -0.19095489382743835, 0, 0, 0, 0, 0, 0, 0, 0, 0, 0, 0, 0, 0, 0, 0, 0, 0, 0, 0, 0, 0
11847, -0.002805011346936226, -0.0015769784804433584, -0.1900256872177124, -0.17333775758743286, -0.1589294970035553, -0.010443315841257572, -0.0034422597382217646, -0.0031496554147452116, 0.9986333250999451, -0.5793347954750061, -1.3345446586608887, -0.12049013376235962, 0.0, 0.0, 0.0, 0, 0, 0, 0, 0, 0, -0.5793347954750061, -1.3345446586608887, -0.12049013376235962
11857, -0.0021713748574256897, -0.0003387772885616869, -0.19040647149085999, -0.05967948958277702, -0.04643100127577782, -0.09703756123781204, -0.002618184080347419, -0.003658424597233534, 1.0007175207138062, -0.5807090997695923, -1.337587833404541, -0.12076407670974731, 0.0, 0.0, 0.0, 0, 0, 0, 0, 0, 0, -0.5807090997695923, -1.337587833404541, -0.12076407670974731
11867, -0.002461605239659548, -0.0003883581957779825, -0.19077402353286743, -0.2205224335193634, 0.1362546980381012, -0.056835200637578964, -0.0015760508831590414, -0.003373592859134078, 1.001046061515808, -0.5820858478546143, -1.3406344652175903, -0.12103766202926636, 0.0, 0.0, 0.0, 0, 0, 0, 0, 0, 0, -0.5820858478546143, -1.3406344652175903, -0.12103766202926636
11877, -0.003476780839264393, -0.001472504693083465, -0.19150550663471222, -0.12489765137434006, -0.03188134729862213, 0.04647287726402283, -0.0013019575271755457, -0.002315413672477007, 0.9989601373672485, -0.5834642052650452, -1.3436843156814575, -0.12131050229072571, 0.0, 0.0, 0.0, 0, 0, 0, 0, 0, 0, -0.5834642052650452, -1.3436843156814575, -0.12131050229072571
11887, -0.0038000354543328285, 0.0008324423106387258, -0.1906549334526062, 0.04808630049228668, -0.2003258317708969, -0.08693312108516693, -0.0004493061569519341, -0.0015734032494947314, 0.9969566464424133, -0.584843635559082, -1.3467365503311157, -0.12158405035734177, 0.0, 0.0, 0.0, 0, 0, 0, 0, 0, 0, -0.584843635559082, -1.3467365503311157, -0.12158405035734177
11897, -0.003368034726008773, -0.0006709978333674371, -0.1910596787929535, 0.09781645238399506, 0.3481784462928772, 0.17035585641860962, -0.004452514462172985, -0.0028390183579176664, 0.9990705847740173, -0.5862241983413696, -1.3497906923294067, -0.12185980379581451, 0.0, 0.0, 0.0, 0, 0, 0, 0, 0, 0, -0.5862241983413696, -1.3497906923294067, -0.12185980379581451
11907, -0.0035030492581427097, -0.0023327781818807125, -0.19126737117767334, -0.13807149231433868, 0.14357347786426544, -0.06607047468423843, -0.005190136842429638, -0.003870893968269229, 0.999029815196991, -0.5876080393791199, -1.3528472185134888, -0.12213699519634247, 0.0, 0.0, 0.0, 0, 0, 0, 0, 0, 0, -0.5876080393791199, -1.3528472185134888, -0.12213699519634247
11917, -0.004910720512270927, -0.00378097384236753, -0.19090747833251953, 0.12423516809940338, 0.1641276329755783, -0.027554787695407867, -0.003604946890845895, -0.0044848923571407795, 1.000239610671997, -0.5889965891838074, -1.3559072017669678, -0.12241493165493011, 0.0, 0.0, 0.0, 0, 0, 0, 0, 0, 0, -0.5889965891838074, -1.3559072017669678, -0.12241493165493011
11927, -0.0036199595779180527, -0.004884836729615927, -0.19129151105880737, 0.01934487745165825, 0.12383422255516052, -0.3142552971839905, -0.002035162877291441, -0.004181880969554186, 1.00194251537323, -0.590388834476471, -1.3589715957641602, -0.12269281595945358, 0.0, 0.0, 0.0, 0, 0, 0, 0, 0, 0, -0.590388834476471, -1.3589715957641602, -0.12269281595945358
11937, -0.004547037649899721, -0.006415367592126131, -0.19209280610084534, 0.22934703528881073, -0.1913793683052063, -0.1434134542942047, -0.0039031922351568937, -0.004261630121618509, 1.0000883340835571, -0.5917837619781494, -1.3620399236679077, -0.12296926975250244, 0.0, 0.0, 0.0, 0, 0, 0, 0, 0, 0, -0.5917837619781494, -1.3620399236679077, -0.12296926975250244
11947, -0.00287614855915308, -0.0052643874660134315, -0.19255295395851135, 0.11434829235076904, 0.08214014768600464, 0.024227825924754143, -0.0029719029553234577, -0.006104722619056702, 0.9978458285331726, -0.5931817889213562, -1.365112543106079, -0.12324528396129608, 0.0, 0.0, 0.0, 0, 0, 0, 0, 0, 0, -0.5931817889213562, -1.365112543106079, -0.12324528396129608
11957, -0.001857455587014556, -0.0042114416137337685, -0.19363506138324738, 0.1014803871512413, -0.18827813863754272, -0.05201452597975731, -0.0020157075487077236, -0.00509602390229702, 0.9995390772819519, -0.5945826172828674, -1.3681907653808594, -0.12352254241704941, 0.0, 0.0, 0.0, 0, 0, 0, 0, 0, 0, -0.5945826172828674, -1.3681907653808594, -0.12352254241704941
11967, -0.0012771072797477245, -0.002627464709803462, -0.19258415699005127, 0.17397774755954742, -0.23082047700881958, 0.034305915236473083, -0.0017853977624326944, -0.004475134890526533, 1.0005747079849243, -0.5959854125976562, -1.3712742328643799, -0.12380047142505646, 0.0, 0.0, 0.0, 0, 0, 0, 0, 0, 0, -0.5959854125976562, -1.3712742328643799, -0.12380047142505646
11977, 0.00047272289521060884, -0.0030011774506419897, -0.19347481429576874, 0.08908548951148987, 0.04677608609199524, -0.11119447648525238, -0.0016961615765467286, -0.0030106506310403347, 0.9984639286994934, -0.5973901748657227, -1.3743618726730347, -0.12407825142145157, 0.0, 0.0, 0.0, 0, 0, 0, 0, 0, 0, -0.5973901748657227, -1.3743618726730347, -0.12407825142145157
11987, -0.00010897713218582794, -0.0027093023527413607, -0.1943865716457367, -0.0337563194334507, -0.07195371389389038, -0.14848177134990692, -0.001995327416807413, -0.0007676620734855533, 1.0002264976501465, -0.5987964272499084, -1.3774523735046387, -0.12435668706893921, 0.0, 0.0, 0.0, 0, 0, 0, 0, 0, 0, -0.5987964272499084, -1.3774523735046387, -0.12435668706893921
11997, 0.0003321067779324949, -0.002469397149980068, -0.19440233707427979, 0.18981727957725525, 0.04669060930609703, -0.22358468174934387, -0.0019325398607179523, -0.000996505143120885, 0.9982337355613708, -0.6002042889595032, -1.3805440664291382, -0.12463589012622833, 0.0, 0.0, 0.0, 0, 0, 0, 0, 0, 0, -0.6002042889595032, -1.3805440664291382, -0.12463589012622833
12007, 0.00013529640273191035, -0.004071167670190334, -0.19501596689224243, 0.043175242841243744, 0.06507694721221924, 0.047256868332624435, -0.004415683913975954, -0.0031183669343590736, 1.0011184215545654, -0.6016143560409546, -1.3836368322372437, -0.12491574883460999, 0.0, 0.0, 0.0, 0, 0, 0, 0, 0, 0, -0.6016143560409546, -1.3836368322372437, -0.12491574883460999
12017, 0.0008797937771305442, -0.0040397425182163715, -0.19542482495307922, -0.022089054808020592, 0.29677173495292664, -0.1950424164533615, -0.00205982755869627, -0.005292980466037989, 1.000806450843811, -0.60302734375, -1.386732578277588, -0.12519532442092896, 0.0, 0.0, 0.0, 0, 0, 0, 0, 0, 0, -0.60302734375, -1.386732578277588, -0.12519532442092896
12027, 0.000778663030359894, -0.005394092760980129, -0.1951838880777359, 0.03134375065565109, -0.24715448915958405, 0.132476806640625, -0.0028484631329774857, -0.002413618378341198, 0.9996554255485535, -0.6044432520866394, -1.389832615852356, -0.12547391653060913, 0.0, 0.0, 0.0, 0, 0, 0, 0, 0, 0, -0.6044432520866394, -1.389832615852356, -0.12547391653060913
12037, 0.001361222704872489, -0.004666847176849842, -0.19518336653709412, -0.10279364138841629, -0.18765635788440704, 0.14263127744197845, -0.002326791640371084, -0.0036043664440512657, 0.998802900314331, -0.6058614253997803, -1.3929359912872314, -0.12575243413448334, 0.0, 0.0, 0.0, 0, 0, 0, 0, 0, 0, -0.6058614253997803, -1.3929359912872314, -0.12575243413448334
12047, 0.001309976214542985, -0.0044104428961873055, -0.1934540569782257, -0.048883967101573944, 0.09069527685642242, 0.14702634513378143, -0.0007326976046897471, -0.0038826775271445513, 0.998834490776062, -0.6072816252708435, -1.3960425853729248, -0.12603186070919037, 0.0, 0.0, 0.0, 0, 0, 0, 0, 0, 0, -0.6072816252708435, -1.3960425853729248, -0.12603186070919037
12057, 0.0009640710195526481, -0.005871329922229052, -0.19342243671417236, 0.016466686502099037, -0.026712343096733093, -0.08789036422967911, -0.0016700034029781818, -0.0034772297367453575, 1.0008138418197632, -0.6087031960487366, -1.3991529941558838, -0.1263120472431183, 0.0, 0.0, 0.0, 0, 0, 0, 0, 0, 0, -0.6087031960487366, -1.3991529941558838, -0.1263120472431183
12067, 0.0012824403820559382, -0.00660730991512537, -0.19417455792427063, 0.22416457533836365, 0.037962425500154495, 0.12711189687252045, -0.0038395989686250687, -0.005659152287989855, 0.9980278611183167, -0.6101264953613281, -1.402267336845398, -0.1265922635793686, 0.0, 0.0, 0.0, 0, 0, 0, 0, 0, 0, -0.6101264953613281, -1.402267336845398, -0.1265922635793686
12077, 0.002502359915524721, -0.005967651028186083, -0.19437630474567413, 0.016304872930049896, 0.07109435647726059, 0.05731881037354469, -0.0013134102337062359, -0.004178172908723354, 0.9986051321029663, -0.6115525960922241, -1.4053864479064941, -0.1268734186887741, 0.0, 0.0, 0.0, 0, 0, 0, 0, 0, 0, -0.6115525960922241, -1.4053864479064941, -0.1268734186887741
12087, 0.0030808441806584597, -0.005351165309548378, -0.19576780498027802, -0.039931055158376694, -0.16209758818149567, 0.008760932832956314, -0.002149963518604636, -0.0037226907443255186, 0.9994335174560547, -0.6129810214042664, -1.4085102081298828, -0.12715613842010498, 0.0, 0.0, 0.0, 0, 0, 0, 0, 0, 0, -0.6129810214042664, -1.4085102081298828, -0.12715613842010498
12097, 0.002436942420899868, -0.004248376004397869, -0.1956125646829605, -0.008102551102638245, -0.16114091873168945, 0.0676509216427803, -0.0021875391248613596, -0.004093680065125227, 0.9993058443069458, -0.6144111752510071, -1.411637783050537, -0.1274397224187851, 0.0, 0.0, 0.0, 0, 0, 0, 0, 0, 0, -0.6144111752510071, -1.411637783050537, -0.1274397224187851
12107, 0.0025240664836019278, -0.0015797154046595097, -0.19446083903312683, -0.011781194247305393, -0.5295546650886536, 0.027187345549464226, -0.0038515697233378887, -0.0013641081750392914, 0.9999016523361206, -0.615843653678894, -1.4147688150405884, -0.12772367894649506, 0.0, 0.0, 0.0, 0, 0, 0, 0, 0, 0, -0.615843653678894, -1.4147688150405884, -0.12772367894649506
12117, 0.003734548343345523, 0.0009526016656309366, -0.1934019923210144, 0.047229766845703125, -0.018143130466341972, 0.019429726526141167, -0.0027179804164916277, -0.005698091816157103, 0.9987450242042542, -0.6172788143157959, -1.4179027080535889, -0.1280081570148468, 0.0, 0.0, 0.0, 0, 0, 0, 0, 0, 0, -0.6172788143157959, -1.4179027080535889, -0.1280081570148468
12127, 0.0029112843330949545, 0.0008985235472209752, -0.19401168823242188, -0.008752002380788326, -0.008036925457417965, -0.04039234295487404, -0.002952738432213664, -0.004036381375044584, 0.9991783499717712, -0.6187169551849365, -1.421040415763855, -0.12829361855983734, 0.0, 0.0, 0.0, 0, 0, 0, 0, 0, 0, -0.6187169551849365, -1.421040415763855, -0.12829361855983734
12137, 0.0030894719529896975, 0.0003925638156943023, -0.1942588984966278, -0.11695202440023422, -0.30948856472969055, 0.06250958144664764, -0.0019848609808832407, -0.0027288354467600584, 1.000333309173584, -0.6201580166816711, -1.424182653427124, -0.12857982516288757, 0.0, 0.0, 0.0, 0, 0, 0, 0, 0, 0, -0.6201580166816711, -1.424182653427124, -0.12857982516288757
12147, 0.0034865872003138065, 0.0013627170119434595, -0.19288820028305054, 0.04558524861931801, 0.04585186392068863, -0.05772995576262474, 7.120997906895354e-05, -0.0027149508241564035, 0.9996429085731506, -0.6216011047363281, -1.4273282289505005, -0.1288660764694214, 0.0, 0.0, 0.0, 0, 0, 0, 0, 0, 0, -0.6216011047363281, -1.4273282289505005, -0.1288660764694214
12157, 0.0033888923935592175, 5.682547634933144e-05, -0.19223915040493011, 0.08898568898439407, -0.005458436440676451, -0.039182983338832855, -0.0016501439968124032, -0.003377692075446248, 0.9992555975914001, -0.6230449676513672, -1.4304766654968262, -0.12915247678756714, 0.0, 0.0, 0.0, 0, 0, 0, 0, 0, 0, -0.6230449676513672, -1.4304766654968262, -0.12915247678756714
12167, 0.003481067018583417, 0.0028851530514657497, -0.1928005963563919, -0.2314971387386322, 0.15074126422405243, -0.004104188177734613, -0.0014911508187651634, -0.0028181211091578007, 0.9986979961395264, -0.6244897842407227, -1.4336283206939697, -0.12943953275680542, 0.0, 0.0, 0.0, 0, 0, 0, 0, 0, 0, -0.6244897842407227, -1.4336283206939697, -0.12943953275680542
12177, 0.003721594111993909, 0.003526089945808053, -0.1938093602657318, -0.0004263205628376454, -0.047712769359350204, -0.04975143074989319, -0.002030289499089122, -0.002128021791577339, 0.9992784261703491, -0.6259363889694214, -1.4367830753326416, -0.12972760200500488, 0.0, 0.0, 0.0, 0, 0, 0, 0, 0, 0, -0.6259363889694214, -1.4367830753326416, -0.12972760200500488
12187, 0.004312078934162855, 0.003653458086773753, -0.19338317215442657, 0.16185806691646576, -0.03505578637123108, 0.08647903800010681, -9.126134682446718e-05, -0.004252039827406406, 0.9990879893302917, -0.627384603023529, -1.439940333366394, -0.13001666963100433, 0.0, 0.0, 0.0, 0, 0, 0, 0, 0, 0, -0.627384603023529, -1.439940333366394, -0.13001666963100433
12197, 0.005660070106387138, 0.0048457421362400055, -0.19382914900779724, 0.028941089287400246, -0.2171018421649933, -0.032941676676273346, -0.001526756677776575, -0.003682038513943553, 1.0010238885879517, -0.6288335919380188, -1.4431008100509644, -0.13030634820461273, 0.0, 0.0, 0.0, 0, 0, 0, 0, 0, 0, -0.6288335919380188, -1.4431008100509644, -0.13030634820461273
12207, 0.00603819452226162, 0.00443582609295845, -0.1936408281326294, 0.1800805926322937, 0.094466932117939, -0.0489056333899498, -0.001673601334914565, -0.00483910134062171, 0.9999577403068542, -0.6302832961082458, -1.4462653398513794, -0.1305956095457077, 0.0, 0.0, 0.0, 0, 0, 0, 0, 0, 0, -0.6302832961082458, -1.4462653398513794, -0.1305956095457077
12217, 0.006225099321454763, 0.004808018449693918, -0.1937256157398224, 0.0038584466092288494, -0.08932609856128693, -0.12331286817789078, -0.0017925100401043892, -0.0035176915116608143, 0.9991472959518433, -0.6317344903945923, -1.4494341611862183, -0.13088448345661163, 0.0, 0.0, 0.0, 0, 0, 0, 0, 0, 0, -0.6317344903945923, -1.4494341611862183, -0.13088448345661163
12227, 0.005502576939761639, 0.004264765419065952, -0.19518356025218964, -0.18813832104206085, 0.10112260282039642, -0.24524502456188202, -0.0030178981833159924, -0.0027594035491347313, 0.9990671873092651, -0.6331877112388611, -1.4526070356369019, -0.1311740279197693, 0.0, 0.0, 0.0, 0, 0, 0, 0, 0, 0, -0.6331877112388611, -1.4526070356369019, -0.1311740279197693
12237, 0.004334139171987772, 0.0033039904665201902, -0.19577494263648987, -0.07674434781074524, 0.28576165437698364, -0.14575712382793427, -0.0025916541926562786, -0.002479138784110546, 0.9984176158905029, -0.6346437931060791, -1.4557827711105347, -0.13146471977233887, 0.0, 0.0, 0.0, 0, 0, 0, 0, 0, 0, -0.6346437931060791, -1.4557827711105347, -0.13146471977233887
12247, 0.004414931405335665, 0.0024258296471089125, -0.1950024664402008, 0.15880921483039856, -0.32011207938194275, -0.05120173096656799, -0.0029362051282078028, -0.00463121198117733, 1.0012376308441162, -0.636103093624115, -1.4589611291885376, -0.1317564845085144, 0.0, 0.0, 0.0, 0, 0, 0, 0, 0, 0, -0.636103093624115, -1.4589611291885376, -0.1317564845085144
12257, 0.0046781389974057674, 0.002316364087164402, -0.19671037793159485, -0.07903359830379486, 0.056870222091674805, -0.20585450530052185, 0.0011090062325820327, -0.0036945168394595385, 0.9985367655754089, -0.6375647783279419, -1.4621433019638062, -0.1320483237504959, 0.0, 0.0, 0.0, 0, 0, 0, 0, 0, 0, -0.6375647783279419, -1.4621433019638062, -0.1320483237504959
12267, 0.003839696990326047, 0.0018982640467584133, -0.19715172052383423, 0.11936914175748825, 0.06665737181901932, -0.21279370784759521, -0.0017847723793238401, -0.0029357492458075285, 0.9995751976966858, -0.6390271782875061, -1.4653294086456299, -0.13234049081802368, 0.0, 0.0, 0.0, 0, 0, 0, 0, 0, 0, -0.6390271782875061, -1.4653294086456299, -0.13234049081802368
12277, 0.004313747398555279, 0.0017507292795926332, -0.1978836953639984, 0.0960870161652565, 0.06970913708209991, -0.17435674369335175, -0.0021985755302011967, -0.0032675156835466623, 1.000129222869873, -0.6404905915260315, -1.4685187339782715, -0.13263347744941711, 0.0, 0.0, 0.0, 0, 0, 0, 0, 0, 0, -0.6404905915260315, -1.4685187339782715, -0.13263347744941711
12287, 0.005260231904685497, 0.0006111004622653127, -0.1974097341299057, 0.01451930869370699, 0.06615255028009415, 0.12430757284164429, -0.002106012310832739, -0.004398013465106487, 1.0009950399398804, -0.6419562697410583, -1.4717113971710205, -0.13292640447616577, 0.0, 0.0, 0.0, 0, 0, 0, 0, 0, 0, -0.6419562697410583, -1.4717113971710205, -0.13292640447616577
12297, 0.0056998953223228455, -0.0005168311763554811, -0.19666513800621033, 0.08366058021783829, -0.03506309539079666, 0.1988089680671692, -0.0012253551976755261, -0.002537870081141591, 0.999600887298584, -0.6434239149093628, -1.4749078750610352, -0.1332188844680786, 0.0, 0.0, 0.0, 0, 0, 0, 0, 0, 0, -0.6434239149093628, -1.4749078750610352, -0.1332188844680786
12307, 0.005097011104226112, -0.0009146383963525295, -0.19776763021945953, 0.16930311918258667, -0.07938667386770248, 0.15504813194274902, -0.001795875490643084, -0.00310940551571548, 1.0010813474655151, -0.6448930501937866, -1.478107213973999, -0.13351093232631683, 0.0, 0.0, 0.0, 0, 0, 0, 0, 0, 0, -0.6448930501937866, -1.478107213973999, -0.13351093232631683
12317, 0.005349590443074703, -0.00015517436258960515, -0.19629725813865662, -0.013479062356054783, -0.056050125509500504, 0.20743130147457123, -0.0032033531460911036, -0.004606026690453291, 0.9996526837348938, -0.6463639736175537, -1.4813096523284912, -0.13380253314971924, 0.0, 0.0, 0.0, 0, 0, 0, 0, 0, 0, -0.6463639736175537, -1.4813096523284912, -0.13380253314971924
12327, 0.0047727469354867935, -0.0009632424334995449, -0.19506603479385376, 0.07668498903512955, 0.2517441511154175, 0.0026044605765491724, -0.003042193129658699, -0.0010518499184399843, 1.0006935596466064, -0.6478375792503357, -1.48451566696167, -0.13409382104873657, 0.0, 0.0, 0.0, 0, 0, 0, 0, 0, 0, -0.6478375792503357, -1.48451566696167, -0.13409382104873657
12337, 0.003748029936105013, -0.001467728754505515, -0.19395127892494202, -0.0721960961818695, -0.04238782078027725, 0.022606568410992622, -0.003186445450410247, -0.0017633497482165694, 1.0013326406478882, -0.6493142247200012, -1.487723708152771, -0.1343846172094345, 0.0, 0.0, 0.0, 0, 0, 0, 0, 0, 0, -0.6493142247200012, -1.487723708152771, -0.1343846172094345
12347, 0.0022604826372116804, -0.0005271591944620013, -0.19546426832675934, 0.0054980372078716755, 0.05504601448774338, -0.033897578716278076, -0.001735479338094592, -0.004388855770230293, 0.9993553757667542, -0.6507936716079712, -1.4909335374832153, -0.13467466831207275, 0.0, 0.0, 0.0, 0, 0, 0, 0, 0, 0, -0.6507936716079712, -1.4909335374832153, -0.13467466831207275
12357, 0.003105943091213703, -0.001046805176883936, -0.19285181164741516, 0.08034056425094604, -0.14173178374767303, 0.1286935955286026, 0.000326488574501127, -0.0023011735174804926, 1.0004500150680542, -0.652274489402771, -1.4941465854644775, -0.13496431708335876, 0.0, 0.0, 0.0, 0, 0, 0, 0, 0, 0, -0.652274489402771, -1.4941465854644775, -0.13496431708335876
12367, 0.0034660298842936754, 0.00019993232854176313, -0.19406649470329285, 0.12495741993188858, -0.2361435890197754, -0.08365011215209961, -0.002088542329147458, -0.00225891568697989, 0.9987349510192871, -0.6537558436393738, -1.4973626136779785, -0.13525383174419403, 0.0, 0.0, 0.0, 0, 0, 0, 0, 0, 0, -0.6537558436393738, -1.4973626136779785, -0.13525383174419403
12377, 0.003204359207302332, 0.0018150245305150747, -0.194473534822464, 0.058583278208971024, 0.08594738692045212, -0.20116867125034332, -0.0014728307723999023, -0.004355357959866524, 0.9974959492683411, -0.6552385091781616, -1.5005812644958496, -0.13554440438747406, 0.0, 0.0, 0.0, 0, 0, 0, 0, 0, 0, -0.6552385091781616, -1.5005812644958496, -0.13554440438747406
12387, 0.002735039684921503, 0.0011417621280997992, -0.1952512413263321, -0.11344596743583679, 0.10469220578670502, 0.06772315502166748, -0.000590447336435318, -0.0036342181265354156, 1.0003434419631958, -0.6567227244377136, -1.5038036108016968, -0.1358364224433899, 0.0, 0.0, 0.0, 0, 0, 0, 0, 0, 0, -0.6567227244377136, -1.5038036108016968, -0.1358364224433899
12397, 0.003252548398450017, 9.669541759649292e-05, -0.19488848745822906, -0.014647122472524643, 0.2783249020576477, -0.019333304837346077, -0.001866337493993342, -0.0037208921276032925, 1.000382423400879, -0.6582080125808716, -1.50702965259552, -0.1361287385225296, 0.0, 0.0, 0.0, 0, 0, 0, 0, 0, 0, -0.6582080125808716, -1.50702965259552, -0.1361287385225296
12407, 0.0033050619531422853, -0.0014794529415667057, -0.19410036504268646, 0.023585014045238495, 0.2571411728858948, 0.18615533411502838, -0.0007325041224248707, -0.0027366785798221827, 1.000352382659912, -0.6596945524215698, -1.5102591514587402, -0.1364208161830902, 0.0, 0.0, 0.0, 0, 0, 0, 0, 0, 0, -0.6596945524215698, -1.5102591514587402, -0.1364208161830902
12417, 0.0035833052825182676, -0.0024603563360869884, -0.19461432099342346, 0.08177528530359268, 0.11104445904493332, 0.0931038185954094, 0.0016459901817142963, -0.0042498111724853516, 0.9993420839309692, -0.6611818671226501, -1.5134919881820679, -0.1367127001285553, 0.0, 0.0, 0.0, 0, 0, 0, 0, 0, 0, -0.6611818671226501, -1.5134919881820679, -0.1367127001285553
12427, 0.004509014543145895, -0.0030502581503242254, -0.19416500627994537, 0.200301855802536, -0.3401213586330414, 0.06775406748056412, -0.0005792947486042976, -0.004143847152590752, 0.998627245426178, -0.6626685261726379, -1.5167288780212402, -0.13700491189956665, 0.0, 0.0, 0.0, 0, 0, 0, 0, 0, 0, -0.6626685261726379, -1.5167288780212402, -0.13700491189956665
12437, 0.004703575279563665, -0.003510879585519433, -0.1945103257894516, 0.07162795215845108, 0.055768609046936035, 0.14725063741207123, -0.00204542581923306, -0.0028638045769184828, 0.9996806383132935, -0.6641548275947571, -1.5199700593948364, -0.13729780912399292, 0.0, 0.0, 0.0, 0, 0, 0, 0, 0, 0, -0.6641548275947571, -1.5199700593948364, -0.13729780912399292
12447, 0.0039053913205862045, -0.003197444835677743, -0.19458015263080597, -0.08528570830821991, -0.0052667888812720776, -0.16481751203536987, -0.002051551127806306, -0.0013670494081452489, 1.0005923509597778, -0.665642499923706, -1.5232142210006714, -0.13759107887744904, 0.0, 0.0, 0.0, 0, 0, 0, 0, 0, 0, -0.665642499923706, -1.5232142210006714, -0.13759107887744904
12457, 0.004037016537040472, -0.004559300374239683, -0.19423110783100128, 0.19357939064502716, 0.17070145905017853, -0.04261571913957596, -0.0015790362376719713, -0.0035457918420434, 0.999224841594696, -0.6671319603919983, -1.5264605283737183, -0.1378844976425171, 0.0, 0.0, 0.0, 0, 0, 0, 0, 0, 0, -0.6671319603919983, -1.5264605283737183, -0.1378844976425171
12467, 0.004434923641383648, -0.005623800214380026, -0.1944861114025116, -0.09169688820838928, 0.04269568249583244, -0.15116268396377563, -0.003192145610228181, -0.004668343812227249, 0.9994584321975708, -0.6686234474182129, -1.5297099351882935, -0.13817811012268066, 0.0, 0.0, 0.0, 0, 0, 0, 0, 0, 0, -0.6686234474182129, -1.5297099351882935, -0.13817811012268066
12477, 0.0036399783566594124, -0.0054341452196240425, -0.1959884613752365, -0.15070901811122894, -0.023312261328101158, -0.10698378086090088, -0.0014210197841748595, -0.005118539556860924, 0.9995843172073364, -0.6701173782348633, -1.532963752746582, -0.13847219944000244, 0.0, 0.0, 0.0, 0, 0, 0, 0, 0, 0, -0.6701173782348633, -1.532963752746582, -0.13847219944000244
12487, 0.0036041021812707186, -0.00458744540810585, -0.19448858499526978, -0.027905093505978584, 0.3257768452167511, -0.007613546214997768, -0.00042231741826981306, -0.002881665015593171, 0.9988188743591309, -0.6716129779815674, -1.536221981048584, -0.13876678049564362, 0.0, 0.0, 0.0, 0, 0, 0, 0, 0, 0, -0.6716129779815674, -1.536221981048584, -0.13876678049564362
12497, 0.0030094338580965996, -0.00473930686712265, -0.1949634999036789, 0.06310831755399704, -0.17116601765155792, 0.07991411536931992, -0.0016585448756814003, -0.0017240016022697091, 0.9982924461364746, -0.6731091737747192, -1.5394834280014038, -0.1390620917081833, 0.0, 0.0, 0.0, 0, 0, 0, 0, 0, 0, -0.6731091737747192, -1.5394834280014038, -0.1390620917081833
12507, 0.0035212081857025623, -0.004812999628484249, -0.19574953615665436, 0.19203467667102814, 0.03573905676603317, -0.13415849208831787, -0.0030181920155882835, -0.00028696999652311206, 0.9992547035217285, -0.6746068596839905, -1.5427464246749878, -0.1393587589263916, 0.0, 0.0, 0.0, 0, 0, 0, 0, 0, 0, -0.6746068596839905, -1.5427464246749878, -0.1393587589263916
12517, 0.0033042975701391697, -0.006522846408188343, -0.19632428884506226, -0.007031926419585943, 0.2489313930273056, -0.0037289499305188656, -0.0016361754387617111, -0.0030223322100937366, 1.0015712976455688, -0.6761069297790527, -1.5460103750228882, -0.13965623080730438, 0.0, 0.0, 0.0, 0, 0, 0, 0, 0, 0, -0.6761069297790527, -1.5460103750228882, -0.13965623080730438
12527, 0.0034398490097373724, -0.00904854666441679, -0.19577138125896454, -0.06624307483434677, 0.28469735383987427, 0.17252202332019806, -0.002135709160938859, -0.003978502470999956, 1.0018057823181152, -0.6776087880134583, -1.5492767095565796, -0.13995292782783508, 0.0, 0.0, 0.0, 0, 0, 0, 0, 0, 0, -0.6776087880134583, -1.5492767095565796, -0.13995292782783508
12537, 0.002339874627068639, -0.011236462742090225, -0.1957952082157135, -0.004867881070822477, 0.15393371880054474, -0.061170052736997604, -0.0026796148158609867, -0.003330392064526677, 0.999515950679779, -0.6791125535964966, -1.5525466203689575, -0.14024823904037476, 0.0, 0.0, 0.0, 0, 0, 0, 0, 0, 0, -0.6791125535964966, -1.5525466203689575, -0.14024823904037476
12547, 0.002507343888282776, -0.011445627547800541, -0.1967734694480896, -0.03430908918380737, 0.003982336260378361, 0.11197003722190857, -0.0004764366603922099, -0.0012895868858322501, 1.0000666379928589, -0.6806182265281677, -1.5558196306228638, -0.1405431032180786, 0.0, 0.0, 0.0, 0, 0, 0, 0, 0, 0, -0.6806182265281677, -1.5558196306228638, -0.1405431032180786
12557, 0.001610588631592691, -0.011876914650201797, -0.195574551820755, 0.10937194526195526, 0.1108509972691536, -0.004022818524390459, -0.0008779444033280015, -0.00528364721685648, 1.0007349252700806, -0.6821247339248657, -1.5590952634811401, -0.14083802700042725, 0.0, 0.0, 0.0, 0, 0, 0, 0, 0, 0, -0.6821247339248657, -1.5590952634811401, -0.14083802700042725
12567, 0.0016985054826363921, -0.010410767048597336, -0.19568592309951782, 0.09523831307888031, -0.13705463707447052, 0.024405723437666893, 0.00019555700419005007, -0.005495903082191944, 0.9996474385261536, -0.6836315393447876, -1.5623749494552612, -0.14113250374794006, 0.0, 0.0, 0.0, 0, 0, 0, 0, 0, 0, -0.6836315393447876, -1.5623749494552612, -0.14113250374794006
12577, 0.002175502013415098, -0.011528284288942814, -0.19611820578575134, -0.043982964009046555, 0.02872908115386963, -0.07657027989625931, -0.0024992888793349266, -0.0029020572546869516, 0.999873161315918, -0.6851387023925781, -1.565659761428833, -0.14142675697803497, 0.0, 0.0, 0.0, 0, 0, 0, 0, 0, 0, -0.6851387023925781, -1.565659761428833, -0.14142675697803497
12587, 0.0012883392628282309, -0.013592786155641079, -0.19485324621200562, 0.013877497054636478, -0.13350272178649902, 0.2369248867034912, -0.0021283358801156282, -0.0032985182479023933, 1.000941514968872, -0.6866471767425537, -1.5689481496810913, -0.14172089099884033, 0.0, 0.0, 0.0, 0, 0, 0, 0, 0, 0, -0.6866471767425537, -1.5689481496810913, -0.14172089099884033
12597, 0.0008480454562231898, -0.012530354782938957, -0.1945612132549286, -0.022653233259916306, -0.06730067729949951, -0.031925853341817856, -0.0014576485846191645, -0.0034577997867017984, 0.9993762969970703, -0.6881576776504517, -1.5722395181655884, -0.14201465249061584, 0.0, 0.0, 0.0, 0, 0, 0, 0, 0, 0, -0.6881576776504517, -1.5722395181655884, -0.14201465249061584
12607, 0.0015650942223146558, -0.011584368534386158, -0.19417919218540192, -0.007961306720972061, 0.05923348292708397, -0.048233792185783386, -2.394777948211413e-05, -0.004563094116747379, 1.0002363920211792, -0.6896693110466003, -1.5755342245101929, -0.14230868220329285, 0.0, 0.0, 0.0, 0, 0, 0, 0, 0, 0, -0.6896693110466003, -1.5755342245101929, -0.14230868220329285
12617, 0.0026036968920379877, -0.011198955588042736, -0.19486920535564423, 0.045094188302755356, -0.08499152958393097, -0.14305533468723297, 0.00034878816222772, -0.004626547452062368, 1.0008052587509155, -0.6911811828613281, -1.5788332223892212, -0.14260268211364746, 0.0, 0.0, 0.0, 0, 0, 0, 0, 0, 0, -0.6911811828613281, -1.5788332223892212, -0.14260268211364746
12627, 0.0022099551279097795, -0.012155955657362938, -0.1941021829843521, -0.043558839708566666, 0.1544555425643921, -0.043603572994470596, -0.002126853447407484, -0.005708605516701937, 1.0006707906723022, -0.692693293094635, -1.582137107849121, -0.1428961455821991, 0.0, 0.0, 0.0, 0, 0, 0, 0, 0, 0, -0.692693293094635, -1.582137107849121, -0.1428961455821991
12637, 0.0020356725435703993, -0.012847378849983215, -0.19535724818706512, -0.1150839701294899, -0.289389044046402, -0.020191740244627, -0.0018435337115079165, -0.005184348206967115, 1.0001254081726074, -0.6942064166069031, -1.5854463577270508, -0.1431889533996582, 0.0, 0.0, 0.0, 0, 0, 0, 0, 0, 0, -0.6942064166069031, -1.5854463577270508, -0.1431889533996582
12647, 0.002650646725669503, -0.01208372414112091, -0.19476807117462158, 0.197635218501091, -0.127346932888031, -0.11254201829433441, -0.0012319018132984638, -0.00543326698243618, 0.9994019269943237, -0.6957210302352905, -1.5887610912322998, -0.14348116517066956, 0.0, 0.0, 0.0, 0, 0, 0, 0, 0, 0, -0.6957210302352905, -1.5887610912322998, -0.14348116517066956
12657, 0.0033701607026159763, -0.010316834785044193, -0.19458621740341187, 0.05477254465222359, -0.34301355481147766, -0.044048797339200974, -0.00040607148548588157, -0.003270883811637759, 1.000422477722168, -0.6972367763519287, -1.5920809507369995, -0.14377357065677643, 0.0, 0.0, 0.0, 0, 0, 0, 0, 0, 0, -0.6972367763519287, -1.5920809507369995, -0.14377357065677643
12667, 0.0034187370911240578, -0.011356974020600319, -0.19395999610424042, 0.03365683928132057, 0.31383517384529114, 0.19659236073493958, -0.00037746995803900063, -0.0048085474409163, 0.9983437657356262, -0.6987531781196594, -1.595405101776123, -0.14406628906726837, 0.0, 0.0, 0.0, 0, 0, 0, 0, 0, 0, -0.6987531781196594, -1.595405101776123, -0.14406628906726837
12677, 0.0036451604682952166, -0.012228311039507389, -0.1934884786605835, -0.10322456806898117, -0.07533631473779678, -0.04377809911966324, 0.0005888069281354547, -0.005265440326184034, 0.9983980655670166, -0.7002698183059692, -1.598733901977539, -0.14435985684394836, 0.0, 0.0, 0.0, 0, 0, 0, 0, 0, 0, -0.7002698183059692, -1.598733901977539, -0.14435985684394836
12687, 0.003727422561496496, -0.012847872450947762, -0.1933874636888504, -0.0676671490073204, 0.06354323774576187, -0.10869639366865158, -0.002785710385069251, -0.0028018136508762836, 0.9984135627746582, -0.7017865777015686, -1.6020673513412476, -0.14465492963790894, 0.0, 0.0, 0.0, 0, 0, 0, 0, 0, 0, -0.7017865777015686, -1.6020673513412476, -0.14465492963790894
12697, 0.0030834469944238663, -0.012971431016921997, -0.19482387602329254, 0.05327213555574417, 0.20161978900432587, -0.031167414039373398, -0.0008256100700236857, -0.00277048721909523, 1.000875473022461, -0.7033045887947083, -1.6054041385650635, -0.14495103061199188, 0.0, 0.0, 0.0, 0, 0, 0, 0, 0, 0, -0.7033045887947083, -1.6054041385650635, -0.14495103061199188
12707, 0.004110273905098438, -0.013540368527173996, -0.19420740008354187, -0.18642231822013855, -0.20012739300727844, 0.06599979847669601, -0.0009710160666145384, -0.004631004761904478, 0.9998287558555603, -0.7048238515853882, -1.6087437868118286, -0.14524705708026886, 0.0, 0.0, 0.0, 0, 0, 0, 0, 0, 0, -0.7048238515853882, -1.6087437868118286, -0.14524705708026886
12717, 0.0032568916212767363, -0.01254072692245245, -0.19569702446460724, -0.07439059764146805, 0.20724119246006012, -0.004580469336360693, -0.0021946446504443884, -0.005779831670224667, 0.9991087913513184, -0.7063440084457397, -1.6120879650115967, -0.14554312825202942, 0.0, 0.0, 0.0, 0, 0, 0, 0, 0, 0, -0.7063440084457397, -1.6120879650115967, -0.14554312825202942
12727, 0.00384351285174489, -0.011087344028055668, -0.1953635811805725, 0.035089634358882904, 0.13461029529571533, 0.05802011862397194, -0.002359634032472968, -0.005254965275526047, 0.999871551990509, -0.707865834236145, -1.615437626838684, -0.14584001898765564, 0.0, 0.0, 0.0, 0, 0, 0, 0, 0, 0, -0.707865834236145, -1.615437626838684, -0.14584001898765564
12737, 0.002783701755106449, -0.012963889166712761, -0.19477689266204834, -0.12435496598482132, 0.07733339071273804, 0.1961243897676468, -0.0017479424132034183, -0.0033630947582423687, 1.0002071857452393, -0.7093896269798279, -1.6187925338745117, -0.1461372673511505, 0.0, 0.0, 0.0, 0, 0, 0, 0, 0, 0, -0.7093896269798279, -1.6187925338745117, -0.1461372673511505
12747, 0.0019991693552583456, -0.013445757329463959, -0.19454573094844818, -0.11440503597259521, -0.20525038242340088, -0.06344138085842133, -0.0014644319890066981, -0.0035036320332437754, 0.9990791082382202, -0.7109149098396301, -1.6221516132354736, -0.14643466472625732, 0.0, 0.0, 0.0, 0, 0, 0, 0, 0, 0, -0.7109149098396301, -1.6221516132354736, -0.14643466472625732
12757, 0.0017064436106011271, -0.011442063376307487, -0.19561119377613068, -0.011159480549395084, -0.0037046021316200495, -0.22750207781791687, -0.0011738946195691824, -0.00448525371029973, 0.9993550777435303, -0.7124412655830383, -1.625514268875122, -0.1467326432466507, 0.0, 0.0, 0.0, 0, 0, 0, 0, 0, 0, -0.7124412655830383, -1.625514268875122, -0.1467326432466507
12767, 0.0010531750740483403, -0.010696695186197758, -0.1959875375032425, -0.009228070266544819, -0.12660740315914154, -0.02770882099866867, -0.0013871153350919485, -0.0030912163201719522, 0.998677670955658, -0.7139686346054077, -1.6288808584213257, -0.14703157544136047, 0.0, 0.0, 0.0, 0, 0, 0, 0, 0, 0, -0.7139686346054077, -1.6288808584213257, -0.14703157544136047
12777, 0.0006242488161660731, -0.011548301205039024, -0.19640161097049713, 0.11179967224597931, -0.0313526950776577, -0.17351871728897095, -0.002661636332049966, -0.003420823020860553, 1.0007771253585815, -0.7154970765113831, -1.6322510242462158, -0.1473311185836792, 0.0, 0.0, 0.0, 0, 0, 0, 0, 0, 0, -0.7154970765113831, -1.6322510242462158, -0.1473311185836792
12787, 0.0010341631714254618, -0.009712358936667442, -0.19729997217655182, -0.05279872193932533, -0.2871687710285187, 0.09612087905406952, -0.0027619691099971533, -0.0014880540547892451, 0.9998095035552979, -0.7170276045799255, -1.6356245279312134, -0.14763063192367554, 0.0, 0.0, 0.0, 0, 0, 0, 0, 0, 0, -0.7170276045799255, -1.6356245279312134, -0.14763063192367554
12797, 0.0008909871685318649, -0.007907073013484478, -0.19674691557884216, 0.13607868552207947, -0.10053277015686035, -0.1462429016828537, -0.00384874502196908, 0.000800697598606348, 1.0003706216812134, -0.7185609340667725, -1.6389997005462646, -0.14793023467063904, 0.0, 0.0, 0.0, 0, 0, 0, 0, 0, 0, -0.7185609340667725, -1.6389997005462646, -0.14793023467063904
12807, 0.0016328070778399706, -0.0078122285194695, -0.1964639574289322, -0.15263023972511292, -0.0393533781170845, -0.17561791837215424, -0.001939440262503922, -0.0010176936630159616, 1.0027227401733398, -0.7200973033905029, -1.6423749923706055, -0.1482292264699936, 0.0, 0.0, 0.0, 0, 0, 0, 0, 0, 0, -0.7200973033905029, -1.6423749923706055, -0.1482292264699936
12817, 0.0010603801347315311, -0.007433788385242224, -0.19591635465621948, -0.08768519014120102, -0.06481511145830154, -0.14678041636943817, 0.0006860035937279463, -0.00205004564486444, 0.9991101026535034, -0.7216356992721558, -1.6457511186599731, -0.14852650463581085, 0.0, 0.0, 0.0, 0, 0, 0, 0, 0, 0, -0.7216356992721558, -1.6457511186599731, -0.14852650463581085
12827, 0.001177107566036284, -0.006408760789781809, -0.19464290142059326, -0.008894476108253002, 0.09583502262830734, 0.15507544577121735, -0.0011306331725791097, -0.003045265097171068, 0.9999691247940063, -0.7231743931770325, -1.6491292715072632, -0.14882323145866394, 0.0, 0.0, 0.0, 0, 0, 0, 0, 0, 0, -0.7231743931770325, -1.6491292715072632, -0.14882323145866394
12837, 0.00029106150032021105, -0.0076977345161139965, -0.1954043060541153, 0.12758412957191467, -0.18174831569194794, -0.11667836457490921, -0.0014293284621089697, -0.0036189276725053787, 0.999972939491272, -0.7247136235237122, -1.652510166168213, -0.14912045001983643, 0.0, 0.0, 0.0, 0, 0, 0, 0, 0, 0, -0.7247136235237122, -1.652510166168213, -0.14912045001983643
12847, 0.0008459282689727843, -0.007564355619251728, -0.19614093005657196, -0.17119450867176056, 0.2595684826374054, -0.2643992304801941, -0.0020015297923237085, -0.0035279954317957163, 1.0000114440917969, -0.726254403591156, -1.6558942794799805, -0.14941778779029846, 0.0, 0.0, 0.0, 0, 0, 0, 0, 0, 0, -0.726254403591156, -1.6558942794799805, -0.14941778779029846
12857, 7.013738013483817e-06, -0.008744647726416588, -0.19674667716026306, 0.06597357988357544, 0.10007938742637634, 0.14670436084270477, -0.0005908714956603944, -0.005275418981909752, 1.0006074905395508, -0.727796733379364, -1.6592819690704346, -0.14971482753753662, 0.0, 0.0, 0.0, 0, 0, 0, 0, 0, 0, -0.727796733379364, -1.6592819690704346, -0.14971482753753662
12867, 0.0011617636773735285, -0.008551743812859058, -0.19567421078681946, 0.07025464624166489, -0.09675246477127075, 0.22518883645534515, -0.003311282256618142, -0.004322465043514967, 1.0001516342163086, -0.7293403744697571, -1.662674069404602, -0.15001143515110016, 0.0, 0.0, 0.0, 0, 0, 0, 0, 0, 0, -0.7293403744697571, -1.662674069404602, -0.15001143515110016
12877, 0.0003227870329283178, -0.008981302380561829, -0.19478116929531097, 0.007192052435129881, 0.10830710828304291, -0.050770290195941925, -0.0020601763390004635, -0.006058963946998119, 0.9976693987846375, -0.7308859825134277, -1.6660711765289307, -0.15030808746814728, 0.0, 0.0, 0.0, 0, 0, 0, 0, 0, 0, -0.7308859825134277, -1.6660711765289307, -0.15030808746814728
12887, 0.0006843660958111286, -0.012911399826407433, -0.19396331906318665, 0.12806914746761322, -0.06401466578245163, 0.1346932351589203, -0.0018018722767010331, -0.0039019465912133455, 0.9984675645828247, -0.7324339747428894, -1.6694735288619995, -0.15060639381408691, 0.0, 0.0, 0.0, 0, 0, 0, 0, 0, 0, -0.7324339747428894, -1.6694735288619995, -0.15060639381408691
12897, 0.0009138491586782038, -0.012469004839658737, -0.1938585788011551, -0.025436362251639366, -0.03889745473861694, 0.043788984417915344, -0.0004054738092236221, -0.005384691525250673, 0.9991302490234375, -0.7339833378791809, -1.6728805303573608, -0.15090645849704742, 0.0, 0.0, 0.0, 0, 0, 0, 0, 0, 0, -0.7339833378791809, -1.6728805303573608, -0.15090645849704742
12907, 0.00016279715055134147, -0.012841875664889812, -0.19407722353935242, 0.0007285555475391448, 0.14684675633907318, 0.16732992231845856, -0.004071725532412529, -0.004658143501728773, 0.9992572665214539, -0.7355336546897888, -1.6762921810150146, -0.15120738744735718, 0.0, 0.0, 0.0, 0, 0, 0, 0, 0, 0, -0.7355336546897888, -1.6762921810150146, -0.15120738744735718
12917, 0.0001246064784936607, -0.014119765721261501, -0.19243888556957245, -0.14326798915863037, 0.14514382183551788, -0.08749651163816452, -0.003985798917710781, -0.004354773089289665, 0.9975191354751587, -0.7370864152908325, -1.6797088384628296, -0.15150955319404602, 0.0, 0.0, 0.0, 0, 0, 0, 0, 0, 0, -0.7370864152908325, -1.6797088384628296, -0.15150955319404602
12927, -0.00011972809443250299, -0.0138191357254982, -0.19340965151786804, 0.01433476060628891, -0.2632495164871216, -0.06376314163208008, -0.0018302234821021557, -0.002914736745879054, 1.0025174617767334, -0.7386426329612732, -1.683129906654358, -0.15181289613246918, 0.0, 0.0, 0.0, 0, 0, 0, 0, 0, 0, -0.7386426329612732, -1.683129906654358, -0.15181289613246918
12937, -0.0007381268078461289, -0.013766882941126823, -0.19318650662899017, -0.07750419527292252, -0.0413716584444046, -0.01174296997487545, -0.001286765793338418, -0.002663357648998499, 1.0003374814987183, -0.7402011156082153, -1.6865544319152832, -0.15211568772792816, 0.0, 0.0, 0.0, 0, 0, 0, 0, 0, 0, -0.7402011156082153, -1.6865544319152832, -0.15211568772792816
12947, -0.0003864812897518277, -0.013115965761244297, -0.19417515397071838, -0.08729496598243713, -0.2796841859817505, -0.18177400529384613, -0.002207469195127487, -0.005413150414824486, 0.9993454217910767, -0.7417609095573425, -1.6899816989898682, -0.15241731703281403, 0.0, 0.0, 0.0, 0, 0, 0, 0, 0, 0, -0.7417609095573425, -1.6899816989898682, -0.15241731703281403
12957, -0.000412565132137388, -0.012479320168495178, -0.1941722333431244, 0.16696971654891968, -0.06671268492937088, 0.30834394693374634, -0.0012050558580085635, -0.003937787842005491, 0.999336302280426, -0.7433221340179443, -1.693413257598877, -0.15271922945976257, 0.0, 0.0, 0.0, 0, 0, 0, 0, 0, 0, -0.7433221340179443, -1.693413257598877, -0.15271922945976257
12967, 0.0005616978160105646, -0.010637443512678146, -0.19428521394729614, -0.09075574576854706, 0.0904063954949379, -0.0115418815985322, -0.0009064030018635094, -0.0021554019767791033, 0.9980278015136719, -0.7448844909667969, -1.6968493461608887, -0.1530221700668335, 0.0, 0.0, 0.0, 0, 0, 0, 0, 0, 0, -0.7448844909667969, -1.6968493461608887, -0.1530221700668335
12977, 0.0006326292641460896, -0.010173934511840343, -0.19283121824264526, -0.17204220592975616, -0.2638435661792755, -0.008588849566876888, -0.005126938223838806, -0.003953807987272739, 1.00042724609375, -0.7464481592178345, -1.7002884149551392, -0.15332648158073425, 0.0, 0.0, 0.0, 0, 0, 0, 0, 0, 0, -0.7464481592178345, -1.7002884149551392, -0.15332648158073425
12987, -0.0005656562861986458, -0.008781730197370052, -0.193663090467453, 0.01583869569003582, -0.271275132894516, 0.06821803003549576, -0.0032960055395960808, -0.003198409453034401, 1.0005054473876953, -0.7480151653289795, -1.703730583190918, -0.15363118052482605, 0.0, 0.0, 0.0, 0, 0, 0, 0, 0, 0, -0.7480151653289795, -1.703730583190918, -0.15363118052482605
12997, -0.0014202198944985867, -0.006136925891041756, -0.19400067627429962, 0.0735936090350151, -0.09541688114404678, -0.0021063643507659435, -0.0024629938416182995, -0.005987024866044521, 0.9985493421554565, -0.749585747718811, -1.707176685333252, -0.15393558144569397, 0.0, 0.0, 0.0, 0, 0, 0, 0, 0, 0, -0.749585747718811, -1.707176685333252, -0.15393558144569397
13007, -0.0015405177837237716, -0.005206783302128315, -0.1947544813156128, 0.10892324894666672, -0.10999713093042374, 0.09638885408639908, -0.001230467576533556, -0.005363171920180321, 0.9986371397972107, -0.7511587738990784, -1.7106274366378784, -0.15424080193042755, 0.0, 0.0, 0.0, 0, 0, 0, 0, 0, 0, -0.7511587738990784, -1.7106274366378784, -0.15424080193042755
13017, -0.001386892283335328, -0.004826236981898546, -0.1949371099472046, -0.02214648388326168, 0.036014948040246964, 0.059431858360767365, 0.00012462826271075755, -0.003278355346992612, 0.9993321895599365, -0.7527331709861755, -1.7140833139419556, -0.15454746782779694, 0.0, 0.0, 0.0, 0, 0, 0, 0, 0, 0, -0.7527331709861755, -1.7140833139419556, -0.15454746782779694
13027, -0.0022044084034860134, -0.006655053701251745, -0.19592754542827606, 0.009668057784438133, -0.2465197592973709, -0.1256316900253296, -0.0003160065389238298, -0.005586163140833378, 1.001023530960083, -0.7543078064918518, -1.7175434827804565, -0.15485480427742004, 0.0, 0.0, 0.0, 0, 0, 0, 0, 0, 0, -0.7543078064918518, -1.7175434827804565, -0.15485480427742004
13037, -0.0022630225867033005, -0.006265580654144287, -0.19530819356441498, 0.12818707525730133, 0.0016641305992379785, 0.018469994887709618, -0.0006041630986146629, -0.004302382003515959, 1.0010266304016113, -0.7558822631835938, -1.7210081815719604, -0.15516170859336853, 0.0, 0.0, 0.0, 0, 0, 0, 0, 0, 0, -0.7558822631835938, -1.7210081815719604, -0.15516170859336853
13047, -0.002020402578637004, -0.006200279109179974, -0.19687172770500183, 0.1768721640110016, -0.22442366182804108, 0.19575819373130798, -0.0018776481738314033, -0.004580740816891193, 1.0007463693618774, -0.7574571371078491, -1.7244775295257568, -0.155467689037323, 0.0, 0.0, 0.0, 0, 0, 0, 0, 0, 0, -0.7574571371078491, -1.7244775295257568, -0.155467689037323
13057, -0.0023278079461306334, -0.005194555502384901, -0.1965925395488739, -0.14865967631340027, 0.1614304929971695, 0.25084108114242554, -0.0003602748620323837, -0.0030503671150654554, 0.9984114170074463, -0.759033203125, -1.7279506921768188, -0.15577314794063568, 0.0, 0.0, 0.0, 0, 0, 0, 0, 0, 0, -0.759033203125, -1.7279506921768188, -0.15577314794063568
13067, -0.0023484830744564533, -0.007329526357352734, -0.19583360850811005, -0.06127103790640831, -0.025696320459246635, 0.12140624970197678, -0.001975057879462838, -0.004093306604772806, 0.9976476430892944, -0.7606102824211121, -1.731427550315857, -0.15607960522174835, 0.0, 0.0, 0.0, 0, 0, 0, 0, 0, 0, -0.7606102824211121, -1.731427550315857, -0.15607960522174835
13077, -0.002684027887880802, -0.007830915972590446, -0.19525562226772308, -0.17659661173820496, 0.23402275145053864, 0.13259702920913696, -0.0006889338255859911, -0.001826545805670321, 0.9987731575965881, -0.7621883749961853, -1.734908103942871, -0.15638822317123413, 0.0, 0.0, 0.0, 0, 0, 0, 0, 0, 0, -0.7621883749961853, -1.734908103942871, -0.15638822317123413
13087, -0.003106194781139493, -0.009296243079006672, -0.19635851681232452, -0.026522932574152946, -0.05962037295103073, -0.04433789849281311, -0.0027335090562701225, -0.003958902787417173, 1.000228762626648, -0.7637677788734436, -1.738391637802124, -0.1566982865333557, 0.0, 0.0, 0.0, 0, 0, 0, 0, 0, 0, -0.7637677788734436, -1.738391637802124, -0.1566982865333557
13097, -0.0029326980002224445, -0.008049797266721725, -0.19660188257694244, 0.05846383795142174, -0.157864511013031, 0.21339167654514313, -0.0022138189524412155, -0.0034003062173724174, 1.0003669261932373, -0.765349268913269, -1.7418783903121948, -0.157008558511734, 0.0, 0.0, 0.0, 0, 0, 0, 0, 0, 0, -0.765349268913269, -1.7418783903121948, -0.157008558511734
13107, -0.0035624562297016382, -0.008514654822647572, -0.19642183184623718, -0.16365334391593933, 0.07376474142074585, -0.10376785695552826, -0.0011176191037520766, -0.0037743865977972746, 1.0006883144378662, -0.7669330835342407, -1.7453688383102417, -0.15731853246688843, 0.0, 0.0, 0.0, 0, 0, 0, 0, 0, 0, -0.7669330835342407, -1.7453688383102417, -0.15731853246688843
13117, -0.004234722349792719, -0.00803392007946968, -0.19588151574134827, 0.005201183259487152, 0.07353277504444122, -0.15933731198310852, -0.0004268422781024128, -0.004017817322164774, 1.0005569458007812, -0.7685179710388184, -1.7488627433776855, -0.15762808918952942, 0.0, 0.0, 0.0, 0, 0, 0, 0, 0, 0, -0.7685179710388184, -1.7488627433776855, -0.15762808918952942
13127, -0.004884828347712755, -0.008451598696410656, -0.196698859333992, 0.12051562964916229, -0.004082248080521822, 0.094197578728199, -0.0016636321088299155, -0.0068775564432144165, 1.0005844831466675, -0.7701031565666199, -1.7523609399795532, -0.15793703496456146, 0.0, 0.0, 0.0, 0, 0, 0, 0, 0, 0, -0.7701031565666199, -1.7523609399795532, -0.15793703496456146
13137, -0.0035645661409944296, -0.00839773379266262, -0.19589434564113617, -0.03195111081004143, -0.159517303109169, -0.17004182934761047, -0.0023669865913689137, -0.005537417717278004, 1.0009835958480835, -0.7716897130012512, -1.7558648586273193, -0.15824538469314575, 0.0, 0.0, 0.0, 0, 0, 0, 0, 0, 0, -0.7716897130012512, -1.7558648586273193, -0.15824538469314575
13147, -0.004635683726519346, -0.009520084597170353, -0.1965227723121643, -0.28994935750961304, 0.18944789469242096, -0.18637947738170624, -0.0022489316761493683, -0.0020349223632365465, 1.0009022951126099, -0.7732784152030945, -1.7593740224838257, -0.15855297446250916, 0.0, 0.0, 0.0, 0, 0, 0, 0, 0, 0, -0.7732784152030945, -1.7593740224838257, -0.15855297446250916
13157, -0.00600649556145072, -0.00944286398589611, -0.19709613919258118, 0.18969504535198212, -0.03080805018544197, -0.3036137819290161, -0.0016969912685453892, -0.0026843238156288862, 1.001104712486267, -0.7748688459396362, -1.7628862857818604, -0.1588595062494278, 0.0, 0.0, 0.0, 0, 0, 0, 0, 0, 0, -0.7748688459396362, -1.7628862857818604, -0.1588595062494278
13167, -0.005040892865508795, -0.010889928787946701, -0.1980767846107483, -0.03852912038564682, 0.12494180351495743, -0.12125279754400253, -0.0017799478955566883, -0.004254430532455444, 1.0004469156265259, -0.776461124420166, -1.7664010524749756, -0.15916520357131958, 0.0, 0.0, 0.0, 0, 0, 0, 0, 0, 0, -0.776461124420166, -1.7664010524749756, -0.15916520357131958
13177, -0.004804286640137434, -0.01058888528496027, -0.1982097327709198, 0.17037376761436462, -0.10894239693880081, 0.07273361831903458, -0.00212017260491848, -0.003513091942295432, 1.0011584758758545, -0.77805495262146, -1.769919514656067, -0.15947021543979645, 0.0, 0.0, 0.0, 0, 0, 0, 0, 0, 0, -0.77805495262146, -1.769919514656067, -0.15947021543979645
13187, -0.0037499400787055492, -0.011275459080934525, -0.20048639178276062, 0.013792579062283039, -0.11506594717502594, -0.23630918562412262, -0.0018949400400742888, -0.0030956913251429796, 1.0008983612060547, -0.7796505093574524, -1.7734415531158447, -0.15977416932582855, 0.0, 0.0, 0.0, 0, 0, 0, 0, 0, 0, -0.7796505093574524, -1.7734415531158447, -0.15977416932582855
13197, -0.00381981348618865, -0.011320446617901325, -0.20102865993976593, 0.09166231006383896, -0.028986936435103416, 0.15535232424736023, -0.0011578727280721068, -0.003106116084381938, 1.0019429922103882, -0.7812477946281433, -1.7769664525985718, -0.16007675230503082, 0.0, 0.0, 0.0, 0, 0, 0, 0, 0, 0, -0.7812477946281433, -1.7769664525985718, -0.16007675230503082
13207, -0.0036050633061677217, -0.012430166825652122, -0.19991318881511688, -0.19656352698802948, 0.20266267657279968, -0.16997604072093964, -0.0019137772032991052, -0.003147776937112212, 1.0006111860275269, -0.7828463315963745, -1.780494213104248, -0.16037783026695251, 0.0, 0.0, 0.0, 0, 0, 0, 0, 0, 0, -0.7828463315963745, -1.780494213104248, -0.16037783026695251
13217, -0.003605381352826953, -0.013518990948796272, -0.199949711561203, -0.030930429697036743, -0.07297970354557037, 0.09294643253087997, -0.0016519819619134068, -0.0033262697979807854, 1.0022649765014648, -0.7844461798667908, -1.7840248346328735, -0.16067756712436676, 0.0, 0.0, 0.0, 0, 0, 0, 0, 0, 0, -0.7844461798667908, -1.7840248346328735, -0.16067756712436676
13227, -0.004583965986967087, -0.012805006466805935, -0.1997367888689041, -0.11597348749637604, 0.1809874176979065, -0.13370943069458008, -0.0014632500242441893, -0.005971288308501244, 1.0008805990219116, -0.7860472202301025, -1.7875590324401855, -0.1609761267900467, 0.0, 0.0, 0.0, 0, 0, 0, 0, 0, 0, -0.7860472202301025, -1.7875590324401855, -0.1609761267900467
13237, -0.004440849181264639, -0.013015145435929298, -0.20054692029953003, 0.09626610577106476, 0.1225869283080101, -0.03645079955458641, -0.00033193681156262755, -0.002621416701003909, 0.999973475933075, -0.7876490950584412, -1.7910975217819214, -0.16127339005470276, 0.0, 0.0, 0.0, 0, 0, 0, 0, 0, 0, -0.7876490950584412, -1.7910975217819214, -0.16127339005470276
13247, -0.0051249112002551556, -0.013390355743467808, -0.20076914131641388, -0.13144689798355103, 0.18321524560451508, -0.08810660243034363, -0.0012738282093778253, -0.00312324077822268, 0.9994625449180603, -0.789251446723938, -1.794639229774475, -0.16157016158103943, 0.0, 0.0, 0.0, 0, 0, 0, 0, 0, 0, -0.789251446723938, -1.794639229774475, -0.16157016158103943
13257, -0.005407827440649271, -0.014415253885090351, -0.2014704793691635, -0.0665062814950943, 0.11351250857114792, 0.1798190027475357, -0.0008903829148039222, -0.002733910921961069, 1.0006946325302124, -0.7908544540405273, -1.7981834411621094, -0.16186712682247162, 0.0, 0.0, 0.0, 0, 0, 0, 0, 0, 0, -0.7908544540405273, -1.7981834411621094, -0.16186712682247162
13267, -0.004977070260792971, -0.015815461054444313, -0.19859592616558075, 0.08288159966468811, 0.31813815236091614, -0.23333044350147247, -0.002332518110051751, -0.0022320279385894537, 1.0002753734588623, -0.7924584150314331, -1.8017303943634033, -0.16216395795345306, 0.0, 0.0, 0.0, 0, 0, 0, 0, 0, 0, -0.7924584150314331, -1.8017303943634033, -0.16216395795345306
13277, -0.005574607290327549, -0.016236385330557823, -0.19905142486095428, 0.04716535657644272, -0.25374048948287964, -0.08369538933038712, -0.002750494284555316, -0.0035110136959701777, 0.9989961981773376, -0.7940641045570374, -1.8052797317504883, -0.16246037185192108, 0.0, 0.0, 0.0, 0, 0, 0, 0, 0, 0, -0.7940641045570374, -1.8052797317504883, -0.16246037185192108
13287, -0.005455308593809605, -0.014056525193154812, -0.19954699277877808, 0.02165256440639496, -0.08660842478275299, -0.12444893270730972, -0.002817272674292326, -0.0030294875614345074, 1.000011920928955, -0.7956718802452087, -1.8088321685791016, -0.16275720298290253, 0.0, 0.0, 0.0, 0, 0, 0, 0, 0, 0, -0.7956718802452087, -1.8088321685791016, -0.16275720298290253
13297, -0.005106475669890642, -0.012340703047811985, -0.19958831369876862, 0.029179509729146957, 0.1611565202474594, 0.1791946142911911, -0.0012527635553851724, -0.0021084158215671778, 1.000779628753662, -0.7972816824913025, -1.812387466430664, -0.16305434703826904, 0.0, 0.0, 0.0, 0, 0, 0, 0, 0, 0, -0.7972816824913025, -1.812387466430664, -0.16305434703826904
13307, -0.0052426038309931755, -0.01433706283569336, -0.19934484362602234, 0.220537468791008, 0.12236477434635162, 0.041574396193027496, -0.002451346255838871, -0.002376584568992257, 0.9987503290176392, -0.7988932728767395, -1.815944790840149, -0.16335086524486542, 0.0, 0.0, 0.0, 0, 0, 0, 0, 0, 0, -0.7988932728767395, -1.815944790840149, -0.16335086524486542
13317, -0.004513731691986322, -0.015394633635878563, -0.19905400276184082, 0.03240392729640007, -0.3167741298675537, -0.1849299669265747, -0.0004940562648698688, -0.0020352450665086508, 0.9996190667152405, -0.8005064129829407, -1.8195041418075562, -0.1636475771665573, 0.0, 0.0, 0.0, 0, 0, 0, 0, 0, 0, -0.8005064129829407, -1.8195041418075562, -0.1636475771665573
13327, -0.004167382139712572, -0.012393414974212646, -0.19871501624584198, 0.06118357926607132, -0.14489302039146423, -0.08720393478870392, 0.0010677629616111517, -0.002125717932358384, 1.0007795095443726, -0.8021202683448792, -1.8230654001235962, -0.163944810628891, 0.0, 0.0, 0.0, 0, 0, 0, 0, 0, 0, -0.8021202683448792, -1.8230654001235962, -0.163944810628891
13337, -0.0044724908657372, -0.011341330595314503, -0.1989012360572815, -0.007571276277303696, 0.07086651772260666, -0.0980006754398346, 6.483035394921899e-05, -0.003938226029276848, 1.0004432201385498, -0.8037335276603699, -1.8266290426254272, -0.16424167156219482, 0.0, 0.0, 0.0, 0, 0, 0, 0, 0, 0, -0.8037335276603699, -1.8266290426254272, -0.16424167156219482
13347, -0.004561775829643011, -0.0125164445489645, -0.19953113794326782, -0.12464208155870438, 0.4037075638771057, 0.16957691311836243, -0.0006461918819695711, -0.004988223314285278, 0.9990701675415039, -0.8053463101387024, -1.830196499824524, -0.16453801095485687, 0.0, 0.0, 0.0, 0, 0, 0, 0, 0, 0, -0.8053463101387024, -1.830196499824524, -0.16453801095485687
13357, -0.004909459035843611, -0.013056915253400803, -0.20081175863742828, 0.19306737184524536, 0.03843393549323082, 0.01096278615295887, -0.00020621776639018208, -0.0029734636191278696, 1.0001485347747803, -0.8069593906402588, -1.8337680101394653, -0.164834663271904, 0.0, 0.0, 0.0, 0, 0, 0, 0, 0, 0, -0.8069593906402588, -1.8337680101394653, -0.164834663271904
13367, -0.003918967675417662, -0.014169635251164436, -0.1998528242111206, -0.0336209312081337, -0.3458687365055084, -0.1766236424446106, -0.0017638606950640678, -0.0032658372074365616, 1.000423550605774, -0.8085729479789734, -1.8373428583145142, -0.16513186693191528, 0.0, 0.0, 0.0, 0, 0, 0, 0, 0, 0, -0.8085729479789734, -1.8373428583145142, -0.16513186693191528
13377, -0.004019070882350206, -0.012017710134387016, -0.20106017589569092, 0.044850774109363556, 0.12155084311962128, -0.16715990006923676, 0.00043138081673532724, -0.0024517870042473078, 1.0000505447387695, -0.810187041759491, -1.8409204483032227, -0.16542881727218628, 0.0, 0.0, 0.0, 0, 0, 0, 0, 0, 0, -0.810187041759491, -1.8409204483032227, -0.16542881727218628
13387, -0.004448914900422096, -0.011170323006808758, -0.20106951892375946, 0.07951290160417557, -0.018940303474664688, -0.025244399905204773, -0.001431386568583548, -0.004695496987551451, 0.9987238645553589, -0.8118013739585876, -1.84450101852417, -0.16572558879852295, 0.0, 0.0, 0.0, 0, 0, 0, 0, 0, 0, -0.8118013739585876, -1.84450101852417, -0.16572558879852295
13397, -0.0031891807448118925, -0.00994167011231184, -0.20140233635902405, 0.20316079258918762, -0.2208678424358368, -0.05636490508913994, -0.003921169321984053, -0.0042447554878890514, 0.9973911643028259, -0.8134164810180664, -1.8480851650238037, -0.16602328419685364, 0.0, 0.0, 0.0, 0, 0, 0, 0, 0, 0, -0.8134164810180664, -1.8480851650238037, -0.16602328419685364
13407, -0.0022940116468816996, -0.005925958044826984, -0.2017839401960373, 0.0820026844739914, -0.1997125893831253, 0.07137687504291534, -0.0020609465427696705, -0.0045069558545947075, 1.002699375152588, -0.8150342702865601, -1.8516732454299927, -0.16632214188575745, 0.0, 0.0, 0.0, 0, 0, 0, 0, 0, 0, -0.8150342702865601, -1.8516732454299927, -0.16632214188575745
13417, -0.00309149082750082, -0.007327020633965731, -0.20134775340557098, -0.0047996761277318, 0.08363587409257889, 0.004984467756003141, -0.0013949068961665034, -0.0025342123117297888, 1.0023772716522217, -0.8166545033454895, -1.855265498161316, -0.16662007570266724, 0.0, 0.0, 0.0, 0, 0, 0, 0, 0, 0, -0.8166545033454895, -1.855265498161316, -0.16662007570266724
13427, -0.003603724529966712, -0.005843052640557289, -0.20205910503864288, 0.01685437187552452, -0.022415218874812126, -0.04189737141132355, -0.0005239754682406783, -0.002665604930371046, 1.0018246173858643, -0.8182759881019592, -1.858860731124878, -0.16691546142101288, 0.0, 0.0, 0.0, 0, 0, 0, 0, 0, 0, -0.8182759881019592, -1.858860731124878, -0.16691546142101288
13437, -0.003158332547172904, -0.004806390032172203, -0.20198214054107666, -0.018899772316217422, -0.024150505661964417, -0.04589581489562988, 0.00045908178435638547, -0.0023036811035126448, 0.99980628490448, -0.8198978900909424, -1.8624581098556519, -0.16720926761627197, 0.0, 0.0, 0.0, 0, 0, 0, 0, 0, 0, -0.8198978900909424, -1.8624581098556519, -0.16720926761627197
13447, -0.0031076320447027683, -0.005117522552609444, -0.20131732523441315, 0.03624313697218895, 0.11240243911743164, 0.03899665176868439, -0.0007808103109709918, -0.0027705782558768988, 0.9990689754486084, -0.821519672870636, -1.8660578727722168, -0.16750290989875793, 0.0, 0.0, 0.0, 0, 0, 0, 0, 0, 0, -0.821519672870636, -1.8660578727722168, -0.16750290989875793
13457, -0.002994070528075099, -0.005149717442691326, -0.20332592725753784, 0.05853429064154625, -0.1984243243932724, -0.09923495352268219, -0.0014776664320379496, -0.0029157863464206457, 1.0012937784194946, -0.8231419920921326, -1.8696601390838623, -0.16779674589633942, 0.0, 0.0, 0.0, 0, 0, 0, 0, 0, 0, -0.8231419920921326, -1.8696601390838623, -0.16779674589633942
13467, -0.00293582770973444, -0.005818688776344061, -0.20409098267555237, -0.10783950984477997, 0.23233121633529663, -0.015221702866256237, 0.00012672381126321852, -0.0035644597373902798, 0.9982041120529175, -0.8247650265693665, -1.8732653856277466, -0.1680905669927597, 0.0, 0.0, 0.0, 0, 0, 0, 0, 0, 0, -0.8247650265693665, -1.8732653856277466, -0.1680905669927597
