timeTick, roll, pitch, yaw, gyroX, gyroY, gyroZ, accX, accY, accZ, stateX, stateY, stateZ, target_x, target_y, target_z, otX, otY, otZ, otRoll, otPitch, otYaw, kalX, kalY, kalZ
24045, 0.040639739483594894, -0.19328142702579498, 0.0207508597522974, 0, 0, 0, 0, 0, 0, 0, 0, 0, 0, 0, 0, 0, 0, 0, 0, 0, 0, 0, 0, 0
24055, 0.040206313133239746, -0.1938769668340683, 0.022774090990424156, -0.105099618434906, 0.2609941065311432, 0.1865568310022354, -0.0003415738174226135, -0.00479098130017519, 1.0010141134262085, 0.724220871925354, -6.700939655303955, -0.10475371778011322, 0.0, 0.0, 0.0, 0, 0, 0, 0, 0, 0, 0.7259454727172852, -6.707558631896973, -0.10485498607158661
24065, 0.03987259417772293, -0.19436225295066833, 0.02222144976258278, -0.022206593304872513, -0.05269259959459305, -0.057567667216062546, -0.001598482602275908, -0.003824658924713731, 1.0008127689361572, 0.7259454727172852, -6.707558631896973, -0.10485498607158661, 0.0, 0.0, 0.0, 0, 0, 0, 0, 0, 0, 0.7276725769042969, -6.714182376861572, -0.10495518893003464
24075, 0.04040660709142685, -0.19572575390338898, 0.02304365485906601, -0.07765282690525055, 0.19261614978313446, -0.09983643144369125, -0.0020715794526040554, -0.003194992197677493, 1.0010700225830078, 0.7276725769042969, -6.714182376861572, -0.10495518893003464, 0.0, 0.0, 0.0, 0, 0, 0, 0, 0, 0, 0.7294016480445862, -6.720810890197754, -0.10505443811416626
24085, 0.040057819336652756, -0.19589674472808838, 0.023974701762199402, 0.03134605288505554, -0.10036290436983109, -0.12979328632354736, -0.0027176712173968554, -0.0018151290714740753, 1.00150465965271, 0.7294016480445862, -6.720810890197754, -0.10505443811416626, 0.0, 0.0, 0.0, 0, 0, 0, 0, 0, 0, 0.7311320304870605, -6.727442741394043, -0.10515257716178894
24095, 0.03965597599744797, -0.1966502070426941, 0.0246135164052248, 0.09093045443296432, 0.05000598356127739, 0.12190517783164978, -0.0011594052193686366, -0.0018072088714689016, 0.9994301199913025, 0.7311320304870605, -6.727442741394043, -0.10515257716178894, 0.0, 0.0, 0.0, 0, 0, 0, 0, 0, 0, 0.7328636646270752, -6.734076976776123, -0.10524970293045044
24105, 0.03879162669181824, -0.1981947124004364, 0.024800194427371025, -0.13563722372055054, 0.19784164428710938, 0.05539630725979805, -0.0008274971623905003, -0.00284009613096714, 0.9983051419258118, 0.7328636646270752, -6.734076976776123, -0.10524970293045044, 0.0, 0.0, 0.0, 0, 0, 0, 0, 0, 0, 0.7345975637435913, -6.7407145500183105, -0.10534720122814178
24115, 0.03916982561349869, -0.19842372834682465, 0.025121355429291725, 0.07080154865980148, 0.17727923393249512, -0.008338572457432747, 0.0009254910401068628, -0.0037635399494320154, 0.9997138381004333, 0.7345975637435913, -6.7407145500183105, -0.10534720122814178, 0.0, 0.0, 0.0, 0, 0, 0, 0, 0, 0, 0.7363348603248596, -6.7473554611206055, -0.10544579476118088
24125, 0.03872976824641228, -0.19835638999938965, 0.024296153336763382, -0.0479980930685997, 0.059638772159814835, -0.26764464378356934, -0.0018021537689492106, -0.0039387051947414875, 1.0010026693344116, 0.7363348603248596, -6.7473554611206055, -0.10544579476118088, 0.0, 0.0, 0.0, 0, 0, 0, 0, 0, 0, 0.7380753755569458, -6.754000663757324, -0.10554436594247818
24135, 0.0387866273522377, -0.19794130325317383, 0.02202465571463108, -0.0076976134441792965, -0.025406302884221077, -0.1411706507205963, -0.0006397669785656035, -0.0016923407092690468, 0.9984890818595886, 0.7380753755569458, -6.754000663757324, -0.10554436594247818, 0.0, 0.0, 0.0, 0, 0, 0, 0, 0, 0, 0.7398182153701782, -6.760649681091309, -0.10564296692609787
24145, 0.039744216948747635, -0.19624684751033783, 0.021535996347665787, 0.04679807648062706, -0.28444793820381165, -0.015356432646512985, -0.0012935816776007414, -0.001637629116885364, 0.9986564517021179, 0.7398182153701782, -6.760649681091309, -0.10564296692609787, 0.0, 0.0, 0.0, 0, 0, 0, 0, 0, 0, 0.7415631413459778, -6.767301559448242, -0.10574287176132202
24155, 0.039981670677661896, -0.1970866471529007, 0.020799588412046432, -0.029702022671699524, 0.15644101798534393, -0.0618838295340538, -0.0023378776386380196, -0.0037788425106555223, 0.9995394349098206, 0.7415631413459778, -6.767301559448242, -0.10574287176132202, 0.0, 0.0, 0.0, 0, 0, 0, 0, 0, 0, 0.7433097958564758, -6.773956298828125, -0.10584384202957153
24165, 0.03934324160218239, -0.1988024115562439, 0.02189602330327034, -0.08121966570615768, 0.25926461815834045, 0.006349845789372921, -0.0009707227000035346, -0.0028468372765928507, 0.9986945986747742, 0.7433097958564758, -6.773956298828125, -0.10584384202957153, 0.0, 0.0, 0.0, 0, 0, 0, 0, 0, 0, 0.7450581789016724, -6.780614376068115, -0.10594567656517029
24175, 0.03958079218864441, -0.19662706553936005, 0.0224614217877388, 0.02212628349661827, -0.2969633936882019, -0.005165192764252424, -0.0013002029154449701, -0.0026943949051201344, 1.0000754594802856, 0.7450581789016724, -6.780614376068115, -0.10594567656517029, 0.0, 0.0, 0.0, 0, 0, 0, 0, 0, 0, 0.7468087077140808, -6.787275791168213, -0.10604832321405411
24185, 0.04000496491789818, -0.1954844892024994, 0.023402629420161247, 0.1866808384656906, -0.03974311798810959, 0.2737753987312317, -0.0020236230921000242, -0.003912769258022308, 0.9988608360290527, 0.7468087077140808, -6.787275791168213, -0.10604832321405411, 0.0, 0.0, 0.0, 0, 0, 0, 0, 0, 0, 0.7485611438751221, -6.793940544128418, -0.10615166276693344
24195, 0.04005895555019379, -0.19765794277191162, 0.024056673049926758, -0.07491575181484222, 0.2719288766384125, 0.1800859421491623, -0.0017297409940510988, -0.0026100818067789078, 0.9982221126556396, 0.7485611438751221, -6.793940544128418, -0.10615166276693344, 0.0, 0.0, 0.0, 0, 0, 0, 0, 0, 0, 0.7503151297569275, -6.800609588623047, -0.10625617951154709
24205, 0.03889235109090805, -0.19830121099948883, 0.022537633776664734, -0.2971619665622711, -0.33145052194595337, -0.2287757843732834, -0.0008932668715715408, -0.002018257277086377, 0.9986532330513, 0.7503151297569275, -6.800609588623047, -0.10625617951154709, 0.0, 0.0, 0.0, 0, 0, 0, 0, 0, 0, 0.7520710825920105, -6.807281494140625, -0.10636219382286072
24215, 0.03953935578465462, -0.1992555558681488, 0.023270349949598312, 0.0941738486289978, 0.18028271198272705, 0.1767001897096634, -0.0016263138968497515, -0.002487087855115533, 1.0002124309539795, 0.7520710825920105, -6.807281494140625, -0.10636219382286072, 0.0, 0.0, 0.0, 0, 0, 0, 0, 0, 0, 0.7538293600082397, -6.813956260681152, -0.10646896809339523
24225, 0.03960549458861351, -0.19819748401641846, 0.022672586143016815, -0.052594926208257675, -0.10947071760892868, -0.06750856339931488, -0.0016424487112089992, -0.002773677697405219, 1.0027556419372559, 0.7538293600082397, -6.813956260681152, -0.10646896809339523, 0.0, 0.0, 0.0, 0, 0, 0, 0, 0, 0, 0.7555895447731018, -6.820633888244629, -0.10657475888729095
24235, 0.04009723290801048, -0.1983305662870407, 0.022053780034184456, 0.06503558903932571, -0.027097754180431366, -0.04626946896314621, -0.0012720690574496984, -0.002137575065717101, 1.0024181604385376, 0.7555895447731018, -6.820633888244629, -0.10657475888729095, 0.0, 0.0, 0.0, 0, 0, 0, 0, 0, 0, 0.7573516368865967, -6.827314853668213, -0.1066783219575882
24245, 0.040394142270088196, -0.19861245155334473, 0.022581079974770546, 0.0354241319000721, -0.017399929463863373, -0.14977186918258667, -0.0006661165971308947, -0.0036727904807776213, 1.0011587142944336, 0.7573516368865967, -6.827314853668213, -0.1066783219575882, 0.0, 0.0, 0.0, 0, 0, 0, 0, 0, 0, 0.7591161727905273, -6.833999156951904, -0.10678000003099442
24255, 0.04091792553663254, -0.1961362361907959, 0.0214056596159935, 0.08185747265815735, -0.14342939853668213, -0.10989244282245636, -0.0017455604393035173, -0.004206624813377857, 0.9988669753074646, 0.7591161727905273, -6.833999156951904, -0.10678000003099442, 0.0, 0.0, 0.0, 0, 0, 0, 0, 0, 0, 0.7608831524848938, -6.8406877517700195, -0.10688114166259766
24265, 0.0411282479763031, -0.19752521812915802, 0.021522896364331245, -0.051399100571870804, 0.44536063075065613, -0.054535191506147385, -0.003403987269848585, -0.0014859514776617289, 0.9978046417236328, 0.7608831524848938, -6.8406877517700195, -0.10688114166259766, 0.0, 0.0, 0.0, 0, 0, 0, 0, 0, 0, 0.762651264667511, -6.8473801612854, -0.10698354989290237
24275, 0.040156371891498566, -0.19561223685741425, 0.02133040875196457, -0.0645461156964302, -0.148359477519989, -0.009974481537938118, -0.0013141690287739038, -0.002682307967916131, 0.9983425736427307, 0.762651264667511, -6.8473801612854, -0.10698354989290237, 0.0, 0.0, 0.0, 0, 0, 0, 0, 0, 0, 0.7644202709197998, -6.854075908660889, -0.10708789527416229
24285, 0.040322158485651016, -0.19409795105457306, 0.021351324394345284, 0.07821610569953918, -0.24146243929862976, -0.06950141489505768, -0.0006890638615004718, -0.0038085011765360832, 1.0004653930664062, 0.7644202709197998, -6.854075908660889, -0.10708789527416229, 0.0, 0.0, 0.0, 0, 0, 0, 0, 0, 0, 0.766191303730011, -6.860775470733643, -0.10719306766986847
24295, 0.03996501490473747, -0.19407373666763306, 0.021801743656396866, -0.02014174684882164, 0.005776082165539265, -0.07632692903280258, -0.0002945279411505908, -0.005476758815348148, 0.9996498823165894, 0.766191303730011, -6.860775470733643, -0.10719306766986847, 0.0, 0.0, 0.0, 0, 0, 0, 0, 0, 0, 0.7679651975631714, -6.8674798011779785, -0.10729827731847763
24305, 0.039776042103767395, -0.19183668494224548, 0.019670216366648674, -0.05997607484459877, -0.28903213143348694, -0.31183385848999023, -0.0017360278870910406, -0.0037829778157174587, 1.000617504119873, 0.7679651975631714, -6.8674798011779785, -0.10729827731847763, 0.0, 0.0, 0.0, 0, 0, 0, 0, 0, 0, 0.7697412967681885, -6.874189376831055, -0.10740330815315247
24315, 0.039744533598423004, -0.1913602352142334, 0.020299376919865608, 0.03715850040316582, 0.03431449085474014, 0.05563899502158165, -0.0016950241988524795, -0.0026452511083334684, 0.9990282654762268, 0.7697412967681885, -6.874189376831055, -0.10740330815315247, 0.0, 0.0, 0.0, 0, 0, 0, 0, 0, 0, 0.771518886089325, -6.8809027671813965, -0.10750856250524521
24325, 0.03937217965722084, -0.1917411834001541, 0.01881060190498829, 0.06742770224809647, -0.004465862177312374, -0.12107821553945541, -0.00102707848418504, -0.004890101496130228, 1.0010796785354614, 0.771518886089325, -6.8809027671813965, -0.10750856250524521, 0.0, 0.0, 0.0, 0, 0, 0, 0, 0, 0, 0.7732985019683838, -6.887620449066162, -0.10761407017707825
24335, 0.04011314734816551, -0.1930936723947525, 0.01885637454688549, 0.030413873493671417, 0.3107524812221527, -0.07089311629533768, -0.0032444759272038937, -0.0024977729190140963, 0.9977506399154663, 0.7732985019683838, -6.887620449066162, -0.10761407017707825, 0.0, 0.0, 0.0, 0, 0, 0, 0, 0, 0, 0.7750793695449829, -6.894342422485352, -0.10772000253200531
24345, 0.04036114364862442, -0.1915927678346634, 0.01795853115618229, -0.05113697424530983, -0.09246112406253815, -0.12086129933595657, -0.0015343806007876992, -0.0037846120540052652, 0.9990238547325134, 0.7750793695449829, -6.894342422485352, -0.10772000253200531, 0.0, 0.0, 0.0, 0, 0, 0, 0, 0, 0, 0.7768611311912537, -6.901068210601807, -0.10782741755247116
24355, 0.04043919965624809, -0.18959389626979828, 0.01710095815360546, 0.0012280236696824431, -0.05391650274395943, -0.22095122933387756, -0.002196533838286996, -0.004537570755928755, 1.0000555515289307, 0.7768611311912537, -6.901068210601807, -0.10782741755247116, 0.0, 0.0, 0.0, 0, 0, 0, 0, 0, 0, 0.7786443829536438, -6.9077982902526855, -0.10793549567461014
24365, 0.040774401277303696, -0.1891249418258667, 0.017406418919563293, 0.10589516907930374, -0.10140382498502731, -0.03632611781358719, -0.0033544707112014294, -0.003025444457307458, 1.001279354095459, 0.7786443829536438, -6.9077982902526855, -0.10793549567461014, 0.0, 0.0, 0.0, 0, 0, 0, 0, 0, 0, 0.7804285287857056, -6.9145331382751465, -0.108042873442173
24375, 0.04069983586668968, -0.190525621175766, 0.01712667942047119, 0.019622618332505226, 0.1422879695892334, -0.045655444264411926, -0.0018612055573612452, -0.0024796519428491592, 1.0012277364730835, 0.7804285287857056, -6.9145331382751465, -0.108042873442173, 0.0, 0.0, 0.0, 0, 0, 0, 0, 0, 0, 0.7822132706642151, -6.921271800994873, -0.10814884305000305
24385, 0.03975570946931839, -0.1907176524400711, 0.017446622252464294, -0.0707191452383995, -0.07695038616657257, 0.07726015895605087, -0.0018033082596957684, -0.0031610431615263224, 1.0012060403823853, 0.7822132706642151, -6.921271800994873, -0.10814884305000305, 0.0, 0.0, 0.0, 0, 0, 0, 0, 0, 0, 0.7839993238449097, -6.928013801574707, -0.10825338959693909
24395, 0.04084670916199684, -0.19004571437835693, 0.018024589866399765, 0.09039019793272018, -0.10583092272281647, -0.04115039482712746, -0.0030555548146367073, -0.00464759673923254, 1.001240611076355, 0.7839993238449097, -6.928013801574707, -0.10825338959693909, 0.0, 0.0, 0.0, 0, 0, 0, 0, 0, 0, 0.7857862710952759, -6.934760093688965, -0.10835670679807663
24405, 0.041392453014850616, -0.1907711774110794, 0.019955193623900414, 0.01895948313176632, 0.16595621407032013, 0.22809822857379913, -8.044340211199597e-05, -0.0039670332334935665, 0.9992402195930481, 0.7857862710952759, -6.934760093688965, -0.10835670679807663, 0.0, 0.0, 0.0, 0, 0, 0, 0, 0, 0, 0.7875744700431824, -6.941511154174805, -0.10845959931612015
24415, 0.040663160383701324, -0.19064195454120636, 0.019504506140947342, -0.03704608604311943, 0.1104532778263092, -0.18188051879405975, 0.0012967997463420033, -0.0028295612428337336, 1.0008865594863892, 0.7875744700431824, -6.941511154174805, -0.10845959931612015, 0.0, 0.0, 0.0, 0, 0, 0, 0, 0, 0, 0.7893660068511963, -6.94826602935791, -0.10856255888938904
24425, 0.04045357555150986, -0.19080789387226105, 0.018897170200943947, -0.06392955034971237, 0.30191636085510254, -0.10967857390642166, -0.0006261726375669241, -0.003594704670831561, 1.0012143850326538, 0.7893660068511963, -6.94826602935791, -0.10856255888938904, 0.0, 0.0, 0.0, 0, 0, 0, 0, 0, 0, 0.7911611199378967, -6.955024719238281, -0.10866466909646988
24435, 0.0398581400513649, -0.19066256284713745, 0.01784333772957325, -0.2116313874721527, 0.08580119907855988, -0.233916237950325, -0.001340618822723627, -0.0032228566706180573, 1.0003584623336792, 0.7911611199378967, -6.955024719238281, -0.10866466909646988, 0.0, 0.0, 0.0, 0, 0, 0, 0, 0, 0, 0.7929586172103882, -6.961787700653076, -0.10876590758562088
24445, 0.041277818381786346, -0.1896771937608719, 0.018628574907779694, 0.1572154313325882, -0.22439585626125336, 0.15785998106002808, -0.00213022343814373, -0.0022289403714239597, 0.9996989369392395, 0.7929586172103882, -6.961787700653076, -0.10876590758562088, 0.0, 0.0, 0.0, 0, 0, 0, 0, 0, 0, 0.7947577238082886, -6.9685540199279785, -0.10886719822883606
24455, 0.04180390387773514, -0.18996714055538177, 0.01908399909734726, 0.0479181632399559, 0.23502840101718903, 0.24981340765953064, -0.0019159229705110192, -0.0027530216611921787, 1.0000284910202026, 0.7947577238082886, -6.9685540199279785, -0.10886719822883606, 0.0, 0.0, 0.0, 0, 0, 0, 0, 0, 0, 0.7965579628944397, -6.97532320022583, -0.10896856337785721
24465, 0.041014693677425385, -0.19071462750434875, 0.01836775243282318, -0.18443113565444946, 0.24623794853687286, 0.007620284333825111, -0.0010254106018692255, -0.004296979401260614, 1.0002365112304688, 0.7965579628944397, -6.97532320022583, -0.10896856337785721, 0.0, 0.0, 0.0, 0, 0, 0, 0, 0, 0, 0.7983596324920654, -6.982096195220947, -0.10906952619552612
24475, 0.04056559130549431, -0.19015167653560638, 0.016368336975574493, 0.030181586742401123, -0.010621410794556141, -0.23817473649978638, -0.0004501675721257925, -0.0005310852429829538, 0.999753475189209, 0.7983596324920654, -6.982096195220947, -0.10906952619552612, 0.0, 0.0, 0.0, 0, 0, 0, 0, 0, 0, 0.800163745880127, -6.98887300491333, -0.10917042940855026
24485, 0.040431346744298935, -0.192835733294487, 0.016845867037773132, -0.014133771881461143, 0.3048233091831207, 0.037289202213287354, -0.0002356190379941836, -0.001532232854515314, 1.0008251667022705, 0.800163745880127, -6.98887300491333, -0.10917042940855026, 0.0, 0.0, 0.0, 0, 0, 0, 0, 0, 0, 0.801970899105072, -6.995651721954346, -0.10927139222621918
24495, 0.039972975850105286, -0.19110344350337982, 0.017645718529820442, 0.041221894323825836, -0.1617051512002945, 0.04398006573319435, 0.0001323829492321238, -0.0032168193720281124, 0.9996113181114197, 0.801970899105072, -6.995651721954346, -0.10927139222621918, 0.0, 0.0, 0.0, 0, 0, 0, 0, 0, 0, 0.8037810921669006, -7.002432823181152, -0.10937222838401794
24505, 0.041506003588438034, -0.18987829983234406, 0.018804147839546204, 0.19765852391719818, -0.1277460753917694, 0.21180708706378937, -0.002787231467664242, -0.002004162408411503, 0.9994861483573914, 0.8037810921669006, -7.002432823181152, -0.10937222838401794, 0.0, 0.0, 0.0, 0, 0, 0, 0, 0, 0, 0.8055936098098755, -7.009217739105225, -0.10947349667549133
24515, 0.04070683568716049, -0.1890840083360672, 0.01854298822581768, -0.19109155237674713, -0.06792200356721878, -0.021493125706911087, -0.002522072521969676, -0.002325646113604307, 1.001711368560791, 0.8055936098098755, -7.009217739105225, -0.10947349667549133, 0.0, 0.0, 0.0, 0, 0, 0, 0, 0, 0, 0.8074070811271667, -7.016005039215088, -0.10957470536231995
24525, 0.04068910703063011, -0.18765811622142792, 0.01701626554131508, -0.02880842238664627, 0.002444152720272541, -0.2430928647518158, -0.001005376921966672, -0.0023502917028963566, 0.9995594024658203, 0.8074070811271667, -7.016005039215088, -0.10957470536231995, 0.0, 0.0, 0.0, 0, 0, 0, 0, 0, 0, 0.8092219233512878, -7.0227952003479, -0.10967517644166946
24535, 0.04118635132908821, -0.18606646358966827, 0.018647629767656326, 0.09799857437610626, -0.03510119020938873, 0.22862005233764648, -0.0002185265184380114, -0.0012978232698515058, 0.9990056157112122, 0.8092219233512878, -7.0227952003479, -0.10967517644166946, 0.0, 0.0, 0.0, 0, 0, 0, 0, 0, 0, 0.8110394477844238, -7.029588222503662, -0.10977598279714584
24545, 0.04042460024356842, -0.1864948719739914, 0.017709506675601006, -0.25754234194755554, 0.08567718416452408, -0.17013296484947205, -0.003237660275772214, -0.0016252151690423489, 1.001599907875061, 0.8110394477844238, -7.029588222503662, -0.10977598279714584, 0.0, 0.0, 0.0, 0, 0, 0, 0, 0, 0, 0.8128589987754822, -7.036383152008057, -0.10987677425146103
24555, 0.03982912749052048, -0.18789541721343994, 0.016955886036157608, -0.19742451608181, 0.16003678739070892, -0.18374206125736237, -0.0025784915778785944, -0.0029599478002637625, 0.9988393783569336, 0.8128589987754822, -7.036383152008057, -0.10987677425146103, 0.0, 0.0, 0.0, 0, 0, 0, 0, 0, 0, 0.8146792054176331, -7.043180465698242, -0.109977126121521
24565, 0.03988095372915268, -0.1863650381565094, 0.016505425795912743, -0.08438105881214142, -0.1435864269733429, -0.04532035067677498, -0.0027617455925792456, -0.0023327372036874294, 0.9998236298561096, 0.8146792054176331, -7.043180465698242, -0.109977126121521, 0.0, 0.0, 0.0, 0, 0, 0, 0, 0, 0, 0.8164997100830078, -7.049981117248535, -0.11007776111364365
24575, 0.03918934985995293, -0.18644477427005768, 0.015265529975295067, -0.24749305844306946, -0.01483406126499176, -0.0975724384188652, -0.0022463886998593807, -0.0009364041616208851, 0.998202383518219, 0.8164997100830078, -7.049981117248535, -0.11007776111364365, 0.0, 0.0, 0.0, 0, 0, 0, 0, 0, 0, 0.8183208107948303, -7.056784629821777, -0.11017920821905136
24585, 0.03900264576077461, -0.1863725781440735, 0.015425649471580982, -0.0174795463681221, 0.061677247285842896, -0.02854381501674652, -0.0017302318010479212, 0.00030343717662617564, 0.9984378218650818, 0.8183208107948303, -7.056784629821777, -0.11017920821905136, 0.0, 0.0, 0.0, 0, 0, 0, 0, 0, 0, 0.8201430439949036, -7.063589572906494, -0.11028208583593369
24595, 0.03875008225440979, -0.18784411251544952, 0.015990080311894417, -0.10366525501012802, 0.11368007957935333, -0.09540272504091263, 4.487446858547628e-05, -0.00020595981914084405, 0.9998041987419128, 0.8201430439949036, -7.063589572906494, -0.11028208583593369, 0.0, 0.0, 0.0, 0, 0, 0, 0, 0, 0, 0.8219670653343201, -7.070394992828369, -0.110385961830616
24605, 0.039753157645463943, -0.18654488027095795, 0.015220600180327892, 0.16042619943618774, -0.20136627554893494, -0.030307915061712265, 0.0010600360110402107, -0.001156247453764081, 1.001344084739685, 0.8219670653343201, -7.070394992828369, -0.110385961830616, 0.0, 0.0, 0.0, 0, 0, 0, 0, 0, 0, 0.8237943053245544, -7.0772013664245605, -0.11048950999975204
24615, 0.03928273543715477, -0.18727409839630127, 0.015148662962019444, -0.04593322053551674, 0.1686718612909317, 0.1227138340473175, -1.0721329090301879e-05, -0.0020119505934417248, 1.000868797302246, 0.8237943053245544, -7.0772013664245605, -0.11048950999975204, 0.0, 0.0, 0.0, 0, 0, 0, 0, 0, 0, 0.8256255388259888, -7.084010124206543, -0.11059176921844482
24625, 0.03919258713722229, -0.1875145435333252, 0.015407305210828781, 0.05884645879268646, 0.05145442858338356, 0.1402990072965622, -0.00403233990073204, -0.003122523194178939, 0.9995670914649963, 0.8256255388259888, -7.084010124206543, -0.11059176921844482, 0.0, 0.0, 0.0, 0, 0, 0, 0, 0, 0, 0.8274587392807007, -7.090821743011475, -0.11069349199533463
24635, 0.03864838555455208, -0.18806977570056915, 0.01501987874507904, 0.00015654005983378738, 0.2546430826187134, -0.07216902822256088, -0.0027004459407180548, -0.004554196260869503, 1.0006037950515747, 0.8274587392807007, -7.090821743011475, -0.11069349199533463, 0.0, 0.0, 0.0, 0, 0, 0, 0, 0, 0, 0.8292919397354126, -7.09763765335083, -0.11079513281583786
24645, 0.03934924677014351, -0.18769387900829315, 0.015840008854866028, 0.0351361408829689, -0.14578495919704437, 0.05042649433016777, -0.002214049454778433, -0.004497796297073364, 0.9993942975997925, 0.8292919397354126, -7.09763765335083, -0.11079513281583786, 0.0, 0.0, 0.0, 0, 0, 0, 0, 0, 0, 0.8311255574226379, -7.104458332061768, -0.11089656502008438
24655, 0.03947068378329277, -0.1891402006149292, 0.014972484670579433, 0.05278199166059494, 0.1140645369887352, -0.0951349139213562, -0.000624495733063668, -0.003016201313585043, 0.997972846031189, 0.8311255574226379, -7.104458332061768, -0.11089656502008438, 0.0, 0.0, 0.0, 0, 0, 0, 0, 0, 0, 0.832960844039917, -7.111283779144287, -0.11099894344806671
24665, 0.04039661958813667, -0.1890610158443451, 0.013911374844610691, 0.08913721144199371, -0.04141029343008995, -0.21115416288375854, -0.0009434535750187933, -0.004402197431772947, 0.9974489808082581, 0.832960844039917, -7.111283779144287, -0.11099894344806671, 0.0, 0.0, 0.0, 0, 0, 0, 0, 0, 0, 0.8347984552383423, -7.1181135177612305, -0.11110345274209976
24675, 0.04037768393754959, -0.18759068846702576, 0.01438166294246912, 0.002951384522020817, -0.06545315682888031, 0.03818667680025101, -0.0012591193662956357, -0.004098146688193083, 0.9986869096755981, 0.8347984552383423, -7.1181135177612305, -0.11110345274209976, 0.0, 0.0, 0.0, 0, 0, 0, 0, 0, 0, 0.8366382718086243, -7.124948024749756, -0.11121010780334473
24685, 0.04021651670336723, -0.18721182644367218, 0.013089513406157494, -0.061156682670116425, 0.03034483827650547, -0.23712214827537537, -0.002218285109847784, -0.0017697176663205028, 0.9999098777770996, 0.8366382718086243, -7.124948024749756, -0.11121010780334473, 0.0, 0.0, 0.0, 0, 0, 0, 0, 0, 0, 0.8384795188903809, -7.131786823272705, -0.1113176941871643
24695, 0.03996158391237259, -0.1861824244260788, 0.013720928691327572, -0.022462550550699234, 0.06322509795427322, 0.15443140268325806, -0.0014038484077900648, -0.0023588077165186405, 0.9996092319488525, 0.8384795188903809, -7.131786823272705, -0.1113176941871643, 0.0, 0.0, 0.0, 0, 0, 0, 0, 0, 0, 0.8403223156929016, -7.1386284828186035, -0.1114257201552391
24705, 0.039719127118587494, -0.1860208958387375, 0.01462724432349205, -0.1444779932498932, 0.08521375060081482, 0.1065734326839447, -0.003005038481205702, -0.0038113053888082504, 1.0010186433792114, 0.8403223156929016, -7.1386284828186035, -0.1114257201552391, 0.0, 0.0, 0.0, 0, 0, 0, 0, 0, 0, 0.8421662449836731, -7.145473480224609, -0.11153357475996017
24715, 0.039067592471838, -0.18548035621643066, 0.01487237773835659, -0.024095948785543442, -0.01007102057337761, -0.02196805737912655, -0.004546226933598518, -0.0024872508365660906, 0.9974300861358643, 0.8421662449836731, -7.145473480224609, -0.11153357475996017, 0.0, 0.0, 0.0, 0, 0, 0, 0, 0, 0, 0.8440099358558655, -7.152322292327881, -0.11164183914661407
24725, 0.03872890770435333, -0.1818266361951828, 0.01436095591634512, -0.06714313477277756, -0.33351370692253113, -0.16529689729213715, -0.003268315689638257, -0.002108511747792363, 1.0006226301193237, 0.8440099358558655, -7.152322292327881, -0.11164183914661407, 0.0, 0.0, 0.0, 0, 0, 0, 0, 0, 0, 0.8458528518676758, -7.15917444229126, -0.11175116151571274
24735, 0.03746389225125313, -0.18141452968120575, 0.014468432404100895, -0.17332197725772858, 0.1670740246772766, -0.11425836384296417, -0.0005002534599043429, -0.004546506330370903, 0.9992108345031738, 0.8458528518676758, -7.15917444229126, -0.11175116151571274, 0.0, 0.0, 0.0, 0, 0, 0, 0, 0, 0, 0.8476962447166443, -7.166029930114746, -0.11186081171035767
24745, 0.037584464997053146, -0.17977792024612427, 0.013295128010213375, 0.04174882173538208, -0.24503770470619202, -0.19235411286354065, -0.0006666163681074977, -0.0031201564706861973, 0.999872624874115, 0.8476962447166443, -7.166029930114746, -0.11186081171035767, 0.0, 0.0, 0.0, 0, 0, 0, 0, 0, 0, 0.8495418429374695, -7.172889709472656, -0.11197076737880707
24755, 0.038014691323041916, -0.18084166944026947, 0.012194514274597168, 0.18684270977973938, 0.3089417517185211, -0.16273733973503113, -0.0010047464165836573, -0.0020676199346780777, 1.0002411603927612, 0.8495418429374695, -7.172889709472656, -0.11197076737880707, 0.0, 0.0, 0.0, 0, 0, 0, 0, 0, 0, 0.8513898253440857, -7.179752826690674, -0.11208056658506393
24765, 0.037648458033800125, -0.1814243197441101, 0.01294921524822712, -0.010330021381378174, 0.06719587743282318, 0.016014207154512405, 0.0005744824884459376, -0.0013501126086339355, 1.000056266784668, 0.8513898253440857, -7.179752826690674, -0.11208056658506393, 0.0, 0.0, 0.0, 0, 0, 0, 0, 0, 0, 0.8532403111457825, -7.186618328094482, -0.11219025403261185
24775, 0.0369177982211113, -0.18227088451385498, 0.011694077402353287, 0.0614214725792408, -0.1144210621714592, -0.20769259333610535, -0.0007091714069247246, -0.0019432355184108019, 0.9994863867759705, 0.8532403111457825, -7.186618328094482, -0.11219025403261185, 0.0, 0.0, 0.0, 0, 0, 0, 0, 0, 0, 0.8550935387611389, -7.193485736846924, -0.11229995638132095
24785, 0.03648427873849869, -0.18297718465328217, 0.011619540862739086, -0.05048280209302902, 0.04068798944354057, 0.01774543896317482, -0.0013023449573665857, -0.002775895642116666, 0.9978891611099243, 0.8550935387611389, -7.193485736846924, -0.11229995638132095, 0.0, 0.0, 0.0, 0, 0, 0, 0, 0, 0, 0.8569492697715759, -7.2003560066223145, -0.11241058260202408
24795, 0.034795649349689484, -0.1838664412498474, 0.011823984794318676, -0.1147499606013298, 0.20592427253723145, 0.14524638652801514, -0.002291848650202155, -0.001785552129149437, 0.9992907643318176, 0.8569492697715759, -7.2003560066223145, -0.11241058260202408, 0.0, 0.0, 0.0, 0, 0, 0, 0, 0, 0, 0.8588066697120667, -7.2072296142578125, -0.112522654235363
24805, 0.034779950976371765, -0.1827481985092163, 0.010531267151236534, 0.0399777926504612, -0.16450807452201843, -0.0785946324467659, 3.698761065606959e-05, -0.003600646276026964, 0.9988476634025574, 0.8588066697120667, -7.2072296142578125, -0.112522654235363, 0.0, 0.0, 0.0, 0, 0, 0, 0, 0, 0, 0.8606657981872559, -7.214106559753418, -0.1126357764005661
24815, 0.03454311192035675, -0.17989861965179443, 0.0086226100102067, 0.013386094942688942, -0.18072956800460815, -0.2552098035812378, -0.0008674935670569539, -0.002637226600199938, 1.000380516052246, 0.8606657981872559, -7.214106559753418, -0.1126357764005661, 0.0, 0.0, 0.0, 0, 0, 0, 0, 0, 0, 0.86252760887146, -7.220987319946289, -0.11274963617324829
24825, 0.034361016005277634, -0.1789552867412567, 0.007951570674777031, -0.12587526440620422, -0.09791994839906693, 0.049305275082588196, -0.00034183711977675557, -0.0026835028547793627, 1.0010986328125, 0.86252760887146, -7.220987319946289, -0.11274963617324829, 0.0, 0.0, 0.0, 0, 0, 0, 0, 0, 0, 0.8643921613693237, -7.227871417999268, -0.11286322772502899
24835, 0.03336791694164276, -0.1795283406972885, 0.007743786554783583, -0.03398434445261955, -0.003530278103426099, 0.05883729085326195, -0.0012008678168058395, -0.003861159086227417, 1.0006521940231323, 0.8643921613693237, -7.227871417999268, -0.11286322772502899, 0.0, 0.0, 0.0, 0, 0, 0, 0, 0, 0, 0.8662592172622681, -7.234759330749512, -0.11297574639320374
24845, 0.03398693725466728, -0.18061508238315582, 0.007682777009904385, 0.08112020790576935, 0.0604606531560421, 0.1153746247291565, -0.002100973157212138, -0.0018873319495469332, 1.0018301010131836, 0.8662592172622681, -7.234759330749512, -0.11297574639320374, 0.0, 0.0, 0.0, 0, 0, 0, 0, 0, 0, 0.8681277632713318, -7.241650581359863, -0.1130870059132576
24855, 0.033800654113292694, -0.1778167188167572, 0.005852538626641035, -0.04562113806605339, -0.2791955769062042, -0.2003278285264969, -0.000837464933283627, -0.003423917107284069, 1.000014305114746, 0.8681277632713318, -7.241650581359863, -0.1130870059132576, 0.0, 0.0, 0.0, 0, 0, 0, 0, 0, 0, 0.8699977993965149, -7.248545169830322, -0.11319737136363983
24865, 0.033100541681051254, -0.1776936650276184, 0.005547710228711367, -0.01328083872795105, 0.00025655803619883955, -0.03557658940553665, -0.0011820739600807428, -0.0035153357312083244, 1.0002790689468384, 0.8699977993965149, -7.248545169830322, -0.11319737136363983, 0.0, 0.0, 0.0, 0, 0, 0, 0, 0, 0, 0.8718700408935547, -7.255443572998047, -0.11330731213092804
24875, 0.033213816583156586, -0.1784646362066269, 0.006421361584216356, -0.04602491855621338, 0.23702503740787506, 0.12923459708690643, -0.0005645258934237063, -0.0033505188766866922, 1.000779151916504, 0.8718700408935547, -7.255443572998047, -0.11330731213092804, 0.0, 0.0, 0.0, 0, 0, 0, 0, 0, 0, 0.8737446665763855, -7.262346267700195, -0.11341705173254013
24885, 0.03308447077870369, -0.17902889847755432, 0.006133458577096462, 0.023047786206007004, 0.002575825434178114, -0.15740042924880981, -0.0014441157691180706, -0.001426210394129157, 0.9991545081138611, 0.8737446665763855, -7.262346267700195, -0.11341705173254013, 0.0, 0.0, 0.0, 0, 0, 0, 0, 0, 0, 0.8756214380264282, -7.269252300262451, -0.11352667957544327
24895, 0.03310588002204895, -0.17879311740398407, 0.008064418099820614, 0.06005522608757019, 0.07893717288970947, 0.14938877522945404, -0.000562680303119123, -0.003057784866541624, 1.0027285814285278, 0.8756214380264282, -7.269252300262451, -0.11352667957544327, 0.0, 0.0, 0.0, 0, 0, 0, 0, 0, 0, 0.8775002956390381, -7.276160717010498, -0.11363550275564194
24905, 0.0326869934797287, -0.17863263189792633, 0.008232997730374336, 0.04014107584953308, -0.22121092677116394, -0.07251313328742981, -0.0003368771867826581, -0.0020511390175670385, 1.0021324157714844, 0.8775002956390381, -7.276160717010498, -0.11363550275564194, 0.0, 0.0, 0.0, 0, 0, 0, 0, 0, 0, 0.879381537437439, -7.283071517944336, -0.11374261230230331
24915, 0.032386861741542816, -0.17944647371768951, 0.0077859158627688885, -0.1294517070055008, 0.17937155067920685, -0.30997568368911743, -0.0009346564766019583, -0.0018532786052674055, 0.9989380836486816, 0.879381537437439, -7.283071517944336, -0.11374261230230331, 0.0, 0.0, 0.0, 0, 0, 0, 0, 0, 0, 0.8812653422355652, -7.289985179901123, -0.11384832859039307
24925, 0.03238711133599281, -0.1797061413526535, 0.007430804427713156, 0.0867442861199379, 0.04773114249110222, -0.09209965169429779, -0.0021213004365563393, -0.0039017428644001484, 0.996525764465332, 0.8812653422355652, -7.289985179901123, -0.11384832859039307, 0.0, 0.0, 0.0, 0, 0, 0, 0, 0, 0, 0.883151113986969, -7.296902179718018, -0.11395520716905594
24935, 0.03182877227663994, -0.17755411565303802, 0.0071150800213217735, 0.0156631488353014, -0.3206091821193695, 0.014019683934748173, -0.0015543104382231832, -0.0027359535451978445, 0.9995437860488892, 0.883151113986969, -7.296902179718018, -0.11395520716905594, 0.0, 0.0, 0.0, 0, 0, 0, 0, 0, 0, 0.8850379586219788, -7.303822994232178, -0.11406467109918594
24945, 0.03139391168951988, -0.1760302037000656, 0.005443520378321409, -0.20255151391029358, -0.1685112863779068, -0.14003701508045197, -0.001700063468888402, -0.00404608529061079, 1.000963568687439, 0.8850379586219788, -7.303822994232178, -0.11406467109918594, 0.0, 0.0, 0.0, 0, 0, 0, 0, 0, 0, 0.8869259357452393, -7.3107476234436035, -0.11417459696531296
24955, 0.03221830725669861, -0.17560233175754547, 0.006045888643711805, 0.13258224725723267, -0.11888324469327927, -0.1385166049003601, -0.001478138961829245, -0.0026397849433124065, 0.9997721910476685, 0.8869259357452393, -7.3107476234436035, -0.11417459696531296, 0.0, 0.0, 0.0, 0, 0, 0, 0, 0, 0, 0.8888153433799744, -7.317676067352295, -0.11428391188383102
24965, 0.032336845993995667, -0.17601662874221802, 0.006158280652016401, 0.1561257541179657, -0.06684946268796921, -0.04624662175774574, -0.00011566856846911833, -0.0011905557475984097, 1.000712513923645, 0.8888153433799744, -7.317676067352295, -0.11428391188383102, 0.0, 0.0, 0.0, 0, 0, 0, 0, 0, 0, 0.8907068371772766, -7.3246073722839355, -0.11439308524131775
24975, 0.03220900893211365, -0.17645594477653503, 0.006942694075405598, 0.04218905419111252, 0.006291620433330536, 0.06789926439523697, -0.0006507392972707748, -0.0015503496397286654, 1.0005704164505005, 0.8907068371772766, -7.3246073722839355, -0.11439308524131775, 0.0, 0.0, 0.0, 0, 0, 0, 0, 0, 0, 0.8926010131835938, -7.331541061401367, -0.11450190097093582
24985, 0.03197591379284859, -0.17531941831111908, 0.005722051952034235, -0.00754232332110405, -0.04144633188843727, -0.09179292619228363, -0.0028191462624818087, -0.003505566855892539, 0.998975396156311, 0.8926010131835938, -7.331541061401367, -0.11450190097093582, 0.0, 0.0, 0.0, 0, 0, 0, 0, 0, 0, 0.8944970369338989, -7.33847713470459, -0.11461057513952255
24995, 0.03166372328996658, -0.17813539505004883, 0.005937605164945126, -0.11516344547271729, 0.4485190212726593, 0.16141994297504425, -0.0033294949680566788, -0.004928800277411938, 1.0000905990600586, 0.8944970369338989, -7.33847713470459, -0.11461057513952255, 0.0, 0.0, 0.0, 0, 0, 0, 0, 0, 0, 0.896393358707428, -7.345417499542236, -0.11471954733133316
25005, 0.031947217881679535, -0.1793450564146042, 0.00542218703776598, -0.03807226940989494, 0.18840111792087555, -0.031969040632247925, 0.0009999454487115145, -0.0034074231516569853, 0.9997500777244568, 0.896393358707428, -7.345417499542236, -0.11471954733133316, 0.0, 0.0, 0.0, 0, 0, 0, 0, 0, 0, 0.8982909321784973, -7.352362632751465, -0.11482854932546616
25015, 0.031896669417619705, -0.17996874451637268, 0.005094742868095636, -0.17953726649284363, 0.16351181268692017, -0.1420009583234787, -0.00037516100564971566, -0.0027653775177896023, 0.9992614388465881, 0.8982909321784973, -7.352362632751465, -0.11482854932546616, 0.0, 0.0, 0.0, 0, 0, 0, 0, 0, 0, 0.9001915454864502, -7.359311580657959, -0.11493761092424393
25025, 0.032446328550577164, -0.1794295758008957, 0.004343091975897551, -0.061523374170064926, 0.09348038583993912, -0.09922084212303162, 0.00031590377329848707, -0.003352294210344553, 0.9992954730987549, 0.9001915454864502, -7.359311580657959, -0.11493761092424393, 0.0, 0.0, 0.0, 0, 0, 0, 0, 0, 0, 0.9020954370498657, -7.3662638664245605, -0.11504723131656647
25035, 0.03231797739863396, -0.18017850816249847, 0.003535387571901083, -0.02026578038930893, 0.06763938814401627, -0.23369644582271576, -0.0013700947165489197, -0.002197864232584834, 0.9988235235214233, 0.9020954370498657, -7.3662638664245605, -0.11504723131656647, 0.0, 0.0, 0.0, 0, 0, 0, 0, 0, 0, 0.9040018320083618, -7.3732194900512695, -0.11515772342681885
25045, 0.032549649477005005, -0.18033331632614136, 0.0033243708312511444, -0.02119029127061367, -0.044750481843948364, -0.14558835327625275, -0.0028658153023570776, -0.001792772556655109, 0.998462975025177, 0.9040018320083618, -7.3732194900512695, -0.11515772342681885, 0.0, 0.0, 0.0, 0, 0, 0, 0, 0, 0, 0.9059094190597534, -7.380177974700928, -0.11526935547590256
25055, 0.03250937908887863, -0.18345703184604645, 0.003938707523047924, 0.05793675035238266, 0.312977135181427, -0.04477918893098831, -0.002454823814332485, -0.0033131930977106094, 0.9996116757392883, 0.9059094190597534, -7.380177974700928, -0.11526935547590256, 0.0, 0.0, 0.0, 0, 0, 0, 0, 0, 0, 0.907817542552948, -7.387139320373535, -0.11538209021091461
25065, 0.032573845237493515, -0.18440622091293335, 0.005088172387331724, 0.08204636722803116, 0.06558957695960999, 0.26762017607688904, -0.00307481549680233, -0.0015661334618926048, 0.9999628067016602, 0.907817542552948, -7.387139320373535, -0.11538209021091461, 0.0, 0.0, 0.0, 0, 0, 0, 0, 0, 0, 0.9097259044647217, -7.39410400390625, -0.11549513787031174
25075, 0.03225115314126015, -0.185149148106575, 0.004793491214513779, 0.05768508091568947, 0.26077497005462646, -0.02511010132730007, -0.0020131224300712347, -0.004218947142362595, 0.9995058178901672, 0.9097259044647217, -7.39410400390625, -0.11549513787031174, 0.0, 0.0, 0.0, 0, 0, 0, 0, 0, 0, 0.9116347432136536, -7.401072025299072, -0.11560829728841782
25085, 0.03168044239282608, -0.18481101095676422, 0.005739394575357437, 0.032165151089429855, -0.20438280701637268, 0.34554150700569153, -0.00026900795637629926, -0.006978878751397133, 0.9993072152137756, 0.9116347432136536, -7.401072025299072, -0.11560829728841782, 0.0, 0.0, 0.0, 0, 0, 0, 0, 0, 0, 0.9135453701019287, -7.408044815063477, -0.11572190374135971
25095, 0.03181714937090874, -0.1832837611436844, 0.005323090590536594, 0.029479803517460823, -0.3197564482688904, 0.006810171529650688, -0.002466790145263076, -0.001562825171276927, 0.9989559650421143, 0.9135453701019287, -7.408044815063477, -0.11572190374135971, 0.0, 0.0, 0.0, 0, 0, 0, 0, 0, 0, 0.9154580235481262, -7.415022850036621, -0.11583612859249115
25105, 0.03267475217580795, -0.18309779465198517, 0.005090317223221064, 0.08761533349752426, -0.01719755306839943, 0.04552614316344261, -0.0014162546722218394, -4.1675055399537086e-05, 0.9982774257659912, 0.9154580235481262, -7.415022850036621, -0.11583612859249115, 0.0, 0.0, 0.0, 0, 0, 0, 0, 0, 0, 0.9173721075057983, -7.422003269195557, -0.1159517839550972
25115, 0.032654400914907455, -0.18226101994514465, 0.006396944634616375, 0.0004151613684371114, 0.006247155833989382, 0.25949469208717346, 5.913913992117159e-05, -0.0020444814581424, 1.00169038772583, 0.9173721075057983, -7.422003269195557, -0.1159517839550972, 0.0, 0.0, 0.0, 0, 0, 0, 0, 0, 0, 0.9192883372306824, -7.428985118865967, -0.11606799066066742
25125, 0.03307337313890457, -0.18156558275222778, 0.006723498925566673, 0.042729251086711884, -0.16207611560821533, 0.0717502236366272, 0.00015935635019559413, -0.003976535517722368, 1.002252459526062, 0.9192883372306824, -7.428985118865967, -0.11606799066066742, 0.0, 0.0, 0.0, 0, 0, 0, 0, 0, 0, 0.9212077260017395, -7.435969829559326, -0.11618258059024811
25135, 0.03326336294412613, -0.18457473814487457, 0.0069219088181853294, -0.043881047517061234, 0.46196839213371277, 0.07606036216020584, -0.003917507361620665, -0.0038067130371928215, 0.9994115233421326, 0.9212077260017395, -7.435969829559326, -0.11618258059024811, 0.0, 0.0, 0.0, 0, 0, 0, 0, 0, 0, 0.9231288433074951, -7.442958354949951, -0.11629606038331985
25145, 0.03243061900138855, -0.18550558388233185, 0.005593997426331043, -0.11870069801807404, 0.08911748975515366, -0.13563616573810577, -0.0037213920149952173, -0.0021182831842452288, 0.9980305433273315, 0.9231288433074951, -7.442958354949951, -0.11629606038331985, 0.0, 0.0, 0.0, 0, 0, 0, 0, 0, 0, 0.9250497221946716, -7.449950695037842, -0.11641033738851547
25155, 0.03185522183775902, -0.18547415733337402, 0.006722564809024334, -0.20181377232074738, 0.10900793224573135, 0.13028323650360107, -0.0031728900503367186, -0.00392299797385931, 1.0006420612335205, 0.9250497221946716, -7.449950695037842, -0.11641033738851547, 0.0, 0.0, 0.0, 0, 0, 0, 0, 0, 0, 0.9269703030586243, -7.456946849822998, -0.11652534455060959
25165, 0.030851352959871292, -0.18616627156734467, 0.006498181261122227, -0.14948469400405884, -0.01046036183834076, -0.07900040596723557, -0.0016187777509912848, -0.001864562975242734, 0.9985644817352295, 0.9269703030586243, -7.456946849822998, -0.11652534455060959, 0.0, 0.0, 0.0, 0, 0, 0, 0, 0, 0, 0.9288914203643799, -7.463946342468262, -0.11664080619812012
25175, 0.03169932961463928, -0.18509984016418457, 0.005435326602309942, 0.0782950296998024, -0.012174166738986969, 0.08311665058135986, -0.0006770783802494407, -0.0021766142453998327, 0.998832106590271, 0.9288914203643799, -7.463946342468262, -0.11664080619812012, 0.0, 0.0, 0.0, 0, 0, 0, 0, 0, 0, 0.9308143854141235, -7.470948696136475, -0.11675745993852615
25185, 0.031389057636260986, -0.18534016609191895, 0.006218208000063896, -0.04439997673034668, 0.24524228274822235, 0.07877948135137558, -0.0010320842266082764, -0.001283639925532043, 0.9993313550949097, 0.9308143854141235, -7.470948696136475, -0.11675745993852615, 0.0, 0.0, 0.0, 0, 0, 0, 0, 0, 0, 0.932739794254303, -7.4779534339904785, -0.11687522381544113
25195, 0.0313388891518116, -0.185166135430336, 0.006130297668278217, -0.06741511821746826, -0.033907074481248856, 0.18052881956100464, 0.0001282378361793235, -0.003199785714969039, 1.0002923011779785, 0.932739794254303, -7.4779534339904785, -0.11687522381544113, 0.0, 0.0, 0.0, 0, 0, 0, 0, 0, 0, 0.9346676468849182, -7.484960556030273, -0.1169932633638382
25205, 0.032173559069633484, -0.1854872703552246, 0.006180956494063139, 0.07620600610971451, 0.06704244017601013, 0.06219902262091637, -0.0012378133833408356, -0.005363478325307369, 0.9999041557312012, 0.9346676468849182, -7.484960556030273, -0.1169932633638382, 0.0, 0.0, 0.0, 0, 0, 0, 0, 0, 0, 0.936598002910614, -7.491971969604492, -0.11711075156927109
25215, 0.03268633782863617, -0.18383221328258514, 0.006283556576818228, 0.0035002189688384533, -0.12852413952350616, -0.02356400527060032, -0.0002196092827944085, -0.004272541031241417, 1.002071738243103, 0.936598002910614, -7.491971969604492, -0.11711075156927109, 0.0, 0.0, 0.0, 0, 0, 0, 0, 0, 0, 0.9385307431221008, -7.498988628387451, -0.11722727119922638
25225, 0.03315599262714386, -0.18535076081752777, 0.005452596582472324, -0.04074724018573761, 0.35204023122787476, -0.1274825930595398, 0.0003139022155664861, -0.0029517519287765026, 1.0015084743499756, 0.9385307431221008, -7.498988628387451, -0.11722727119922638, 0.0, 0.0, 0.0, 0, 0, 0, 0, 0, 0, 0.9404663443565369, -7.506009101867676, -0.11734231561422348
25235, 0.03322427347302437, -0.18572428822517395, 0.005495490971952677, 0.043498445302248, -0.0657758042216301, -0.0338115394115448, -0.0008145269239321351, -0.001404734910465777, 0.9995972514152527, 0.9404663443565369, -7.506009101867676, -0.11734231561422348, 0.0, 0.0, 0.0, 0, 0, 0, 0, 0, 0, 0.9424048662185669, -7.513032913208008, -0.11745642125606537
25245, 0.033907946199178696, -0.18461033701896667, 0.005858253687620163, -0.08702266961336136, -0.09912049770355225, 0.023233842104673386, -0.0010620058747008443, -0.0025052616838365793, 1.0013295412063599, 0.9424048662185669, -7.513032913208008, -0.11745642125606537, 0.0, 0.0, 0.0, 0, 0, 0, 0, 0, 0, 0.9443456530570984, -7.520059108734131, -0.11757007241249084
25255, 0.03446207940578461, -0.1871592402458191, 0.006345862988382578, 0.04332597553730011, 0.4078494906425476, 0.12056156247854233, -0.000979999778792262, -0.0015752911567687988, 1.0004287958145142, 0.9443456530570984, -7.520059108734131, -0.11757007241249084, 0.0, 0.0, 0.0, 0, 0, 0, 0, 0, 0, 0.9462885856628418, -7.527088165283203, -0.11768295615911484
25265, 0.03342166170477867, -0.18865197896957397, 0.0054342132061719894, -0.07247356325387955, 0.1924082338809967, -0.1942555457353592, -0.0022653723135590553, -0.0030767822172492743, 0.9993095993995667, 0.9462885856628418, -7.527088165283203, -0.11768295615911484, 0.0, 0.0, 0.0, 0, 0, 0, 0, 0, 0, 0.9482332468032837, -7.534119606018066, -0.11779539287090302
25275, 0.03352200984954834, -0.18743497133255005, 0.0036036549136042595, -0.01237643975764513, -0.13239778578281403, -0.24666176736354828, -0.002836422063410282, -0.0043748789466917515, 0.9978213310241699, 0.9482332468032837, -7.534119606018066, -0.11779539287090302, 0.0, 0.0, 0.0, 0, 0, 0, 0, 0, 0, 0.9501787424087524, -7.541154861450195, -0.11790863424539566
25285, 0.03343886882066727, -0.18545186519622803, 0.0033575829584151506, 0.06168967857956886, -0.19374632835388184, 0.0011181519366800785, -0.0015370899345725775, -0.003031715750694275, 0.9992239475250244, 0.9501787424087524, -7.541154861450195, -0.11790863424539566, 0.0, 0.0, 0.0, 0, 0, 0, 0, 0, 0, 0.9521252512931824, -7.548194885253906, -0.11802338063716888
25295, 0.03348877280950546, -0.18742193281650543, 0.002819199115037918, 0.06722188740968704, 0.12554043531417847, 0.021286603063344955, -0.001044106436893344, -0.002635188400745392, 1.000090479850769, 0.9521252512931824, -7.548194885253906, -0.11802338063716888, 0.0, 0.0, 0.0, 0, 0, 0, 0, 0, 0, 0.9540736079216003, -7.555238246917725, -0.11813859641551971
25305, 0.03287593275308609, -0.1864083707332611, 0.002570192562416196, -0.06097088009119034, -0.18274615705013275, 0.005625683814287186, 0.0012000886490568519, -0.0034340419806540012, 0.999433696269989, 0.9540736079216003, -7.555238246917725, -0.11813859641551971, 0.0, 0.0, 0.0, 0, 0, 0, 0, 0, 0, 0.9560248851776123, -7.56228494644165, -0.1182539239525795
25315, 0.03349638357758522, -0.1875389814376831, 0.0024724709801375866, 0.08882807195186615, 0.255647212266922, 0.029401900246739388, -0.0005516332457773387, -0.0029043718241155148, 1.0002338886260986, 0.9560248851776123, -7.56228494644165, -0.1182539239525795, 0.0, 0.0, 0.0, 0, 0, 0, 0, 0, 0, 0.9579795002937317, -7.569335460662842, -0.11836954206228256
25325, 0.0340077169239521, -0.18731102347373962, 0.003912488464266062, 0.01620137132704258, 0.03347793221473694, 0.04781230539083481, 3.465662302915007e-05, -0.0031397915445268154, 1.0019891262054443, 0.9579795002937317, -7.569335460662842, -0.11836954206228256, 0.0, 0.0, 0.0, 0, 0, 0, 0, 0, 0, 0.9599371552467346, -7.576389312744141, -0.11848430335521698
25335, 0.03453092277050018, -0.18839821219444275, 0.005219676531851292, 0.10481410473585129, 0.20230725407600403, 0.0039695855230093, -0.0018994370475411415, -0.001260872115381062, 1.0000689029693604, 0.9599371552467346, -7.576389312744141, -0.11848430335521698, 0.0, 0.0, 0.0, 0, 0, 0, 0, 0, 0, 0.9618971347808838, -7.583446025848389, -0.11859770119190216
25345, 0.033711060881614685, -0.1881413757801056, 0.0037705451250076294, -0.1371481716632843, -0.04654371365904808, -0.28451788425445557, -0.0016243604477494955, -0.0011554373195394874, 0.9984683394432068, 0.9618971347808838, -7.583446025848389, -0.11859770119190216, 0.0, 0.0, 0.0, 0, 0, 0, 0, 0, 0, 0.9638586640357971, -7.5905046463012695, -0.11871125549077988
25355, 0.03490642458200455, -0.18651852011680603, 0.005051217507570982, 0.2136816382408142, -0.10419485718011856, 0.12479009479284286, -0.0018111516255885363, -0.0021037044934928417, 0.9995958805084229, 0.9638586640357971, -7.5905046463012695, -0.11871125549077988, 0.0, 0.0, 0.0, 0, 0, 0, 0, 0, 0, 0.9658218026161194, -7.597565650939941, -0.11882580071687698
25365, 0.034350667148828506, -0.1875341832637787, 0.005189436487853527, -0.14155304431915283, -0.07126794010400772, 0.1278979629278183, -0.0016030712286010385, -0.00389984343200922, 1.0007266998291016, 0.9658218026161194, -7.597565650939941, -0.11882580071687698, 0.0, 0.0, 0.0, 0, 0, 0, 0, 0, 0, 0.9677863717079163, -7.6046295166015625, -0.11894028633832932
25375, 0.034442972391843796, -0.1855592131614685, 0.0046689510345458984, -0.014600205235183239, -0.3905346393585205, 0.09767711162567139, -0.001389544690027833, -0.0032157953828573227, 0.99836266040802, 0.9677863717079163, -7.6046295166015625, -0.11894028633832932, 0.0, 0.0, 0.0, 0, 0, 0, 0, 0, 0, 0.9697527289390564, -7.611697196960449, -0.11905480921268463
25385, 0.035624824464321136, -0.18804588913917542, 0.005267519038170576, 0.1943603754043579, 0.30505457520484924, 0.07806789129972458, -0.0002430939202895388, -0.0034329898189753294, 0.99815833568573, 0.9697527289390564, -7.611697196960449, -0.11905480921268463, 0.0, 0.0, 0.0, 0, 0, 0, 0, 0, 0, 0.9717217087745667, -7.618768215179443, -0.11917075514793396
25395, 0.03464072197675705, -0.18691079318523407, 0.0051743341609835625, -0.22517329454421997, -0.13647861778736115, -0.022640075534582138, -0.002981097437441349, -0.004610124044120312, 1.000353455543518, 0.9717217087745667, -7.618768215179443, -0.11917075514793396, 0.0, 0.0, 0.0, 0, 0, 0, 0, 0, 0, 0.9736927151679993, -7.6258440017700195, -0.11928774416446686
25405, 0.03326220065355301, -0.18538086116313934, 0.004534488078206778, -0.22301727533340454, -0.11540886014699936, -0.08730054646730423, -0.001335205975919962, -0.002100645797327161, 1.0005090236663818, 0.9736927151679993, -7.6258440017700195, -0.11928774416446686, 0.0, 0.0, 0.0, 0, 0, 0, 0, 0, 0, 0.9756648540496826, -7.632923603057861, -0.11940465867519379
25415, 0.03286556899547577, -0.18470734357833862, 0.004533593077212572, -0.05512210726737976, 0.11196710169315338, -0.1702125519514084, -0.0008816982735879719, -0.0010427871020510793, 1.0004197359085083, 0.9756648540496826, -7.632923603057861, -0.11940465867519379, 0.0, 0.0, 0.0, 0, 0, 0, 0, 0, 0, 0.9776387810707092, -7.640006065368652, -0.11952127516269684
25425, 0.03232768177986145, -0.18411514163017273, 0.004291039891541004, -0.1773723065853119, -0.14415305852890015, -0.1429397314786911, -0.00237953569740057, -0.004843949805945158, 1.0024902820587158, 0.9776387810707092, -7.640006065368652, -0.11952127516269684, 0.0, 0.0, 0.0, 0, 0, 0, 0, 0, 0, 0.9796144962310791, -7.647091388702393, -0.11963667720556259
25435, 0.032914888113737106, -0.185015469789505, 0.0024836023803800344, -0.01693296991288662, 0.06973887979984283, -0.17772610485553741, -0.00011557125253602862, -0.0049019623547792435, 1.000984787940979, 0.9796144962310791, -7.647091388702393, -0.11963667720556259, 0.0, 0.0, 0.0, 0, 0, 0, 0, 0, 0, 0.9815919399261475, -7.654181480407715, -0.11975040286779404
25445, 0.03411800041794777, -0.1840941607952118, 0.0022966789547353983, 0.2118779867887497, 0.03542278707027435, 0.1551114022731781, -0.0033636505249887705, -0.004055390600115061, 0.9995157718658447, 0.9815919399261475, -7.654181480407715, -0.11975040286779404, 0.0, 0.0, 0.0, 0, 0, 0, 0, 0, 0, 0.9835708141326904, -7.6612772941589355, -0.11986346542835236
25455, 0.0326676107943058, -0.1847204715013504, 0.0024501411244273186, -0.21288445591926575, 0.14031904935836792, -0.0530683696269989, -0.002695345086976886, -0.00240355939604342, 0.9995692372322083, 0.9835708141326904, -7.6612772941589355, -0.11986346542835236, 0.0, 0.0, 0.0, 0, 0, 0, 0, 0, 0, 0.9855502843856812, -7.668376922607422, -0.11997662484645844
25465, 0.032512638717889786, -0.18417060375213623, 0.0034874442499130964, -0.05792193114757538, -0.19122935831546783, 0.009950250387191772, 4.7289254325733054e-06, -0.0028897072188556194, 0.998853325843811, 0.9855502843856812, -7.668376922607422, -0.11997662484645844, 0.0, 0.0, 0.0, 0, 0, 0, 0, 0, 0, 0.9875310659408569, -7.675479888916016, -0.12009038031101227
25475, 0.03267326578497887, -0.1821793168783188, 0.0047677201218903065, -0.009882389567792416, -0.17676103115081787, 0.13538821041584015, -0.0012336635263636708, -0.0029208618216216564, 1.0000900030136108, 0.9875310659408569, -7.675479888916016, -0.12009038031101227, 0.0, 0.0, 0.0, 0, 0, 0, 0, 0, 0, 0.9895142912864685, -7.682586193084717, -0.12020479142665863
25485, 0.03278053551912308, -0.18134959042072296, 0.0038242770824581385, -0.037054937332868576, 0.04104798659682274, -0.09826409816741943, -0.0019112539011985064, -0.0022137886844575405, 1.0016158819198608, 0.9895142912864685, -7.682586193084717, -0.12020479142665863, 0.0, 0.0, 0.0, 0, 0, 0, 0, 0, 0, 0.9914995431900024, -7.689695835113525, -0.120318703353405
25495, 0.032266274094581604, -0.1793096363544464, 0.0031801178120076656, -0.04357309639453888, -0.22186020016670227, -0.05394717678427696, -0.0016656621592119336, -0.0008261023904196918, 1.0005124807357788, 0.9914995431900024, -7.689695835113525, -0.120318703353405, 0.0, 0.0, 0.0, 0, 0, 0, 0, 0, 0, 0.9934861660003662, -7.696807861328125, -0.12043152004480362
25505, 0.032697346061468124, -0.17874982953071594, 0.0032954937778413296, 0.01486127357929945, -0.0611359104514122, 0.10041417181491852, -0.00040010936209000647, -0.001426968490704894, 1.000038981437683, 0.9934861660003662, -7.696807861328125, -0.12043152004480362, 0.0, 0.0, 0.0, 0, 0, 0, 0, 0, 0, 0.9954744577407837, -7.703921794891357, -0.12054403126239777
25515, 0.03247443959116936, -0.17816156148910522, 0.003113600192591548, -0.020033853128552437, -0.1438484489917755, 0.1722589135169983, -0.00015535236161667854, -0.003144672140479088, 0.9995037913322449, 0.9954744577407837, -7.703921794891357, -0.12054403126239777, 0.0, 0.0, 0.0, 0, 0, 0, 0, 0, 0, 0.9974654316902161, -7.711038112640381, -0.12065691500902176
25525, 0.03261371701955795, -0.17811426520347595, 0.0040940409526228905, -0.1862030029296875, -0.029576290398836136, 0.04684295132756233, -0.001277552219107747, -0.002758028917014599, 1.0005890130996704, 0.9974654316902161, -7.711038112640381, -0.12065691500902176, 0.0, 0.0, 0.0, 0, 0, 0, 0, 0, 0, 0.9994589686393738, -7.718157768249512, -0.12077004462480545
25535, 0.03371737524867058, -0.18014666438102722, 0.003173303557559848, 0.09152372926473618, 0.11892145127058029, -0.02658691816031933, -0.0014377485495060682, -0.0028749152552336454, 0.9994181394577026, 0.9994589686393738, -7.718157768249512, -0.12077004462480545, 0.0, 0.0, 0.0, 0, 0, 0, 0, 0, 0, 1.00145423412323, -7.72528076171875, -0.12088316679000854
25545, 0.033629048615694046, -0.1806638389825821, 0.0027741172816604376, 0.052420929074287415, 0.09835152328014374, 0.01572471298277378, -0.0012872453080490232, -0.003974290564656258, 1.001313328742981, 1.00145423412323, -7.72528076171875, -0.12088316679000854, 0.0, 0.0, 0.0, 0, 0, 0, 0, 0, 0, 1.0034511089324951, -7.732407569885254, -0.12099593877792358
25555, 0.03368246182799339, -0.18142612278461456, 0.003764066845178604, 0.04796735569834709, 0.1345493197441101, 0.1569988876581192, -0.0007237260579131544, -0.004444099497050047, 1.001267433166504, 1.0034511089324951, -7.732407569885254, -0.12099593877792358, 0.0, 0.0, 0.0, 0, 0, 0, 0, 0, 0, 1.0054501295089722, -7.73953914642334, -0.12110750377178192
25565, 0.033673468977212906, -0.18249455094337463, 0.0031742278952151537, 0.09408354759216309, 0.3150534927845001, -0.07224033027887344, -0.000539178668987006, -0.0031493068672716618, 0.9998947381973267, 1.0054501295089722, -7.73953914642334, -0.12110750377178192, 0.0, 0.0, 0.0, 0, 0, 0, 0, 0, 0, 1.0074515342712402, -7.74667501449585, -0.12121820449829102
25575, 0.033798106014728546, -0.18133153021335602, 0.0025328861083835363, -0.1250113695859909, -0.029997695237398148, -0.16331976652145386, -0.0006358637474477291, -0.0032054921612143517, 0.999443769454956, 1.0074515342712402, -7.74667501449585, -0.12121820449829102, 0.0, 0.0, 0.0, 0, 0, 0, 0, 0, 0, 1.0094553232192993, -7.753814697265625, -0.12132897973060608
25585, 0.03292176127433777, -0.18151050806045532, 0.0028269272297620773, -0.0486697219312191, 0.03077860176563263, 0.006893793120980263, 0.00019101642828900367, -0.004301705397665501, 0.9994872212409973, 1.0094553232192993, -7.753814697265625, -0.12132897973060608, 0.0, 0.0, 0.0, 0, 0, 0, 0, 0, 0, 1.011461615562439, -7.760958671569824, -0.12144017219543457
25595, 0.03356903791427612, -0.18166518211364746, 0.002616893732920289, 0.08030880242586136, 0.11943650245666504, 0.021249014884233475, -0.0005946645978838205, -0.0033240513876080513, 1.0011893510818481, 1.011461615562439, -7.760958671569824, -0.12144017219543457, 0.0, 0.0, 0.0, 0, 0, 0, 0, 0, 0, 1.0134706497192383, -7.768106937408447, -0.12155132740736008
25605, 0.03445719927549362, -0.18244892358779907, 0.0020894366316497326, 0.1480630487203598, -0.1506563425064087, 0.03137208893895149, -0.0008751333807595074, -0.0022169137373566628, 0.9992713332176208, 1.0134706497192383, -7.768106937408447, -0.12155132740736008, 0.0, 0.0, 0.0, 0, 0, 0, 0, 0, 0, 1.0154820680618286, -7.775258541107178, -0.12166214734315872
25615, 0.03444404900074005, -0.18256178498268127, 0.0020542312413454056, 0.081551693379879, -0.0693080946803093, -0.028647318482398987, 6.263880641199648e-05, -0.0028676630463451147, 1.000329613685608, 1.0154820680618286, -7.775258541107178, -0.12166214734315872, 0.0, 0.0, 0.0, 0, 0, 0, 0, 0, 0, 1.0174962282180786, -7.782413005828857, -0.12177305668592453
25625, 0.033234089612960815, -0.18124662339687347, 0.0014817959163337946, -0.15465384721755981, 0.026883479207754135, 0.01145214308053255, -0.0035493355244398117, -0.001523652346804738, 1.0016043186187744, 1.0174962282180786, -7.782413005828857, -0.12177305668592453, 0.0, 0.0, 0.0, 0, 0, 0, 0, 0, 0, 1.0195122957229614, -7.789570331573486, -0.12188330292701721
25635, 0.03416562080383301, -0.18340004980564117, 0.0018714404432103038, 0.08356723189353943, 0.17606493830680847, 0.09127353876829147, -0.0017640764126554132, -0.0026827130932360888, 0.9976781010627747, 1.0195122957229614, -7.789570331573486, -0.12188330292701721, 0.0, 0.0, 0.0, 0, 0, 0, 0, 0, 0, 1.0215288400650024, -7.7967305183410645, -0.12199333310127258
25645, 0.033665213733911514, -0.18453168869018555, 0.0022103211376816034, -0.03394262120127678, 0.019251884892582893, 0.15002982318401337, -0.0005028204759582877, -0.0035053894389420748, 1.000192642211914, 1.0215288400650024, -7.7967305183410645, -0.12199333310127258, 0.0, 0.0, 0.0, 0, 0, 0, 0, 0, 0, 1.023546814918518, -7.80389404296875, -0.12210429459810257
25655, 0.033987972885370255, -0.18690858781337738, 0.0018273992463946342, 0.08616475015878677, 0.14148962497711182, -0.05665542557835579, -0.0011934393551200628, -0.004223874770104885, 1.0014845132827759, 1.023546814918518, -7.80389404296875, -0.12210429459810257, 0.0, 0.0, 0.0, 0, 0, 0, 0, 0, 0, 1.0255671739578247, -7.811061859130859, -0.12221477925777435
25665, 0.032685719430446625, -0.18728767335414886, 0.0008935710065998137, -0.21350523829460144, 0.1084991917014122, -0.10037654638290405, -0.0015940741868689656, -0.0022562132216989994, 1.000072956085205, 1.0255671739578247, -7.811061859130859, -0.12221477925777435, 0.0, 0.0, 0.0, 0, 0, 0, 0, 0, 0, 1.0275895595550537, -7.818233489990234, -0.1223241314291954
25675, 0.033137738704681396, -0.19059693813323975, 0.0009357543895021081, 0.0948677659034729, 0.4553740918636322, -0.10663928836584091, -0.0011701964540407062, -0.003421577624976635, 1.000538945198059, 1.0275895595550537, -7.818233489990234, -0.1223241314291954, 0.0, 0.0, 0.0, 0, 0, 0, 0, 0, 0, 1.0296138525009155, -7.825408458709717, -0.12243310362100601
25685, 0.03368378430604935, -0.18998777866363525, 0.0007141473470255733, 0.22750404477119446, -0.003972851671278477, -0.08857277780771255, -0.002348591573536396, -0.0007775488193146884, 0.9999872446060181, 1.0296138525009155, -7.825408458709717, -0.12243310362100601, 0.0, 0.0, 0.0, 0, 0, 0, 0, 0, 0, 1.0316400527954102, -7.832586288452148, -0.1225421279668808
25695, 0.03386343643069267, -0.19095683097839355, -0.00017383054364472628, 0.034245580434799194, 0.04060690850019455, -0.26769909262657166, 0.0006755600916221738, -0.0017651256639510393, 1.0020112991333008, 1.0316400527954102, -7.832586288452148, -0.1225421279668808, 0.0, 0.0, 0.0, 0, 0, 0, 0, 0, 0, 1.0336685180664062, -7.839766502380371, -0.12265027314424515
25705, 0.03297297656536102, -0.18969422578811646, 5.503873398993164e-05, -0.16393089294433594, -0.12493061274290085, -0.07860884070396423, -0.0005474528297781944, -0.00328362756408751, 1.0005751848220825, 1.0336685180664062, -7.839766502380371, -0.12265027314424515, 0.0, 0.0, 0.0, 0, 0, 0, 0, 0, 0, 1.0357002019882202, -7.846949577331543, -0.12275710701942444
