timeTick, roll, pitch, yaw, gyroX, gyroY, gyroZ, accX, accY, accZ, stateX, stateY, stateZ, target_x, target_y, target_z, otX, otY, otZ, otRoll, otPitch, otYaw, kalX, kalY, kalZ
10914, 0.01021097507327795, -0.1311378926038742, 0.1044987365603447, 0, 0, 0, 0, 0, 0, 0, 0, 0, 0, 0, 0, 0, 0, 0, 0, 0, 0, 0, 0, 0
10924, 0.01043801847845316, -0.1310073435306549, 0.1050175279378891, 0.06789413839578629, 0.36799463629722595, 0.17921708524227142, -9.382141433889046e-05, -0.0025310541968792677, 1.0004289150238037, 0.33083420991897583, -0.7833535671234131, 0.014167139306664467, 0.0, 0.0, 0.0, 0, 0, 0, 0, 0, 0, 0.33083420991897583, -0.7833535671234131, 0.014167139306664467
10934, 0.010869203135371208, -0.13190902769565582, 0.10575508326292038, 0.1979937106370926, 0.03562445938587189, -0.03520622104406357, 0.0010948384879156947, -0.00391930527985096, 0.9998120665550232, 0.3319198787212372, -0.7854291200637817, 0.014233453199267387, 0.0, 0.0, 0.0, 0, 0, 0, 0, 0, 0, 0.3319198787212372, -0.7854291200637817, 0.014233453199267387
10944, 0.010509883984923363, -0.1326439529657364, 0.10539001226425171, -0.11075197160243988, 0.140357106924057, -0.10842239111661911, 0.0015208846889436245, -0.003555168630555272, 0.9992620348930359, 0.3330083191394806, -0.7875082492828369, 0.014299767091870308, 0.0, 0.0, 0.0, 0, 0, 0, 0, 0, 0, 0.3330083191394806, -0.7875082492828369, 0.014299767091870308
10954, 0.010147355496883392, -0.13311882317066193, 0.10545792430639267, -0.19970957934856415, -0.0016744858585298061, 0.10594587028026581, -0.001589492429047823, -0.0024502472952008247, 0.9973660707473755, 0.334209144115448, -0.7897994518280029, 0.0143717210739851, 0.0, 0.0, 0.0, 0, 0, 0, 0, 0, 0, 0.334209144115448, -0.7897994518280029, 0.0143717210739851
10964, 0.010039561428129673, -0.13402734696865082, 0.10679561644792557, 0.16168421506881714, 0.13790275156497955, 0.14619047939777374, -4.554004408419132e-05, -0.0029590881895273924, 0.9987557530403137, 0.33541232347488403, -0.7920945286750793, 0.014441736973822117, 0.0, 0.0, 0.0, 0, 0, 0, 0, 0, 0, 0.33541232347488403, -0.7920945286750793, 0.014441736973822117
10974, 0.009755847975611687, -0.13557462394237518, 0.106903076171875, 0.07107391953468323, 0.11524470150470734, -0.04264986887574196, 0.0005780934588983655, -0.0017532354686409235, 1.0007911920547485, 0.336508184671402, -0.7941837906837463, 0.014504057355225086, 0.0, 0.0, 0.0, 0, 0, 0, 0, 0, 0, 0.336508184671402, -0.7941837906837463, 0.014504057355225086
10984, 0.009297392331063747, -0.13486985862255096, 0.10557299107313156, 0.11668825149536133, -0.12442516535520554, 0.015538696199655533, -0.0003486114728730172, -0.0029455008916556835, 1.0003387928009033, 0.33760666847229004, -0.7962753772735596, 0.01456629578024149, 0.0, 0.0, 0.0, 0, 0, 0, 0, 0, 0, 0.33760666847229004, -0.7962753772735596, 0.01456629578024149
10994, 0.008920191787183285, -0.1347581148147583, 0.10603407770395279, -0.02292144112288952, 0.10982319712638855, 0.0009181232890114188, 0.0017047182191163301, -0.002543921349570155, 1.000083565711975, 0.33760666847229004, -0.7962753772735596, 0.01456629578024149, 0.0, 0.0, 0.0, 0, 0, 0, 0, 0, 0, 0.33870792388916016, -0.7983697652816772, 0.01462886855006218
11004, 0.009149237535893917, -0.13464322686195374, 0.10513124614953995, -0.011248394846916199, -0.002226126380264759, -0.07602865993976593, 0.0008144002640619874, -0.0034169747959822416, 1.0002912282943726, 0.33870792388916016, -0.7983697652816772, 0.01462886855006218, 0.0, 0.0, 0.0, 0, 0, 0, 0, 0, 0, 0.3398122191429138, -0.8004670143127441, 0.014691696502268314
11014, 0.008384722284972668, -0.133843332529068, 0.10429389774799347, -0.12677468359470367, -0.003639835398644209, -0.21946315467357635, 0.0013357105199247599, -0.0007753954268991947, 1.000273585319519, 0.3398122191429138, -0.8004670143127441, 0.014691696502268314, 0.0, 0.0, 0.0, 0, 0, 0, 0, 0, 0, 0.3409197926521301, -0.8025669455528259, 0.014754821546375751
11024, 0.008467723615467548, -0.13385874032974243, 0.10500697046518326, -0.061974089592695236, 0.008951317518949509, 0.22457465529441833, 0.0004343089531175792, -0.0025602388195693493, 0.9990571737289429, 0.3409197926521301, -0.8025669455528259, 0.014754821546375751, 0.0, 0.0, 0.0, 0, 0, 0, 0, 0, 0, 0.3420306146144867, -0.8046689629554749, 0.014818035066127777
11034, 0.008047855459153652, -0.1347411721944809, 0.10639411956071854, -0.09027411043643951, 0.10281924158334732, 0.1307940036058426, -0.0010551539016887546, -0.0045560854487121105, 0.9996915459632874, 0.3420306146144867, -0.8046689629554749, 0.014818035066127777, 0.0, 0.0, 0.0, 0, 0, 0, 0, 0, 0, 0.34314408898353577, -0.8067736625671387, 0.01488101202994585
11044, 0.007457744795829058, -0.13645721971988678, 0.10595982521772385, -0.0753496065735817, 0.03847559168934822, 0.1946474313735962, -0.0022034868597984314, -0.003398745786398649, 0.9983315467834473, 0.34314408898353577, -0.8067736625671387, 0.01488101202994585, 0.0, 0.0, 0.0, 0, 0, 0, 0, 0, 0, 0.3442588448524475, -0.8088821172714233, 0.014943397603929043
11054, 0.0072404504753649235, -0.13766251504421234, 0.10565570741891861, -0.08671964704990387, 0.1428115963935852, -0.09367403388023376, -0.0016474419971928, -0.0032770016696304083, 0.9975036978721619, 0.3442588448524475, -0.8088821172714233, 0.014943397603929043, 0.0, 0.0, 0.0, 0, 0, 0, 0, 0, 0, 0.3453741669654846, -0.8109940886497498, 0.015004238113760948
11064, 0.006933215074241161, -0.13896645605564117, 0.10570026934146881, 0.07056385278701782, 0.02191694639623165, -0.15825574100017548, -0.0011284479405730963, -0.0017174145905300975, 1.0010443925857544, 0.3453741669654846, -0.8109940886497498, 0.015004238113760948, 0.0, 0.0, 0.0, 0, 0, 0, 0, 0, 0, 0.3464904725551605, -0.8131089210510254, 0.015063561499118805
11074, 0.006256344728171825, -0.13814900815486908, 0.10565302520990372, -0.1418934464454651, 0.1075441837310791, 0.020809251815080643, -0.00019390862144064158, -0.0022368808276951313, 1.0020109415054321, 0.3464904725551605, -0.8131089210510254, 0.015063561499118805, 0.0, 0.0, 0.0, 0, 0, 0, 0, 0, 0, 0.34760838747024536, -0.815226137638092, 0.01512352004647255
11084, 0.00513371080160141, -0.13729488849639893, 0.1073274165391922, 0.14110834896564484, -0.28529298305511475, 0.15970592200756073, -0.0006739770178683102, -0.0004872985009569675, 1.0006985664367676, 0.34760838747024536, -0.815226137638092, 0.01512352004647255, 0.0, 0.0, 0.0, 0, 0, 0, 0, 0, 0, 0.34872809052467346, -0.8173452019691467, 0.015185083262622356
11094, 0.006436722353100777, -0.13764919340610504, 0.10660959780216217, 0.18144634366035461, -0.046577297151088715, -0.09881298989057541, -0.0006443033926188946, -0.003096621949225664, 1.0003434419631958, 0.34872809052467346, -0.8173452019691467, 0.015185083262622356, 0.0, 0.0, 0.0, 0, 0, 0, 0, 0, 0, 0.34984952211380005, -0.8194657564163208, 0.015247030183672905
11104, 0.006908911745995283, -0.13935182988643646, 0.10693246126174927, -0.18173274397850037, 0.406563937664032, 0.05871627479791641, -0.00023944128770381212, -0.0031249134335666895, 1.000999093055725, 0.34984952211380005, -0.8194657564163208, 0.015247030183672905, 0.0, 0.0, 0.0, 0, 0, 0, 0, 0, 0, 0.35097241401672363, -0.8215886354446411, 0.015309503301978111
11114, 0.006823067087680101, -0.1391938030719757, 0.10680610686540604, -0.030082261189818382, -0.24635012447834015, -0.059669144451618195, 0.0010687249014154077, -0.003425787203013897, 1.0014480352401733, 0.35097241401672363, -0.8215886354446411, 0.015309503301978111, 0.0, 0.0, 0.0, 0, 0, 0, 0, 0, 0, 0.35209736227989197, -0.823714554309845, 0.015373227186501026
11124, 0.007369301747530699, -0.13822056353092194, 0.10740970820188522, 0.12398558109998703, 0.15488381683826447, 0.05867428705096245, -0.0007785494672134519, -0.003416965948417783, 1.0021520853042603, 0.35209736227989197, -0.823714554309845, 0.015373227186501026, 0.0, 0.0, 0.0, 0, 0, 0, 0, 0, 0, 0.35322511196136475, -0.8258439898490906, 0.015438525006175041
11134, 0.0075964848510921, -0.13788436353206635, 0.10739266127347946, 0.007702573202550411, -0.2938918173313141, -0.002431294182315469, -0.0006095519638620317, -0.004147258121520281, 1.0008374452590942, 0.35322511196136475, -0.8258439898490906, 0.015438525006175041, 0.0, 0.0, 0.0, 0, 0, 0, 0, 0, 0, 0.35435500741004944, -0.8279774785041809, 0.015505792573094368
11144, 0.007432953920215368, -0.13623017072677612, 0.10774563252925873, -0.07218705862760544, -0.15670304000377655, 0.010373321361839771, -1.6952773876255378e-05, -0.0022790832445025444, 0.9997663497924805, 0.35435500741004944, -0.8279774785041809, 0.015505792573094368, 0.0, 0.0, 0.0, 0, 0, 0, 0, 0, 0, 0.3554864823818207, -0.8301146626472473, 0.015573891811072826
11154, 0.006792814936488867, -0.13652892410755157, 0.1090037077665329, 0.03753550350666046, 0.23267976939678192, 0.07479961216449738, 0.0006977662560530007, -0.0012964740162715316, 0.9995258450508118, 0.3554864823818207, -0.8301146626472473, 0.015573891811072826, 0.0, 0.0, 0.0, 0, 0, 0, 0, 0, 0, 0.35662004351615906, -0.8322544693946838, 0.015641773119568825
11164, 0.007217989768832922, -0.13646024465560913, 0.10839719325304031, -0.004496023524552584, -0.06365948915481567, 0.06126253306865692, 0.000990440370514989, -0.0007387296645902097, 1.0007145404815674, 0.35662004351615906, -0.8322544693946838, 0.015641773119568825, 0.0, 0.0, 0.0, 0, 0, 0, 0, 0, 0, 0.35775670409202576, -0.8343955278396606, 0.015709489583969116
11174, 0.007168026175349951, -0.1372920274734497, 0.10687907785177231, 0.0403410904109478, 0.23283050954341888, -0.2335088700056076, 0.0008019027300179005, -0.001251761568710208, 0.9995509386062622, 0.35775670409202576, -0.8343955278396606, 0.015709489583969116, 0.0, 0.0, 0.0, 0, 0, 0, 0, 0, 0, 0.3588968813419342, -0.8365374207496643, 0.01577710174024105
11184, 0.006991122383624315, -0.138320654630661, 0.10745752602815628, 0.06400648504495621, 0.12039509415626526, 0.10414476692676544, -0.001393539598211646, -0.003324974561110139, 0.9999643564224243, 0.3588968813419342, -0.8365374207496643, 0.01577710174024105, 0.0, 0.0, 0.0, 0, 0, 0, 0, 0, 0, 0.36003994941711426, -0.8386812806129456, 0.01584448106586933
11194, 0.006189920473843813, -0.13870903849601746, 0.10862145572900772, -0.11663540452718735, 0.15128770470619202, 0.19747145473957062, 0.0009614363661967218, -0.0028106095269322395, 0.9993715882301331, 0.36003994941711426, -0.8386812806129456, 0.01584448106586933, 0.0, 0.0, 0.0, 0, 0, 0, 0, 0, 0, 0.36118507385253906, -0.8408280611038208, 0.015911618247628212
11204, 0.006087766960263252, -0.13847486674785614, 0.1071881577372551, 0.02206694521009922, -0.1437670737504959, -0.18685853481292725, 0.0004951206501573324, -0.0021520103327929974, 0.9999193549156189, 0.36118507385253906, -0.8408280611038208, 0.015911618247628212, 0.0, 0.0, 0.0, 0, 0, 0, 0, 0, 0, 0.3623327612876892, -0.8429775834083557, 0.015978394076228142
11214, 0.005919551942497492, -0.13737653195858002, 0.10663055628538132, -0.023041700944304466, 0.01936228759586811, 0.018700052052736282, -0.0007143705151975155, -0.002920607104897499, 1.0007431507110596, 0.3623327612876892, -0.8429775834083557, 0.015978394076228142, 0.0, 0.0, 0.0, 0, 0, 0, 0, 0, 0, 0.36348289251327515, -0.8451296091079712, 0.016045058146119118
11224, 0.005311122164130211, -0.13771317899227142, 0.1066431999206543, -7.099472713889554e-05, 0.02321263961493969, -0.09935390204191208, -0.0004963630926795304, -0.00432976521551609, 0.9985141754150391, 0.36348289251327515, -0.8451296091079712, 0.016045058146119118, 0.0, 0.0, 0.0, 0, 0, 0, 0, 0, 0, 0.36463481187820435, -0.847284734249115, 0.01611163839697838
11234, 0.005358744878321886, -0.13715292513370514, 0.10672956705093384, -0.09282920509576797, -0.01507581677287817, -0.030840232968330383, 0.0005795859033241868, -0.002172172535210848, 1.0010921955108643, 0.36463481187820435, -0.847284734249115, 0.01611163839697838, 0.0, 0.0, 0.0, 0, 0, 0, 0, 0, 0, 0.3657889664173126, -0.849443793296814, 0.016177868470549583
11244, 0.00615393090993166, -0.13678418099880219, 0.10926086455583572, 0.2119433581829071, -0.08009427040815353, 0.37259823083877563, -0.0013361675664782524, -0.004374180920422077, 1.0017510652542114, 0.3657889664173126, -0.849443793296814, 0.016177868470549583, 0.0, 0.0, 0.0, 0, 0, 0, 0, 0, 0, 0.36694568395614624, -0.8516058921813965, 0.016245098784565926
11254, 0.006774955429136753, -0.1379973590373993, 0.10915292054414749, 0.04917895048856735, 0.13633854687213898, 0.10427410900592804, -0.0011194800026714802, -0.003632717300206423, 0.9991477131843567, 0.36694568395614624, -0.8516058921813965, 0.016245098784565926, 0.0, 0.0, 0.0, 0, 0, 0, 0, 0, 0, 0.3681039810180664, -0.8537712097167969, 0.01631343364715576
11264, 0.007695803418755531, -0.13705983757972717, 0.10903939604759216, 0.14507968723773956, 0.037157092243433, -0.010396284982562065, 0.0024175129365175962, -0.0032844559755176306, 1.0002520084381104, 0.3681039810180664, -0.8537712097167969, 0.01631343364715576, 0.0, 0.0, 0.0, 0, 0, 0, 0, 0, 0, 0.36926406621932983, -0.8559401631355286, 0.016381504014134407
11274, 0.0075102318078279495, -0.1371014416217804, 0.10811503231525421, 0.1176072284579277, -0.05756593123078346, -0.10293225944042206, 0.0008979858830571175, -0.0037702531553804874, 1.0000708103179932, 0.36926406621932983, -0.8559401631355286, 0.016381504014134407, 0.0, 0.0, 0.0, 0, 0, 0, 0, 0, 0, 0.37042784690856934, -0.8581123352050781, 0.016449445858597755
11284, 0.007772502023726702, -0.13660119473934174, 0.1094791516661644, -0.07395223528146744, -0.1343001276254654, 0.015029902569949627, -0.00019951579452026635, -0.0021246548276394606, 1.0002825260162354, 0.37042784690856934, -0.8581123352050781, 0.016449445858597755, 0.0, 0.0, 0.0, 0, 0, 0, 0, 0, 0, 0.3715949058532715, -0.8602877855300903, 0.016517605632543564
11294, 0.007967093028128147, -0.13727988302707672, 0.10964831709861755, -0.06842449307441711, 0.1233024001121521, 0.0788460299372673, -3.4135623536712956e-06, -0.0032899477519094944, 1.001124382019043, 0.3715949058532715, -0.8602877855300903, 0.016517605632543564, 0.0, 0.0, 0.0, 0, 0, 0, 0, 0, 0, 0.37276411056518555, -0.8624662160873413, 0.01658601313829422
11304, 0.007681289222091436, -0.13679082691669464, 0.11061394214630127, -0.10043001919984818, -0.014906634576618671, 0.06698139756917953, 0.0007122159586288035, -0.003321888390928507, 1.001081943511963, 0.37276411056518555, -0.8624662160873413, 0.01658601313829422, 0.0, 0.0, 0.0, 0, 0, 0, 0, 0, 0, 0.3739358186721802, -0.8646478652954102, 0.01665535569190979
11314, 0.007123516872525215, -0.1382736712694168, 0.11023476719856262, 0.03871461749076843, -0.0591210275888443, 0.1078464612364769, 0.0009237563353963196, -0.003262855811044574, 0.9977322220802307, 0.3739358186721802, -0.8646478652954102, 0.01665535569190979, 0.0, 0.0, 0.0, 0, 0, 0, 0, 0, 0, 0.3751107454299927, -0.8668330907821655, 0.01672489196062088
11324, 0.006783110089600086, -0.13846589624881744, 0.10987270623445511, -0.09997477382421494, 0.21615347266197205, 0.03802129626274109, 0.0013579875230789185, -0.004242346156388521, 1.000632643699646, 0.3751107454299927, -0.8668330907821655, 0.01672489196062088, 0.0, 0.0, 0.0, 0, 0, 0, 0, 0, 0, 0.376289039850235, -0.8690218329429626, 0.016793400049209595
11334, 0.00588343758136034, -0.13844706118106842, 0.11135707050561905, -0.008084177039563656, -0.05332242697477341, 0.035999033600091934, 0.0007630670443177223, -0.004330702591687441, 1.000733494758606, 0.376289039850235, -0.8690218329429626, 0.016793400049209595, 0.0, 0.0, 0.0, 0, 0, 0, 0, 0, 0, 0.3774706721305847, -0.8712144494056702, 0.0168621763586998
11344, 0.0070059518329799175, -0.1401234120130539, 0.11058491468429565, -0.048272792249917984, 0.09671641886234283, -0.04647022485733032, 0.0010085544781759381, -0.0038385188672691584, 0.9995794892311096, 0.3774706721305847, -0.8712144494056702, 0.0168621763586998, 0.0, 0.0, 0.0, 0, 0, 0, 0, 0, 0, 0.3786555528640747, -0.8734112977981567, 0.016931546851992607
11354, 0.006194757763296366, -0.13767236471176147, 0.1096639335155487, -0.05049635097384453, -0.4396427571773529, -0.012125074863433838, -0.0004512699379120022, -0.003426586976274848, 1.001019835472107, 0.3786555528640747, -0.8734112977981567, 0.016931546851992607, 0.0, 0.0, 0.0, 0, 0, 0, 0, 0, 0, 0.3798432946205139, -0.8756121397018433, 0.017001353204250336
11364, 0.006493050139397383, -0.1376943439245224, 0.11057014763355255, 0.06534772366285324, -0.12494424730539322, 0.26609936356544495, -0.001075400155968964, -0.0022150781005620956, 1.0016000270843506, 0.3798432946205139, -0.8756121397018433, 0.017001353204250336, 0.0, 0.0, 0.0, 0, 0, 0, 0, 0, 0, 0.38103315234184265, -0.8778162598609924, 0.017072267830371857
11374, 0.00662757596001029, -0.13904280960559845, 0.11130846291780472, -0.01248440332710743, 0.14969271421432495, 0.018659263849258423, -6.330843461910263e-05, -0.0026851205620914698, 0.9989147782325745, 0.38103315234184265, -0.8778162598609924, 0.017072267830371857, 0.0, 0.0, 0.0, 0, 0, 0, 0, 0, 0, 0.38222479820251465, -0.8800227642059326, 0.017143914476037025
11384, 0.006441587116569281, -0.13985082507133484, 0.11114678531885147, -0.10371729731559753, -0.017249509692192078, 0.05730780214071274, 0.0019171863095834851, -0.004797052126377821, 1.0015360116958618, 0.38222479820251465, -0.8800227642059326, 0.017143914476037025, 0.0, 0.0, 0.0, 0, 0, 0, 0, 0, 0, 0.38341906666755676, -0.8822324275970459, 0.01721571385860443
11394, 0.00738464156165719, -0.1392417550086975, 0.11092928797006607, 0.06738594174385071, -0.2193116843700409, 0.03865404799580574, 0.0031705875881016254, -0.0016012596897780895, 1.0007315874099731, 0.38341906666755676, -0.8822324275970459, 0.01721571385860443, 0.0, 0.0, 0.0, 0, 0, 0, 0, 0, 0, 0.3846176862716675, -0.8844454884529114, 0.017288165166974068
11404, 0.006639583967626095, -0.13804158568382263, 0.11116255819797516, 0.057044677436351776, -0.20244497060775757, 0.09416588395833969, 0.0012253952445462346, -0.0033620367757976055, 0.998270571231842, 0.3846176862716675, -0.8844454884529114, 0.017288165166974068, 0.0, 0.0, 0.0, 0, 0, 0, 0, 0, 0, 0.385821133852005, -0.8866614699363708, 0.01736101321876049
11414, 0.006539308466017246, -0.1395384967327118, 0.10947249829769135, -0.0920407846570015, 0.3385341465473175, -0.21403534710407257, -0.0002265370130771771, -0.004677084274590015, 0.9976136684417725, 0.385821133852005, -0.8866614699363708, 0.01736101321876049, 0.0, 0.0, 0.0, 0, 0, 0, 0, 0, 0, 0.3870279788970947, -0.888880729675293, 0.01743253320455551
11424, 0.007738790009170771, -0.13939788937568665, 0.1097351536154747, 0.1645308881998062, -0.34629693627357483, -0.051590193063020706, 0.0006037873099558055, -0.003713789628818631, 0.9990519285202026, 0.3870279788970947, -0.888880729675293, 0.01743253320455551, 0.0, 0.0, 0.0, 0, 0, 0, 0, 0, 0, 0.38823774456977844, -0.8911041617393494, 0.017502211034297943
11434, 0.008563248440623283, -0.13849589228630066, 0.11029480397701263, 0.15646930038928986, 0.08998885005712509, 0.0795791819691658, 0.001473430311307311, -0.002428298583254218, 0.9986329674720764, 0.38823774456977844, -0.8911041617393494, 0.017502211034297943, 0.0, 0.0, 0.0, 0, 0, 0, 0, 0, 0, 0.3894508183002472, -0.8933313488960266, 0.01757068559527397
11444, 0.008202933706343174, -0.13876916468143463, 0.11088231205940247, 0.09671986848115921, 0.010772310197353363, -0.0642036497592926, 0.00041108173900283873, -0.0013868740061298013, 1.0002752542495728, 0.3894508183002472, -0.8933313488960266, 0.01757068559527397, 0.0, 0.0, 0.0, 0, 0, 0, 0, 0, 0, 0.39066722989082336, -0.8955608606338501, 0.017638415098190308
11454, 0.009124976582825184, -0.13755598664283752, 0.11212123185396194, 0.04385112226009369, 0.005510877352207899, 0.2630619406700134, -0.00044719819561578333, -0.0027154802810400724, 1.0000087022781372, 0.39066722989082336, -0.8955608606338501, 0.017638415098190308, 0.0, 0.0, 0.0, 0, 0, 0, 0, 0, 0, 0.39188623428344727, -0.8977922797203064, 0.017705785110592842
11464, 0.009427141398191452, -0.13658437132835388, 0.11227481812238693, -0.039152584969997406, -0.07154581695795059, -0.14333504438400269, 0.0016049585537984967, -0.00034485087962821126, 1.0011738538742065, 0.39188623428344727, -0.8977922797203064, 0.017705785110592842, 0.0, 0.0, 0.0, 0, 0, 0, 0, 0, 0, 0.39310792088508606, -0.9000257253646851, 0.017773492261767387
11474, 0.00986301526427269, -0.13798722624778748, 0.1123206689953804, 0.2112836092710495, 0.3540632426738739, 0.013891219161450863, 0.00015622108185198158, -0.002963169477880001, 0.9987264275550842, 0.39310792088508606, -0.9000257253646851, 0.017773492261767387, 0.0, 0.0, 0.0, 0, 0, 0, 0, 0, 0, 0.3943327069282532, -0.9022608995437622, 0.017841288819909096
11484, 0.009952826425433159, -0.13660630583763123, 0.11226581037044525, 0.054045699536800385, 0.0004852195270359516, -0.07096731662750244, 0.00165404356084764, -0.003796662436798215, 1.0004329681396484, 0.3943327069282532, -0.9022608995437622, 0.017841288819909096, 0.0, 0.0, 0.0, 0, 0, 0, 0, 0, 0, 0.3955606520175934, -0.9044986367225647, 0.017908738926053047
11494, 0.008940698578953743, -0.13774988055229187, 0.11162691563367844, 0.03957350552082062, -0.059208910912275314, -0.058733727782964706, -0.002130085602402687, -0.0033219994511455297, 0.9983816146850586, 0.3955606520175934, -0.9044986367225647, 0.017908738926053047, 0.0, 0.0, 0.0, 0, 0, 0, 0, 0, 0, 0.3967912495136261, -0.906740128993988, 0.017975861206650734
11504, 0.009157405234873295, -0.13746050000190735, 0.11222434788942337, 0.0850215032696724, -0.023612109944224358, 0.09361034631729126, -0.0009223798988386989, -0.0007204149151220918, 0.9996398687362671, 0.3967912495136261, -0.906740128993988, 0.017975861206650734, 0.0, 0.0, 0.0, 0, 0, 0, 0, 0, 0, 0.39802324771881104, -0.9089844822883606, 0.01804223470389843
11514, 0.008669629693031311, -0.13705676794052124, 0.11307358741760254, -0.0623781755566597, -0.032437898218631744, 0.12574049830436707, -0.00014220741286408156, -0.0004500727809499949, 0.99978107213974, 0.39802324771881104, -0.9089844822883606, 0.01804223470389843, 0.0, 0.0, 0.0, 0, 0, 0, 0, 0, 0, 0.39925646781921387, -0.9112300276756287, 0.018107930198311806
11524, 0.008053638972342014, -0.13829895853996277, 0.11280199885368347, 0.15257523953914642, 0.07945709675550461, -0.033292658627033234, 0.0013647605665028095, -0.001973312348127365, 1.0007492303848267, 0.39925646781921387, -0.9112300276756287, 0.018107930198311806, 0.0, 0.0, 0.0, 0, 0, 0, 0, 0, 0, 0.4004921019077301, -0.9134767055511475, 0.018173521384596825
11534, 0.00818189699202776, -0.1390373259782791, 0.11260385066270828, 0.05410592257976532, -0.035491883754730225, -0.10571442544460297, 0.0013136209454387426, -0.0015577898593619466, 1.0018473863601685, 0.4004921019077301, -0.9134767055511475, 0.018173521384596825, 0.0, 0.0, 0.0, 0, 0, 0, 0, 0, 0, 0.4017312526702881, -0.9157254099845886, 0.018240027129650116
11544, 0.007841113023459911, -0.14018204808235168, 0.11212565004825592, -0.05271591246128082, 0.3448735773563385, 0.02959022857248783, 0.00017994019435718656, -0.003322817385196686, 1.0025370121002197, 0.4017312526702881, -0.9157254099845886, 0.018240027129650116, 0.0, 0.0, 0.0, 0, 0, 0, 0, 0, 0, 0.40297383069992065, -0.9179764986038208, 0.01830824464559555
11554, 0.007461241912096739, -0.14049628376960754, 0.11221281439065933, 0.0010485748061910272, 0.016505921259522438, 0.013111026957631111, 0.0013043205253779888, -0.0022687811870127916, 1.0013909339904785, 0.40297383069992065, -0.9179764986038208, 0.01830824464559555, 0.0, 0.0, 0.0, 0, 0, 0, 0, 0, 0, 0.40421944856643677, -0.920229971408844, 0.01837833598256111
11564, 0.007980025373399258, -0.14120611548423767, 0.11394570767879486, 0.09306853264570236, -0.18455684185028076, 0.27903029322624207, 0.0010704901069402695, -0.0035467809066176414, 0.999857485294342, 0.40421944856643677, -0.920229971408844, 0.01837833598256111, 0.0, 0.0, 0.0, 0, 0, 0, 0, 0, 0, 0.40546828508377075, -0.9224860668182373, 0.018449552357196808
11574, 0.00799785926938057, -0.13828450441360474, 0.11278997361660004, 0.10949195176362991, -0.19961431622505188, 0.011155451647937298, 0.0016755065880715847, -0.0035280229058116674, 0.9990158677101135, 0.40546828508377075, -0.9224860668182373, 0.018449552357196808, 0.0, 0.0, 0.0, 0, 0, 0, 0, 0, 0, 0.4067208170890808, -0.9247452020645142, 0.018520720303058624
11584, 0.008511887863278389, -0.1386253982782364, 0.11270059645175934, 0.016936006024479866, 0.12397180497646332, -0.1461847871541977, 0.0015291234012693167, -0.003534774063155055, 1.0008069276809692, 0.4067208170890808, -0.9247452020645142, 0.018520720303058624, 0.0, 0.0, 0.0, 0, 0, 0, 0, 0, 0, 0.4079773426055908, -0.9270080327987671, 0.018591664731502533
11594, 0.008960768580436707, -0.13863810896873474, 0.11176174879074097, 0.0015551348915323615, 0.08198404312133789, -0.13564041256904602, 0.0015655235620215535, -0.0020461142994463444, 1.0007017850875854, 0.4079773426055908, -0.9270080327987671, 0.018591664731502533, 0.0, 0.0, 0.0, 0, 0, 0, 0, 0, 0, 0.40923792123794556, -0.9292740821838379, 0.018662970513105392
11604, 0.009695938788354397, -0.1379331350326538, 0.11195411533117294, 0.15901152789592743, 0.012663827277719975, 0.15024252235889435, -0.0008302396745420992, -0.0027546638157218695, 1.0009937286376953, 0.40923792123794556, -0.9292740821838379, 0.018662970513105392, 0.0, 0.0, 0.0, 0, 0, 0, 0, 0, 0, 0.4105018079280853, -0.9315425157546997, 0.01873486116528511
11614, 0.009592915885150433, -0.13720466196537018, 0.11300493776798248, -0.02886820398271084, 0.2508576810359955, 0.06196892261505127, -0.00221501593478024, -0.0026148888282477856, 1.000653624534607, 0.4105018079280853, -0.9315425157546997, 0.01873486116528511, 0.0, 0.0, 0.0, 0, 0, 0, 0, 0, 0, 0.4117671251296997, -0.9338138103485107, 0.01880728453397751
11624, 0.009039548225700855, -0.13611485064029694, 0.11262866854667664, -0.09162317216396332, -0.09248723834753036, -0.10976868867874146, -0.0013430006802082062, -0.0010252173524349928, 1.0007848739624023, 0.4117671251296997, -0.9338138103485107, 0.01880728453397751, 0.0, 0.0, 0.0, 0, 0, 0, 0, 0, 0, 0.4130330979824066, -0.9360876083374023, 0.01888052374124527
11634, 0.008498559705913067, -0.1366594135761261, 0.11286485195159912, -0.24796822667121887, 0.4050045311450958, -0.07396631687879562, -0.0004097732889931649, -0.0035858331248164177, 1.0008076429367065, 0.4130330979824066, -0.9360876083374023, 0.01888052374124527, 0.0, 0.0, 0.0, 0, 0, 0, 0, 0, 0, 0.4143006503582001, -0.938363254070282, 0.018954791128635406
11644, 0.008781337179243565, -0.13663634657859802, 0.11059310287237167, 0.07921147346496582, 0.14871393144130707, -0.3602220416069031, -0.0015726457349956036, -0.004969847854226828, 0.9990382790565491, 0.4143006503582001, -0.938363254070282, 0.018954791128635406, 0.0, 0.0, 0.0, 0, 0, 0, 0, 0, 0, 0.41556990146636963, -0.9406421780586243, 0.019029559567570686
11654, 0.00879878643900156, -0.1380772888660431, 0.11149664968252182, -0.02205493114888668, 0.04364532232284546, -0.039441611617803574, -0.0006833848310634494, -0.00225242436863482, 1.0007699728012085, 0.41556990146636963, -0.9406421780586243, 0.019029559567570686, 0.0, 0.0, 0.0, 0, 0, 0, 0, 0, 0, 0.4168403744697571, -0.9429251551628113, 0.019103871658444405
11664, 0.008227323181927204, -0.13744951784610748, 0.10879389196634293, -0.19188286364078522, -0.12075451761484146, -0.19526566565036774, 0.00014069813187234104, -0.0018766248831525445, 1.0009492635726929, 0.4168403744697571, -0.9429251551628113, 0.019103871658444405, 0.0, 0.0, 0.0, 0, 0, 0, 0, 0, 0, 0.4181124269962311, -0.9452111721038818, 0.01917843706905842
11674, 0.007876014336943626, -0.1366807222366333, 0.10893473774194717, 0.01931072771549225, 0.02057645469903946, -0.028064390644431114, 0.0012906425399705768, 0.00017591383948456496, 0.9997051954269409, 0.4181124269962311, -0.9452111721038818, 0.01917843706905842, 0.0, 0.0, 0.0, 0, 0, 0, 0, 0, 0, 0.4193868935108185, -0.9474989175796509, 0.01925375871360302
11684, 0.007963348180055618, -0.13627402484416962, 0.1081203892827034, -0.11854801326990128, 0.07774944603443146, -0.3364036977291107, -0.0005982408183626831, -0.0021670092828571796, 0.9977291226387024, 0.42066410183906555, -0.9497876763343811, 0.019328733906149864, 0.0, 0.0, 0.0, 0, 0, 0, 0, 0, 0, 0.42066410183906555, -0.9497876763343811, 0.019328733906149864
11694, 0.007562396582216024, -0.13339446485042572, 0.10663390904664993, -0.11398723721504211, -0.2870188355445862, -0.09068143367767334, -2.6402369257993996e-05, -0.002744280034676194, 0.9988467693328857, 0.4219438433647156, -0.9520782828330994, 0.019402069970965385, 0.0, 0.0, 0.0, 0, 0, 0, 0, 0, 0, 0.4219438433647156, -0.9520782828330994, 0.019402069970965385
11704, 0.00764696579426527, -0.1333664357662201, 0.10767717659473419, -0.03714928776025772, 0.26174429059028625, 0.21726514399051666, -0.0006973775452934206, -0.0012892259983345866, 0.9988290071487427, 0.42322567105293274, -0.9543712735176086, 0.01947391778230667, 0.0, 0.0, 0.0, 0, 0, 0, 0, 0, 0, 0.42322567105293274, -0.9543712735176086, 0.01947391778230667
11714, 0.0073480140417814255, -0.13405069708824158, 0.1081843227148056, -0.14422041177749634, 0.11082296818494797, -0.07329805195331573, -0.0003358402173034847, -0.002494685584679246, 0.9985964298248291, 0.42450928688049316, -0.9566665291786194, 0.01954466663300991, 0.0, 0.0, 0.0, 0, 0, 0, 0, 0, 0, 0.42450928688049316, -0.9566665291786194, 0.01954466663300991
11724, 0.006832112558186054, -0.1351713240146637, 0.107264444231987, 0.032314687967300415, 0.02989722415804863, 0.06667625904083252, -0.0007951371953822672, -0.0018358964007347822, 0.9996671676635742, 0.4257945418357849, -0.9589639902114868, 0.01961403153836727, 0.0, 0.0, 0.0, 0, 0, 0, 0, 0, 0, 0.4257945418357849, -0.9589639902114868, 0.01961403153836727
11734, 0.006500394083559513, -0.13453863561153412, 0.10735440254211426, -0.09373757988214493, 0.27235180139541626, 0.016401929780840874, -0.0002878359518945217, -0.0019423720659688115, 0.9998613595962524, 0.4257945418357849, -0.9589639902114868, 0.01961403153836727, 0.0, 0.0, 0.0, 0, 0, 0, 0, 0, 0, 0.4272101819515228, -0.9614937901496887, 0.019689740613102913
11744, 0.006867676042020321, -0.13595566153526306, 0.10738176107406616, 0.011269514448940754, -0.05553800240159035, 0.007679574191570282, 0.0012761343969032168, -0.0019780946895480156, 0.9996841549873352, 0.4272101819515228, -0.9614937901496887, 0.019689740613102913, 0.0, 0.0, 0.0, 0, 0, 0, 0, 0, 0, 0.42849934101104736, -0.9637958407402039, 0.019758155569434166
11754, 0.007150240708142519, -0.13481806218624115, 0.10727426409721375, 0.09069672971963882, 0.03127865493297577, 0.18480755388736725, 0.001975713763386011, -0.0019697071984410286, 1.0003535747528076, 0.42849934101104736, -0.9637958407402039, 0.019758155569434166, 0.0, 0.0, 0.0, 0, 0, 0, 0, 0, 0, 0.42979171872138977, -0.9660997986793518, 0.019826186820864677
11764, 0.00717286067083478, -0.13488875329494476, 0.10733871161937714, 0.07548350840806961, 0.015316188335418701, -0.019645512104034424, -0.00023271368991117924, -0.0018758629448711872, 1.002124309539795, 0.42979171872138977, -0.9660997986793518, 0.019826186820864677, 0.0, 0.0, 0.0, 0, 0, 0, 0, 0, 0, 0.4310876429080963, -0.9684056043624878, 0.019894883036613464
11774, 0.00726246926933527, -0.13311050832271576, 0.10658255219459534, 0.016797909513115883, -0.30478620529174805, -0.15952946245670319, -0.0006408574990928173, -0.0017235223203897476, 1.0017650127410889, 0.4310876429080963, -0.9684056043624878, 0.019894883036613464, 0.0, 0.0, 0.0, 0, 0, 0, 0, 0, 0, 0.4323859214782715, -0.9707133769989014, 0.01996516063809395
11784, 0.007462456356734037, -0.13611218333244324, 0.10733228176832199, -0.029941096901893616, 0.3666723966598511, 0.07894908636808395, 0.0009905063780024648, -0.0006264456314966083, 1.0002371072769165, 0.4323859214782715, -0.9707133769989014, 0.01996516063809395, 0.0, 0.0, 0.0, 0, 0, 0, 0, 0, 0, 0.4336864650249481, -0.9730227589607239, 0.020036794245243073
11794, 0.007116468157619238, -0.13759922981262207, 0.10738713294267654, -0.09795980900526047, 0.3034648001194, 0.04560202360153198, -0.00128746940754354, -0.005458205007016659, 1.0002740621566772, 0.4336864650249481, -0.9730227589607239, 0.020036794245243073, 0.0, 0.0, 0.0, 0, 0, 0, 0, 0, 0, 0.4349895715713501, -0.9753344058990479, 0.02010868489742279
11804, 0.007317046634852886, -0.13576294481754303, 0.10712127387523651, 0.06836629658937454, -0.2407611459493637, -0.08663968741893768, 4.953687039233046e-06, -0.00284969643689692, 1.00017249584198, 0.4349895715713501, -0.9753344058990479, 0.02010868489742279, 0.0, 0.0, 0.0, 0, 0, 0, 0, 0, 0, 0.4362945854663849, -0.9776500463485718, 0.02018083818256855
11814, 0.007408557925373316, -0.13567793369293213, 0.10611695051193237, -0.04035232588648796, -0.4089345335960388, 0.050759874284267426, 0.0020650119986385107, -0.002463527489453554, 0.9974647164344788, 0.4362945854663849, -0.9776500463485718, 0.02018083818256855, 0.0, 0.0, 0.0, 0, 0, 0, 0, 0, 0, 0.4376022517681122, -0.9799692034721375, 0.020252589136362076
11824, 0.006981659214943647, -0.133995920419693, 0.10501885414123535, -0.016766643151640892, -0.28930118680000305, -0.023655589669942856, 0.0009190288255922496, -0.0036315210163593292, 0.9983320832252502, 0.4376022517681122, -0.9799692034721375, 0.020252589136362076, 0.0, 0.0, 0.0, 0, 0, 0, 0, 0, 0, 0.43891337513923645, -0.982291042804718, 0.020322566851973534
11834, 0.007584184408187866, -0.135117769241333, 0.1058034598827362, 0.14310519397258759, 0.059733521193265915, -0.02187342941761017, 3.446813570917584e-05, -0.003330674720928073, 1.0003912448883057, 0.43891337513923645, -0.982291042804718, 0.020322566851973534, 0.0, 0.0, 0.0, 0, 0, 0, 0, 0, 0, 0.4402274787425995, -0.9846162796020508, 0.020391155034303665
11844, 0.007360722403973341, -0.1344054937362671, 0.10573102533817291, -0.10239578783512115, 0.07648231834173203, 0.1435341238975525, 0.0021766768768429756, -0.004165323916822672, 1.0032520294189453, 0.4402274787425995, -0.9846162796020508, 0.020391155034303665, 0.0, 0.0, 0.0, 0, 0, 0, 0, 0, 0, 0.4415448307991028, -0.9869452714920044, 0.020460398867726326
11854, 0.00658479705452919, -0.13541720807552338, 0.10414127260446548, -0.008334747515618801, 0.37811970710754395, 0.028348902240395546, 0.0011371622094884515, -0.0036876616068184376, 0.999047577381134, 0.4415448307991028, -0.9869452714920044, 0.020460398867726326, 0.0, 0.0, 0.0, 0, 0, 0, 0, 0, 0, 0.4428660571575165, -0.9892781376838684, 0.02053103595972061
11864, 0.006233775522559881, -0.13405205309391022, 0.10419429838657379, -0.16216722130775452, -0.18485550582408905, 0.2930530607700348, 0.0005605727783404291, -0.0012702052481472492, 0.9985888004302979, 0.4428660571575165, -0.9892781376838684, 0.02053103595972061, 0.0, 0.0, 0.0, 0, 0, 0, 0, 0, 0, 0.4441905915737152, -0.9916141629219055, 0.020601216703653336
11874, 0.006167767569422722, -0.1342306137084961, 0.10552062839269638, 0.03843165189027786, -0.05835346505045891, 0.006177336443215609, 0.0016770402435213327, -0.0012935809791088104, 0.999435544013977, 0.4441905915737152, -0.9916141629219055, 0.020601216703653336, 0.0, 0.0, 0.0, 0, 0, 0, 0, 0, 0, 0.44551825523376465, -0.993952214717865, 0.020670462399721146
11884, 0.006107883062213659, -0.1344207227230072, 0.10425908118486404, 0.10227575153112411, -0.1515352874994278, -0.15195618569850922, 0.0009677388006821275, -0.006465883459895849, 0.9984797835350037, 0.44551825523376465, -0.993952214717865, 0.020670462399721146, 0.0, 0.0, 0.0, 0, 0, 0, 0, 0, 0, 0.446849524974823, -0.9962936043739319, 0.02073885314166546
11894, 0.0058600399643182755, -0.13652712106704712, 0.10395608842372894, 0.004054117016494274, 0.19543658196926117, -0.02113998495042324, -0.00028566684341058135, -0.005457053426653147, 1.0000784397125244, 0.446849524974823, -0.9962936043739319, 0.02073885314166546, 0.0, 0.0, 0.0, 0, 0, 0, 0, 0, 0, 0.4481837749481201, -0.9986404180526733, 0.02080622687935829
11904, 0.005560164339840412, -0.1372518390417099, 0.10531020909547806, -0.11180119961500168, 0.1445978581905365, 0.31110551953315735, 0.002687168074771762, -0.0026897911448031664, 0.9993283748626709, 0.4481837749481201, -0.9986404180526733, 0.02080622687935829, 0.0, 0.0, 0.0, 0, 0, 0, 0, 0, 0, 0.44952118396759033, -1.0009920597076416, 0.020873304456472397
11914, 0.006519260350614786, -0.13685868680477142, 0.10531315952539444, 0.15892086923122406, -0.07528214901685715, -0.06440896540880203, 0.0014058566885069013, -0.002768926788121462, 1.0004231929779053, 0.44952118396759033, -1.0009920597076416, 0.020873304456472397, 0.0, 0.0, 0.0, 0, 0, 0, 0, 0, 0, 0.45086270570755005, -1.0033466815948486, 0.020940430462360382
11924, 0.005923791788518429, -0.1370864063501358, 0.1049768403172493, -0.0488349050283432, 0.1613876223564148, 0.04509391635656357, -0.00046207121340557933, -0.0042429156601428986, 1.001495122909546, 0.45086270570755005, -1.0033466815948486, 0.020940430462360382, 0.0, 0.0, 0.0, 0, 0, 0, 0, 0, 0, 0.45220765471458435, -1.0057042837142944, 0.021008165553212166
11934, 0.006267613731324673, -0.1372850090265274, 0.10496808588504791, -0.016866598278284073, -0.0842551440000534, 0.2075815349817276, 2.0395802494022064e-05, -0.0049397265538573265, 0.9988871812820435, 0.45220765471458435, -1.0057042837142944, 0.021008165553212166, 0.0, 0.0, 0.0, 0, 0, 0, 0, 0, 0, 0.45355525612831116, -1.0080660581588745, 0.021076437085866928
11944, 0.0060067749582231045, -0.13856816291809082, 0.10452535003423691, -0.13346454501152039, 0.20467840135097504, -0.10234592854976654, 0.0018711562734097242, -0.0021601838525384665, 0.9999887347221375, 0.45355525612831116, -1.0080660581588745, 0.021076437085866928, 0.0, 0.0, 0.0, 0, 0, 0, 0, 0, 0, 0.45490583777427673, -1.0104315280914307, 0.02114434912800789
11954, 0.005688884295523167, -0.13849467039108276, 0.10583406686782837, -0.06517944484949112, -0.13875612616539001, 0.10556076467037201, 0.0030139819718897343, -0.0010588731383904815, 1.001712679862976, 0.45490583777427673, -1.0104315280914307, 0.02114434912800789, 0.0, 0.0, 0.0, 0, 0, 0, 0, 0, 0, 0.456260621547699, -1.0127993822097778, 0.02121262438595295
11964, 0.006545346695929766, -0.1377655416727066, 0.10609865933656693, 0.11230163276195526, -0.07170350104570389, 0.1106981635093689, 0.001448466326110065, -0.0039884308353066444, 0.9992190599441528, 0.456260621547699, -1.0127993822097778, 0.02121262438595295, 0.0, 0.0, 0.0, 0, 0, 0, 0, 0, 0, 0.45762014389038086, -1.0151692628860474, 0.02128165401518345
11974, 0.0072762672789394855, -0.13716578483581543, 0.10614718496799469, 0.09602780640125275, -0.052326686680316925, 0.0716908648610115, -1.2132176379964221e-05, -0.0039724623784422874, 0.999180257320404, 0.45762014389038086, -1.0151692628860474, 0.02128165401518345, 0.0, 0.0, 0.0, 0, 0, 0, 0, 0, 0, 0.45898309350013733, -1.0175424814224243, 0.021350430324673653
11984, 0.0067405723966658115, -0.1369604468345642, 0.10706976801156998, -0.055551666766405106, 0.06343627721071243, -0.0012763985432684422, 0.0014522771816700697, -0.0040888856165111065, 0.9990280270576477, 0.45898309350013733, -1.0175424814224243, 0.021350430324673653, 0.0, 0.0, 0.0, 0, 0, 0, 0, 0, 0, 0.4603489935398102, -1.019919991493225, 0.021418195217847824
11994, 0.006371706258505583, -0.13799434900283813, 0.10780614614486694, 0.04845704138278961, -0.18272849917411804, 0.10099825263023376, 0.0020302380435168743, -0.002512961393222213, 1.0013459920883179, 0.4603489935398102, -1.019919991493225, 0.021418195217847824, 0.0, 0.0, 0.0, 0, 0, 0, 0, 0, 0, 0.46171846985816956, -1.0223013162612915, 0.02148580364882946
12004, 0.006521899253129959, -0.13889040052890778, 0.10844804346561432, 0.02778766304254532, 0.15601268410682678, 0.1313038468360901, 0.0007288292981684208, -0.0012559808092191815, 0.998877227306366, 0.46171846985816956, -1.0223013162612915, 0.02148580364882946, 0.0, 0.0, 0.0, 0, 0, 0, 0, 0, 0, 0.46309179067611694, -1.0246849060058594, 0.021554024890065193
12014, 0.006133729126304388, -0.1359548717737198, 0.1071818396449089, -0.11080022901296616, -0.2916758954524994, -0.12956586480140686, -0.00020591057545971125, -0.0025234611239284277, 0.9984466433525085, 0.46309179067611694, -1.0246849060058594, 0.021554024890065193, 0.0, 0.0, 0.0, 0, 0, 0, 0, 0, 0, 0.4644682705402374, -1.0270702838897705, 0.021621428430080414
12024, 0.007230982184410095, -0.13574276864528656, 0.10908374190330505, 0.21401730179786682, 0.016695654019713402, 0.40574532747268677, -0.0014433484757319093, -0.0026595296803861856, 1.0002737045288086, 0.4644682705402374, -1.0270702838897705, 0.021621428430080414, 0.0, 0.0, 0.0, 0, 0, 0, 0, 0, 0, 0.46584638953208923, -1.0294580459594727, 0.02168782241642475
12034, 0.006970312912017107, -0.13435710966587067, 0.10925975441932678, 0.10069471597671509, 0.011244622990489006, -0.07690577208995819, 0.000494401145260781, -0.0016018747119233012, 0.9980196952819824, 0.46584638953208923, -1.0294580459594727, 0.02168782241642475, 0.0, 0.0, 0.0, 0, 0, 0, 0, 0, 0, 0.46722611784935, -1.031848430633545, 0.02175368368625641
12044, 0.008172242902219296, -0.13393037021160126, 0.10812146216630936, 0.07137474417686462, -0.007336030248552561, -0.18730825185775757, -0.002236850094050169, -0.0012456964468583465, 0.9977144598960876, 0.46722611784935, -1.031848430633545, 0.02175368368625641, 0.0, 0.0, 0.0, 0, 0, 0, 0, 0, 0, 0.468607634305954, -1.0342408418655396, 0.02181798405945301
12054, 0.008997960016131401, -0.1345270425081253, 0.11007792502641678, 0.017075976356863976, 0.032783202826976776, 0.189543217420578, -0.0005797350313514471, -0.0021332427859306335, 1.0002120733261108, 0.468607634305954, -1.0342408418655396, 0.02181798405945301, 0.0, 0.0, 0.0, 0, 0, 0, 0, 0, 0, 0.4699901342391968, -1.0366350412368774, 0.0218808613717556
12064, 0.00846761092543602, -0.1335030198097229, 0.10840804129838943, -0.20894360542297363, -0.1823950856924057, -0.0660177618265152, -0.0008861339301802218, -0.0008008001605048776, 1.0015889406204224, 0.4699901342391968, -1.0366350412368774, 0.0218808613717556, 0.0, 0.0, 0.0, 0, 0, 0, 0, 0, 0, 0.4713740646839142, -1.0390311479568481, 0.021944183856248856
12074, 0.00907209049910307, -0.13186943531036377, 0.10926807671785355, 0.22597971558570862, 0.027892930433154106, 0.05175956338644028, -0.0008254535496234894, -0.002001906046643853, 1.00034499168396, 0.4713740646839142, -1.0390311479568481, 0.021944183856248856, 0.0, 0.0, 0.0, 0, 0, 0, 0, 0, 0, 0.4727596342563629, -1.0414289236068726, 0.022008659318089485
12084, 0.00833619013428688, -0.13068492710590363, 0.1092064380645752, 0.0882091149687767, -0.13156186044216156, -0.13078217208385468, -0.0010833287378773093, -0.00042996666161343455, 1.001252293586731, 0.4727596342563629, -1.0414289236068726, 0.022008659318089485, 0.0, 0.0, 0.0, 0, 0, 0, 0, 0, 0, 0.4741465151309967, -1.0438278913497925, 0.022074146196246147
12094, 0.008658106438815594, -0.12997370958328247, 0.10782690346240997, 0.01722886599600315, -0.17874082922935486, -0.09487523138523102, -4.518298010225408e-05, -0.0005331581342034042, 1.0000945329666138, 0.4741465151309967, -1.0438278913497925, 0.022074146196246147, 0.0, 0.0, 0.0, 0, 0, 0, 0, 0, 0, 0.4755348265171051, -1.0462276935577393, 0.022140540182590485
12104, 0.00936728436499834, -0.12764503061771393, 0.1086169183254242, -0.056527335196733475, -0.20845581591129303, 0.05326980724930763, 0.0014044443378224969, -0.0012415864039212465, 0.9983053207397461, 0.4755348265171051, -1.0462276935577393, 0.022140540182590485, 0.0, 0.0, 0.0, 0, 0, 0, 0, 0, 0, 0.4769255220890045, -1.0486284494400024, 0.02220665104687214
12114, 0.009387748315930367, -0.12730476260185242, 0.10761503875255585, -0.0497160330414772, -0.047175083309412, -0.1426604837179184, 0.0015561934560537338, -0.0019195412751287222, 0.999164342880249, 0.4769255220890045, -1.0486284494400024, 0.02220665104687214, 0.0, 0.0, 0.0, 0, 0, 0, 0, 0, 0, 0.47831955552101135, -1.0510306358337402, 0.02227143384516239
12124, 0.00913569051772356, -0.12583351135253906, 0.10687306523323059, -0.1165633350610733, -0.1683766096830368, -0.2245028018951416, 0.0023289467208087444, -0.004245304968208075, 1.0006113052368164, 0.47831955552101135, -1.0510306358337402, 0.02227143384516239, 0.0, 0.0, 0.0, 0, 0, 0, 0, 0, 0, 0.4797174632549286, -1.0534353256225586, 0.022335520014166832
12134, 0.010137357749044895, -0.12382043898105621, 0.10720932483673096, 0.08608704805374146, -0.23287944495677948, -0.03345012292265892, -0.00023406586842611432, -0.003680810797959566, 1.001338005065918, 0.4797174632549286, -1.0534353256225586, 0.022335520014166832, 0.0, 0.0, 0.0, 0, 0, 0, 0, 0, 0, 0.48111918568611145, -1.0558441877365112, 0.02240024507045746
12144, 0.00926163513213396, -0.12304376810789108, 0.10561590641736984, -0.07878749072551727, 0.07171504199504852, -0.2058393955230713, 0.0004948655259795487, -0.0030105903279036283, 1.0007431507110596, 0.48111918568611145, -1.0558441877365112, 0.02240024507045746, 0.0, 0.0, 0.0, 0, 0, 0, 0, 0, 0, 0.48252353072166443, -1.0582571029663086, 0.02246587909758091
12154, 0.009294254705309868, -0.12207494676113129, 0.10669317841529846, 0.16553130745887756, -0.31190225481987, 0.0698046088218689, -0.00014052189362701029, -0.001336321234703064, 1.0015119314193726, 0.48252353072166443, -1.0582571029663086, 0.02246587909758091, 0.0, 0.0, 0.0, 0, 0, 0, 0, 0, 0, 0.48393017053604126, -1.0606727600097656, 0.022532330825924873
12164, 0.010169778019189835, -0.12162317335605621, 0.1067970022559166, 0.04531576484441757, 0.13363267481327057, -0.02490714192390442, -0.00045191741082817316, -0.001549656386487186, 1.0014740228652954, 0.48393017053604126, -1.0606727600097656, 0.022532330825924873, 0.0, 0.0, 0.0, 0, 0, 0, 0, 0, 0, 0.48533886671066284, -1.063090205192566, 0.022599929943680763
12174, 0.008691963739693165, -0.12349492311477661, 0.10604128986597061, -0.20734746754169464, 0.29142141342163086, 0.008167479187250137, 0.000820118875708431, -0.0010241917334496975, 0.9993684887886047, 0.48533886671066284, -1.063090205192566, 0.022599929943680763, 0.0, 0.0, 0.0, 0, 0, 0, 0, 0, 0, 0.48674964904785156, -1.0655089616775513, 0.022668171674013138
12184, 0.008958003483712673, -0.12280682474374771, 0.10646822303533554, 0.014260624535381794, -0.08676229417324066, 0.12488731741905212, -0.00123148737475276, -0.002493980573490262, 1.0013620853424072, 0.48674964904785156, -1.0655089616775513, 0.022668171674013138, 0.0, 0.0, 0.0, 0, 0, 0, 0, 0, 0, 0.4881625473499298, -1.0679292678833008, 0.02273659221827984
12194, 0.008433813229203224, -0.1215038001537323, 0.10751491785049438, -0.10362383723258972, -0.07837419956922531, -0.09834599494934082, -0.00024140390451066196, -0.0018539961893111467, 0.999935507774353, 0.4881625473499298, -1.0679292678833008, 0.02273659221827984, 0.0, 0.0, 0.0, 0, 0, 0, 0, 0, 0, 0.4895767569541931, -1.0703517198562622, 0.022805355489253998
12204, 0.008528780192136765, -0.12216708064079285, 0.10759124159812927, 0.056837886571884155, 0.09231783449649811, -0.08093564212322235, 0.001606201403774321, -0.004252229817211628, 1.0004656314849854, 0.4895767569541931, -1.0703517198562622, 0.022805355489253998, 0.0, 0.0, 0.0, 0, 0, 0, 0, 0, 0, 0.49099284410476685, -1.0727769136428833, 0.022874340415000916
12214, 0.007972006686031818, -0.12181967496871948, 0.10786173492670059, -0.15160156786441803, 0.1238998994231224, -0.00518179452046752, 0.0017395527102053165, -0.0040301731787621975, 1.0001592636108398, 0.49099284410476685, -1.0727769136428833, 0.022874340415000916, 0.0, 0.0, 0.0, 0, 0, 0, 0, 0, 0, 0.4924125671386719, -1.0752058029174805, 0.022943414747714996
12224, 0.007104263640940189, -0.12348635494709015, 0.10669372975826263, -0.13647359609603882, 0.09797615557909012, -0.06659609824419022, 0.0003514089621603489, -0.0030378573574125767, 1.0010263919830322, 0.4924125671386719, -1.0752058029174805, 0.022943414747714996, 0.0, 0.0, 0.0, 0, 0, 0, 0, 0, 0, 0.4938359558582306, -1.0776387453079224, 0.023012937977910042
12234, 0.00699178921058774, -0.12319514155387878, 0.10742311179637909, 0.11234281957149506, -0.022228214889764786, 0.22772714495658875, -0.0008188526844605803, -0.0019368692301213741, 1.0000269412994385, 0.4938359558582306, -1.0776387453079224, 0.023012937977910042, 0.0, 0.0, 0.0, 0, 0, 0, 0, 0, 0, 0.49526137113571167, -1.0800745487213135, 0.023083258420228958
12244, 0.006987634114921093, -0.12368287146091461, 0.10847923904657364, -0.12255623936653137, -0.06268607079982758, 0.13945463299751282, 0.0002909897593781352, -0.0028661342803388834, 0.9995774030685425, 0.49526137113571167, -1.0800745487213135, 0.023083258420228958, 0.0, 0.0, 0.0, 0, 0, 0, 0, 0, 0, 0.4966886639595032, -1.082512378692627, 0.023153675720095634
12254, 0.006521148141473532, -0.12260375916957855, 0.10965705662965775, -0.10187723487615585, -0.0453396737575531, 0.16252601146697998, -0.0007491690339520574, -0.003292621113359928, 1.0000770092010498, 0.4966886639595032, -1.082512378692627, 0.023153675720095634, 0.0, 0.0, 0.0, 0, 0, 0, 0, 0, 0, 0.49811798334121704, -1.0849530696868896, 0.023223552852869034
12264, 0.006152919959276915, -0.12279867380857468, 0.11053922027349472, 0.10307012498378754, 0.04035966470837593, 0.21239590644836426, -0.0013770009391009808, -0.0025244965218007565, 1.0012106895446777, 0.49811798334121704, -1.0849530696868896, 0.023223552852869034, 0.0, 0.0, 0.0, 0, 0, 0, 0, 0, 0, 0.49954864382743835, -1.0873967409133911, 0.023293640464544296
12274, 0.0059637706726789474, -0.12460218369960785, 0.10978422313928604, -0.04267701879143715, 0.3225885033607483, -0.07732664048671722, -0.0010345038026571274, -0.002303172368556261, 0.9994185566902161, 0.49954864382743835, -1.0873967409133911, 0.023293640464544296, 0.0, 0.0, 0.0, 0, 0, 0, 0, 0, 0, 0.5009804964065552, -1.0898432731628418, 0.02336406707763672
12284, 0.006448496598750353, -0.12435971200466156, 0.11045241355895996, 0.15052388608455658, -0.2499435395002365, 0.14046747982501984, -0.000886124384123832, -0.003843276994302869, 1.0000263452529907, 0.5009804964065552, -1.0898432731628418, 0.02336406707763672, 0.0, 0.0, 0.0, 0, 0, 0, 0, 0, 0, 0.5024136304855347, -1.0922925472259521, 0.023434380069375038
12294, 0.007641594856977463, -0.12294409424066544, 0.11107326298952103, 0.15542922914028168, -0.18675285577774048, 0.026488114148378372, 0.001145872287452221, -0.0021212410647422075, 0.9996938109397888, 0.5024136304855347, -1.0922925472259521, 0.023434380069375038, 0.0, 0.0, 0.0, 0, 0, 0, 0, 0, 0, 0.503848671913147, -1.0947449207305908, 0.023504646494984627
12304, 0.006135226227343082, -0.12305305153131485, 0.11100191622972488, -0.06290463358163834, -0.025864621624350548, 0.10392503440380096, 0.00023873671307228506, -0.0021240105852484703, 0.999006450176239, 0.503848671913147, -1.0947449207305908, 0.023504646494984627, 0.0, 0.0, 0.0, 0, 0, 0, 0, 0, 0, 0.5052863359451294, -1.09719979763031, 0.023574283346533775
12314, 0.006821996998041868, -0.1234038919210434, 0.1118837520480156, 0.07098372280597687, 0.18305641412734985, 0.1455661803483963, -0.0007131074089556932, -0.003987864125519991, 1.0020211935043335, 0.5052863359451294, -1.09719979763031, 0.023574283346533775, 0.0, 0.0, 0.0, 0, 0, 0, 0, 0, 0, 0.5067262649536133, -1.0996575355529785, 0.023643799126148224
12324, 0.00657819677144289, -0.12280666083097458, 0.11093169450759888, -0.053831469267606735, 0.17422625422477722, -0.13170990347862244, -0.0019077727338299155, -0.002987450687214732, 1.0018466711044312, 0.5067262649536133, -1.0996575355529785, 0.023643799126148224, 0.0, 0.0, 0.0, 0, 0, 0, 0, 0, 0, 0.5081674456596375, -1.1021188497543335, 0.023714978247880936
12334, 0.006545328069478273, -0.12204389274120331, 0.11116639524698257, -0.0373166985809803, -0.04631849750876427, -0.09997478872537613, 8.220909512601793e-05, -0.0035488929133862257, 1.000806450843811, 0.5081674456596375, -1.1021188497543335, 0.023714978247880936, 0.0, 0.0, 0.0, 0, 0, 0, 0, 0, 0, 0.5096095204353333, -1.1045836210250854, 0.023787813261151314
12344, 0.005538828670978546, -0.12344114482402802, 0.11005356162786484, -0.1545543223619461, 0.4011087715625763, -0.016705313697457314, 0.0007120416848920286, -0.004458037670701742, 1.0007884502410889, 0.5096095204353333, -1.1045836210250854, 0.023787813261151314, 0.0, 0.0, 0.0, 0, 0, 0, 0, 0, 0, 0.5110536217689514, -1.1070523262023926, 0.02386133000254631
12354, 0.006277722772210836, -0.12299854308366776, 0.10943716019392014, 0.054044775664806366, -0.11200762540102005, -0.09973300993442535, -0.00047586296568624675, -0.0028866762295365334, 1.0016539096832275, 0.5110536217689514, -1.1070523262023926, 0.02386133000254631, 0.0, 0.0, 0.0, 0, 0, 0, 0, 0, 0, 0.5125002264976501, -1.1095249652862549, 0.023935848847031593
12364, 0.006222945172339678, -0.12285208702087402, 0.10844991356134415, -0.07204046100378036, 0.06512545794248581, -0.1283126026391983, -0.0004571000172290951, -0.0017010146984830499, 1.0004775524139404, 0.5125002264976501, -1.1095249652862549, 0.023935848847031593, 0.0, 0.0, 0.0, 0, 0, 0, 0, 0, 0, 0.5139488577842712, -1.1120004653930664, 0.02401147224009037
12374, 0.006197520066052675, -0.12183082103729248, 0.10781951248645782, 0.061788566410541534, 0.06355492770671844, -0.16822801530361176, 0.0012158125173300505, -0.0049404241144657135, 1.0000451803207397, 0.5139488577842712, -1.1120004653930664, 0.02401147224009037, 0.0, 0.0, 0.0, 0, 0, 0, 0, 0, 0, 0.5153996348381042, -1.1144788265228271, 0.024087443947792053
12384, 0.006703005637973547, -0.12406360357999802, 0.10932796448469162, -0.039088666439056396, 0.18948322534561157, 0.11342863738536835, -0.00038064277032390237, -0.003132434794679284, 0.9998879432678223, 0.5153996348381042, -1.1144788265228271, 0.024087443947792053, 0.0, 0.0, 0.0, 0, 0, 0, 0, 0, 0, 0.5168529748916626, -1.116961121559143, 0.024163490161299706
12394, 0.007760785520076752, -0.12351243942975998, 0.10963934659957886, 0.027245307341217995, -0.023344622924923897, 0.052260324358940125, -0.001965750940144062, -0.004261908587068319, 1.000945806503296, 0.5168529748916626, -1.116961121559143, 0.024163490161299706, 0.0, 0.0, 0.0, 0, 0, 0, 0, 0, 0, 0.5183081030845642, -1.1194474697113037, 0.024239826947450638
12404, 0.006988999433815479, -0.12147960066795349, 0.10944323986768723, -0.05481088161468506, -0.3005061745643616, 0.015462933108210564, -0.002061613369733095, -0.003816459560766816, 0.9997567534446716, 0.5183081030845642, -1.1194474697113037, 0.024239826947450638, 0.0, 0.0, 0.0, 0, 0, 0, 0, 0, 0, 0.519763708114624, -1.1219375133514404, 0.024316862225532532
12414, 0.007099559530615807, -0.12228085845708847, 0.1089555025100708, -0.07663572579622269, 0.022010279819369316, 0.07855069637298584, 0.0012621399946510792, -0.006179123185575008, 0.9986706376075745, 0.519763708114624, -1.1219375133514404, 0.024316862225532532, 0.0, 0.0, 0.0, 0, 0, 0, 0, 0, 0, 0.521220326423645, -1.1244322061538696, 0.024393469095230103
12424, 0.007586727384477854, -0.12305429577827454, 0.10977460443973541, -0.08611626923084259, 0.017268413677811623, 0.0033741246443241835, 0.0009767861338332295, -0.0034345106687396765, 0.9993149638175964, 0.521220326423645, -1.1244322061538696, 0.024393469095230103, 0.0, 0.0, 0.0, 0, 0, 0, 0, 0, 0, 0.5226796865463257, -1.1269320249557495, 0.024469012394547462
12434, 0.008315297774970531, -0.12406166642904282, 0.110877126455307, 0.07045551389455795, 0.013910377398133278, 0.141816645860672, -0.0012523074401542544, -0.003248360240831971, 0.9987255930900574, 0.5226796865463257, -1.1269320249557495, 0.024469012394547462, 0.0, 0.0, 0.0, 0, 0, 0, 0, 0, 0, 0.5241415500640869, -1.1294355392456055, 0.024543682113289833
12444, 0.00807418767362833, -0.12464690208435059, 0.11050049215555191, -0.045173294842243195, 0.008951765485107899, -0.1837005764245987, 0.0006539865862578154, -0.001890996820293367, 1.0016213655471802, 0.5241415500640869, -1.1294355392456055, 0.024543682113289833, 0.0, 0.0, 0.0, 0, 0, 0, 0, 0, 0, 0.5256052017211914, -1.1319416761398315, 0.02461799420416355
12454, 0.00973616261035204, -0.12718717753887177, 0.11006082594394684, 0.2636774778366089, 0.2064831405878067, 0.014379054307937622, 0.0007496411562897265, -0.0021608504466712475, 1.003694772720337, 0.5256052017211914, -1.1319416761398315, 0.02461799420416355, 0.0, 0.0, 0.0, 0, 0, 0, 0, 0, 0, 0.5270715355873108, -1.1344501972198486, 0.024694494903087616
12464, 0.009273767471313477, -0.1288508176803589, 0.1103530302643776, -0.11700034886598587, 0.33285799622535706, 0.09101647883653641, 0.001264600665308535, -0.000693011621478945, 1.0011285543441772, 0.5270715355873108, -1.1344501972198486, 0.024694494903087616, 0.0, 0.0, 0.0, 0, 0, 0, 0, 0, 0, 0.5285409092903137, -1.1369606256484985, 0.024773618206381798
12474, 0.008698487654328346, -0.12949465215206146, 0.11149735003709793, 0.005567455664277077, -0.13475970923900604, 0.07488611340522766, -0.000348366069374606, -0.0023172330111265182, 0.9996545314788818, 0.5285409092903137, -1.1369606256484985, 0.024773618206381798, 0.0, 0.0, 0.0, 0, 0, 0, 0, 0, 0, 0.530012845993042, -1.1394726037979126, 0.024853695183992386
12484, 0.009205331094563007, -0.12985828518867493, 0.11021733283996582, 0.0665355995297432, 0.08605990558862686, 0.06267046183347702, -0.0004115010960958898, -0.003819791367277503, 1.0003842115402222, 0.530012845993042, -1.1394726037979126, 0.024853695183992386, 0.0, 0.0, 0.0, 0, 0, 0, 0, 0, 0, 0.531486988067627, -1.1419870853424072, 0.024934196844697
12494, 0.010457916185259819, -0.13129162788391113, 0.11046476662158966, 0.041051268577575684, 0.16375167667865753, 0.22023248672485352, -0.0010850271210074425, -0.0034469650126993656, 1.0008761882781982, 0.531486988067627, -1.1419870853424072, 0.024934196844697, 0.0, 0.0, 0.0, 0, 0, 0, 0, 0, 0, 0.5329627990722656, -1.1445053815841675, 0.025015246123075485
12504, 0.0100699532777071, -0.13300035893917084, 0.11049540340900421, 0.012755068950355053, -0.07655632495880127, -0.0032868417911231518, 0.0019253271166235209, -0.0015754366759210825, 0.9993991255760193, 0.5329627990722656, -1.1445053815841675, 0.025015246123075485, 0.0, 0.0, 0.0, 0, 0, 0, 0, 0, 0, 0.5344406962394714, -1.1470268964767456, 0.025096727535128593
12514, 0.010651293210685253, -0.13302309811115265, 0.110227569937706, 0.14741452038288116, 0.1263885498046875, 0.11382866650819778, 0.00034976235474459827, -0.0029829442501068115, 0.999197244644165, 0.5344406962394714, -1.1470268964767456, 0.025096727535128593, 0.0, 0.0, 0.0, 0, 0, 0, 0, 0, 0, 0.5359216332435608, -1.149550199508667, 0.025178177282214165
12524, 0.01055587362498045, -0.1356753557920456, 0.1126880943775177, -0.04998853802680969, 0.4743613302707672, 0.09141041338443756, 0.0002952760842163116, -0.0028975505847483873, 0.9976410865783691, 0.5359216332435608, -1.149550199508667, 0.025178177282214165, 0.0, 0.0, 0.0, 0, 0, 0, 0, 0, 0, 0.5374054908752441, -1.152076244354248, 0.02525848150253296
12534, 0.011098593473434448, -0.13708791136741638, 0.11342892050743103, 0.08771421015262604, 0.07405867427587509, 0.10215076059103012, 0.0009124780190177262, -0.002617725171148777, 1.0001438856124878, 0.5374054908752441, -1.152076244354248, 0.02525848150253296, 0.0, 0.0, 0.0, 0, 0, 0, 0, 0, 0, 0.5388919115066528, -1.1546056270599365, 0.025337332859635353
12544, 0.011847671121358871, -0.1376844197511673, 0.11444307118654251, 0.014161147177219391, 0.20696322619915009, 0.12444094568490982, 0.001142051536589861, -0.003767074551433325, 1.0003169775009155, 0.5388919115066528, -1.1546056270599365, 0.025337332859635353, 0.0, 0.0, 0.0, 0, 0, 0, 0, 0, 0, 0.5403813719749451, -1.1571379899978638, 0.025415856391191483
12554, 0.012813248671591282, -0.13819676637649536, 0.11476690322160721, 0.1819247156381607, 0.058512765914201736, 0.08083800226449966, 0.0005196630372665823, -0.0020151580683887005, 0.9996725916862488, 0.5403813719749451, -1.1571379899978638, 0.025415856391191483, 0.0, 0.0, 0.0, 0, 0, 0, 0, 0, 0, 0.5420236587524414, -1.1599270105361938, 0.025502266362309456
12564, 0.012360269203782082, -0.13984356820583344, 0.11545678973197937, 0.05846104025840759, 0.049287620931863785, -0.0012861931463703513, 0.0008730426197871566, -0.0016046443488448858, 1.0007884502410889, 0.5420236587524414, -1.1599270105361938, 0.025502266362309456, 0.0, 0.0, 0.0, 0, 0, 0, 0, 0, 0, 0.5435200333595276, -1.1624650955200195, 0.025580966845154762
